[
    {
        "cidade": "Anori",
        "uf": "AM",
        "latitude": -3.746027,
        "longitude": -61.657485,
        "empresa": "SKY/AT&T",
        "pf-ou-pj": "Pessoa Física",
        "tecnologia": "LTE",
        "tipo-de-Produto": "INTERNET",
        "meio-de-acesso": "Rádio"
    },
    {
        "cidade": "Boca do Acre",
        "uf": "AM",
        "latitude": -8.742322,
        "longitude": -67.391926,
        "empresa": "SKY/AT&T",
        "pf-ou-pj": "Pessoa Física",
        "tecnologia": "LTE",
        "tipo-de-Produto": "INTERNET",
        "meio-de-acesso": "Rádio"
    },
    {
        "cidade": "Carauari",
        "uf": "AM",
        "latitude": -4.881605,
        "longitude": -66.908559,
        "empresa": "SKY/AT&T",
        "pf-ou-pj": "Pessoa Física",
        "tecnologia": "LTE",
        "tipo-de-Produto": "INTERNET",
        "meio-de-acesso": "Rádio"
    },
    {
        "cidade": "Codajás",
        "uf": "AM",
        "latitude": -3.830528,
        "longitude": -62.065787,
        "empresa": "SKY/AT&T",
        "pf-ou-pj": "Pessoa Física",
        "tecnologia": "LTE",
        "tipo-de-Produto": "INTERNET",
        "meio-de-acesso": "Rádio"
    },
    {
        "cidade": "Iranduba",
        "uf": "AM",
        "latitude": -3.274792,
        "longitude": -60.189953,
        "empresa": "SKY/AT&T",
        "pf-ou-pj": "Pessoa Física",
        "tecnologia": "LTE",
        "tipo-de-Produto": "INTERNET",
        "meio-de-acesso": "Rádio"
    },
    {
        "cidade": "Itacoatiara",
        "uf": "AM",
        "latitude": -3.138607,
        "longitude": -58.444874,
        "empresa": "SKY/AT&T",
        "pf-ou-pj": "Pessoa Física",
        "tecnologia": "LTE",
        "tipo-de-Produto": "INTERNET",
        "meio-de-acesso": "Rádio"
    },
    {
        "cidade": "Manacapuru",
        "uf": "AM",
        "latitude": -3.290657,
        "longitude": -60.621581,
        "empresa": "SKY/AT&T",
        "pf-ou-pj": "Pessoa Física",
        "tecnologia": "LTE",
        "tipo-de-Produto": "INTERNET",
        "meio-de-acesso": "Rádio"
    },
    {
        "cidade": "Manaquiri",
        "uf": "AM",
        "latitude": -3.440784,
        "longitude": -60.461239,
        "empresa": "SKY/AT&T",
        "pf-ou-pj": "Pessoa Física",
        "tecnologia": "LTE",
        "tipo-de-Produto": "INTERNET",
        "meio-de-acesso": "Rádio"
    },
    {
        "cidade": "Manaus",
        "uf": "AM",
        "latitude": -3.118662,
        "longitude": -60.02123,
        "empresa": "SKY/AT&T",
        "pf-ou-pj": "Pessoa Física",
        "tecnologia": "FTTH",
        "tipo-de-Produto": "INTERNET",
        "meio-de-acesso": "Fibra"
    },
    {
        "cidade": "Manaus",
        "uf": "AM",
        "latitude": -3.118662,
        "longitude": -60.02123,
        "empresa": "SKY/AT&T",
        "pf-ou-pj": "Pessoa Física",
        "tecnologia": "LTE",
        "tipo-de-Produto": "INTERNET",
        "meio-de-acesso": "Rádio"
    },
    {
        "cidade": "Maués",
        "uf": "AM",
        "latitude": -3.392891,
        "longitude": -57.706731,
        "empresa": "SKY/AT&T",
        "pf-ou-pj": "Pessoa Física",
        "tecnologia": "LTE",
        "tipo-de-Produto": "INTERNET",
        "meio-de-acesso": "Rádio"
    },
    {
        "cidade": "Nhamundá",
        "uf": "AM",
        "latitude": -2.207932,
        "longitude": -56.711151,
        "empresa": "SKY/AT&T",
        "pf-ou-pj": "Pessoa Física",
        "tecnologia": "LTE",
        "tipo-de-Produto": "INTERNET",
        "meio-de-acesso": "Rádio"
    },
    {
        "cidade": "Novo Aripuanã",
        "uf": "AM",
        "latitude": -5.125929,
        "longitude": -60.373179,
        "empresa": "SKY/AT&T",
        "pf-ou-pj": "Pessoa Física",
        "tecnologia": "LTE",
        "tipo-de-Produto": "INTERNET",
        "meio-de-acesso": "Rádio"
    },
    {
        "cidade": "Parintins",
        "uf": "AM",
        "latitude": -2.637412,
        "longitude": -56.729045,
        "empresa": "SKY/AT&T",
        "pf-ou-pj": "Pessoa Física",
        "tecnologia": "LTE",
        "tipo-de-Produto": "INTERNET",
        "meio-de-acesso": "Rádio"
    },
    {
        "cidade": "Presidente Figueiredo",
        "uf": "AM",
        "latitude": -2.029813,
        "longitude": -60.02338,
        "empresa": "SKY/AT&T",
        "pf-ou-pj": "Pessoa Física",
        "tecnologia": "LTE",
        "tipo-de-Produto": "INTERNET",
        "meio-de-acesso": "Rádio"
    },
    {
        "cidade": "São Sebastião do Uatumã",
        "uf": "AM",
        "latitude": -2.559147,
        "longitude": -57.873049,
        "empresa": "SKY/AT&T",
        "pf-ou-pj": "Pessoa Física",
        "tecnologia": "LTE",
        "tipo-de-Produto": "INTERNET",
        "meio-de-acesso": "Rádio"
    }
]