[
    {
        "cidade": "Bayeux",
        "uf": "PB",
        "latitude": -7.123797,
        "longitude": -34.929336,
        "empresa": "SKY/AT&T",
        "pf-ou-pj": "Pessoa Física",
        "tecnologia": "LTE",
        "tipo-de-Produto": "INTERNET",
        "meio-de-acesso": "Rádio"
    },
    {
        "cidade": "Cabedelo",
        "uf": "PB",
        "latitude": -6.987314,
        "longitude": -34.828409,
        "empresa": "SKY/AT&T",
        "pf-ou-pj": "Pessoa Física",
        "tecnologia": "FTTH",
        "tipo-de-Produto": "INTERNET",
        "meio-de-acesso": "Fibra"
    },
    {
        "cidade": "Cabedelo",
        "uf": "PB",
        "latitude": -6.987314,
        "longitude": -34.828409,
        "empresa": "SKY/AT&T",
        "pf-ou-pj": "Pessoa Física",
        "tecnologia": "LTE",
        "tipo-de-Produto": "INTERNET",
        "meio-de-acesso": "Rádio"
    },
    {
        "cidade": "Campina Grande",
        "uf": "PB",
        "latitude": -7.221958,
        "longitude": -35.873144,
        "empresa": "SKY/AT&T",
        "pf-ou-pj": "Pessoa Física",
        "tecnologia": "LTE",
        "tipo-de-Produto": "INTERNET",
        "meio-de-acesso": "Rádio"
    },
    {
        "cidade": "João Pessoa",
        "uf": "PB",
        "latitude": -7.11509,
        "longitude": -34.864121,
        "empresa": "SKY/AT&T",
        "pf-ou-pj": "Pessoa Física",
        "tecnologia": "LTE",
        "tipo-de-Produto": "INTERNET",
        "meio-de-acesso": "Rádio"
    },
    {
        "cidade": "Lucena",
        "uf": "PB",
        "latitude": -6.902578,
        "longitude": -34.874769,
        "empresa": "SKY/AT&T",
        "pf-ou-pj": "Pessoa Física",
        "tecnologia": "LTE",
        "tipo-de-Produto": "INTERNET",
        "meio-de-acesso": "Rádio"
    },
    {
        "cidade": "Santa Rita",
        "uf": "PB",
        "latitude": -7.117242,
        "longitude": -34.975295,
        "empresa": "SKY/AT&T",
        "pf-ou-pj": "Pessoa Física",
        "tecnologia": "LTE",
        "tipo-de-Produto": "INTERNET",
        "meio-de-acesso": "Rádio"
    },
    {
        "cidade": "Uiraúna",
        "uf": "PB",
        "latitude": -6.515044,
        "longitude": -38.412754,
        "empresa": "SKY/AT&T",
        "pf-ou-pj": "Pessoa Física",
        "tecnologia": "LTE",
        "tipo-de-Produto": "INTERNET",
        "meio-de-acesso": "Rádio"
    }
]