[
    {
        "cidade": "Bagé",
        "uf": "RS",
        "latitude": -31.32965,
        "longitude": -54.09992,
        "empresa": "SKY/AT&T",
        "pf-ou-pj": "Pessoa Jurídica",
        "tecnologia": "FTTH",
        "tipo-de-Produto": "INTERNET",
        "meio-de-acesso": "Fibra"
    },
    {
        "cidade": "Carlos Barbosa",
        "uf": "RS",
        "latitude": -29.296949,
        "longitude": -51.502847,
        "empresa": "SKY/AT&T",
        "pf-ou-pj": "Pessoa Jurídica",
        "tecnologia": "FTTH",
        "tipo-de-Produto": "INTERNET",
        "meio-de-acesso": "Fibra"
    },
    {
        "cidade": "Erechim",
        "uf": "RS",
        "latitude": -27.63638,
        "longitude": -52.26969,
        "empresa": "SKY/AT&T",
        "pf-ou-pj": "Pessoa Jurídica",
        "tecnologia": "FTTH",
        "tipo-de-Produto": "INTERNET",
        "meio-de-acesso": "Fibra"
    },
    {
        "cidade": "Novo Hamburgo",
        "uf": "RS",
        "latitude": -29.687548,
        "longitude": -51.132828,
        "empresa": "SKY/AT&T",
        "pf-ou-pj": "Pessoa Jurídica",
        "tecnologia": "LTE",
        "tipo-de-Produto": "INTERNET",
        "meio-de-acesso": "Rádio"
    },
    {
        "cidade": "São Leopoldo",
        "uf": "RS",
        "latitude": -29.754494,
        "longitude": -51.149773,
        "empresa": "SKY/AT&T",
        "pf-ou-pj": "Pessoa Jurídica",
        "tecnologia": "LTE",
        "tipo-de-Produto": "INTERNET",
        "meio-de-acesso": "Rádio"
    },
    {
        "cidade": "Tramandaí",
        "uf": "RS",
        "latitude": -29.98414,
        "longitude": -50.132187,
        "empresa": "SKY/AT&T",
        "pf-ou-pj": "Pessoa Jurídica",
        "tecnologia": "FTTH",
        "tipo-de-Produto": "INTERNET",
        "meio-de-acesso": "Fibra"
    }
]