[
    {
        "cidade": "Adamantina",
        "uf": "SP",
        "latitude": -21.682012,
        "longitude": -51.073695,
        "empresa": "TIM",
        "pf-ou-pj": "Pessoa Jurídica",
        "tecnologia": "ETHERNET",
        "tipo-de-Produto": "INTERNET",
        "meio-de-acesso": "Fibra"
    },
    {
        "cidade": "Americana",
        "uf": "SP",
        "latitude": -22.73736,
        "longitude": -47.333119,
        "empresa": "TIM",
        "pf-ou-pj": "Pessoa Jurídica",
        "tecnologia": "ETHERNET",
        "tipo-de-Produto": "INTERNET",
        "meio-de-acesso": "Cabo Metálico"
    },
    {
        "cidade": "Americana",
        "uf": "SP",
        "latitude": -22.73736,
        "longitude": -47.333119,
        "empresa": "TIM",
        "pf-ou-pj": "Pessoa Jurídica",
        "tecnologia": "ETHERNET",
        "tipo-de-Produto": "INTERNET",
        "meio-de-acesso": "Fibra"
    },
    {
        "cidade": "Amparo",
        "uf": "SP",
        "latitude": -22.70879,
        "longitude": -46.772022,
        "empresa": "TIM",
        "pf-ou-pj": "Pessoa Jurídica",
        "tecnologia": "ETHERNET",
        "tipo-de-Produto": "INTERNET",
        "meio-de-acesso": "Fibra"
    },
    {
        "cidade": "Arujá",
        "uf": "SP",
        "latitude": -23.396476,
        "longitude": -46.319983,
        "empresa": "TIM",
        "pf-ou-pj": "Pessoa Jurídica",
        "tecnologia": "ETHERNET",
        "tipo-de-Produto": "LINHA_DEDICADA",
        "meio-de-acesso": "Fibra"
    },
    {
        "cidade": "Barueri",
        "uf": "SP",
        "latitude": -23.505689,
        "longitude": -46.879042,
        "empresa": "TIM",
        "pf-ou-pj": "Pessoa Jurídica",
        "tecnologia": "ATM",
        "tipo-de-Produto": "LINHA_DEDICADA",
        "meio-de-acesso": "Cabo Metálico"
    },
    {
        "cidade": "Barueri",
        "uf": "SP",
        "latitude": -23.505689,
        "longitude": -46.879042,
        "empresa": "TIM",
        "pf-ou-pj": "Pessoa Jurídica",
        "tecnologia": "ETHERNET",
        "tipo-de-Produto": "INTERNET",
        "meio-de-acesso": "Cabo Metálico"
    },
    {
        "cidade": "Barueri",
        "uf": "SP",
        "latitude": -23.505689,
        "longitude": -46.879042,
        "empresa": "TIM",
        "pf-ou-pj": "Pessoa Jurídica",
        "tecnologia": "ETHERNET",
        "tipo-de-Produto": "INTERNET",
        "meio-de-acesso": "Fibra"
    },
    {
        "cidade": "Barueri",
        "uf": "SP",
        "latitude": -23.505689,
        "longitude": -46.879042,
        "empresa": "TIM",
        "pf-ou-pj": "Pessoa Jurídica",
        "tecnologia": "ETHERNET",
        "tipo-de-Produto": "LINHA_DEDICADA",
        "meio-de-acesso": "Fibra"
    },
    {
        "cidade": "Bauru",
        "uf": "SP",
        "latitude": -22.324569,
        "longitude": -49.087142,
        "empresa": "TIM",
        "pf-ou-pj": "Pessoa Jurídica",
        "tecnologia": "ETHERNET",
        "tipo-de-Produto": "INTERNET",
        "meio-de-acesso": "Fibra"
    },
    {
        "cidade": "Bauru",
        "uf": "SP",
        "latitude": -22.324569,
        "longitude": -49.087142,
        "empresa": "TIM",
        "pf-ou-pj": "Pessoa Jurídica",
        "tecnologia": "ETHERNET",
        "tipo-de-Produto": "LINHA_DEDICADA",
        "meio-de-acesso": "Fibra"
    },
    {
        "cidade": "Birigui",
        "uf": "SP",
        "latitude": -21.291034,
        "longitude": -50.343162,
        "empresa": "TIM",
        "pf-ou-pj": "Pessoa Jurídica",
        "tecnologia": "ETHERNET",
        "tipo-de-Produto": "INTERNET",
        "meio-de-acesso": "Rádio"
    },
    {
        "cidade": "Boituva",
        "uf": "SP",
        "latitude": -23.285531,
        "longitude": -47.678574,
        "empresa": "TIM",
        "pf-ou-pj": "Pessoa Jurídica",
        "tecnologia": "ETHERNET",
        "tipo-de-Produto": "LINHA_DEDICADA",
        "meio-de-acesso": "Fibra"
    },
    {
        "cidade": "Botucatu",
        "uf": "SP",
        "latitude": -22.883697,
        "longitude": -48.443706,
        "empresa": "TIM",
        "pf-ou-pj": "Pessoa Jurídica",
        "tecnologia": "ETHERNET",
        "tipo-de-Produto": "LINHA_DEDICADA",
        "meio-de-acesso": "Fibra"
    },
    {
        "cidade": "Bragança Paulista",
        "uf": "SP",
        "latitude": -22.952681,
        "longitude": -46.54188,
        "empresa": "TIM",
        "pf-ou-pj": "Pessoa Jurídica",
        "tecnologia": "ETHERNET",
        "tipo-de-Produto": "LINHA_DEDICADA",
        "meio-de-acesso": "Fibra"
    },
    {
        "cidade": "Caieiras",
        "uf": "SP",
        "latitude": -23.360729,
        "longitude": -46.73974,
        "empresa": "TIM",
        "pf-ou-pj": "Pessoa Jurídica",
        "tecnologia": "ETHERNET",
        "tipo-de-Produto": "INTERNET",
        "meio-de-acesso": "Cabo Metálico"
    },
    {
        "cidade": "Caieiras",
        "uf": "SP",
        "latitude": -23.360729,
        "longitude": -46.73974,
        "empresa": "TIM",
        "pf-ou-pj": "Pessoa Jurídica",
        "tecnologia": "ETHERNET",
        "tipo-de-Produto": "INTERNET",
        "meio-de-acesso": "Rádio"
    },
    {
        "cidade": "Cajamar",
        "uf": "SP",
        "latitude": -23.355014,
        "longitude": -46.878146,
        "empresa": "TIM",
        "pf-ou-pj": "Pessoa Jurídica",
        "tecnologia": "ETHERNET",
        "tipo-de-Produto": "INTERNET",
        "meio-de-acesso": "Fibra"
    },
    {
        "cidade": "Campinas",
        "uf": "SP",
        "latitude": -22.905346,
        "longitude": -47.06595,
        "empresa": "TIM",
        "pf-ou-pj": "Pessoa Jurídica",
        "tecnologia": "ATM",
        "tipo-de-Produto": "LINHA_DEDICADA",
        "meio-de-acesso": "Fibra"
    },
    {
        "cidade": "Campinas",
        "uf": "SP",
        "latitude": -22.905346,
        "longitude": -47.06595,
        "empresa": "TIM",
        "pf-ou-pj": "Pessoa Jurídica",
        "tecnologia": "ETHERNET",
        "tipo-de-Produto": "INTERNET",
        "meio-de-acesso": "Cabo Metálico"
    },
    {
        "cidade": "Campinas",
        "uf": "SP",
        "latitude": -22.905346,
        "longitude": -47.06595,
        "empresa": "TIM",
        "pf-ou-pj": "Pessoa Jurídica",
        "tecnologia": "ETHERNET",
        "tipo-de-Produto": "INTERNET",
        "meio-de-acesso": "Fibra"
    },
    {
        "cidade": "Campinas",
        "uf": "SP",
        "latitude": -22.905346,
        "longitude": -47.06595,
        "empresa": "TIM",
        "pf-ou-pj": "Pessoa Jurídica",
        "tecnologia": "ETHERNET",
        "tipo-de-Produto": "LINHA_DEDICADA",
        "meio-de-acesso": "Cabo Metálico"
    },
    {
        "cidade": "Campinas",
        "uf": "SP",
        "latitude": -22.905346,
        "longitude": -47.06595,
        "empresa": "TIM",
        "pf-ou-pj": "Pessoa Jurídica",
        "tecnologia": "ETHERNET",
        "tipo-de-Produto": "LINHA_DEDICADA",
        "meio-de-acesso": "Fibra"
    },
    {
        "cidade": "Campinas",
        "uf": "SP",
        "latitude": -22.905346,
        "longitude": -47.06595,
        "empresa": "TIM",
        "pf-ou-pj": "Pessoa Jurídica",
        "tecnologia": "ETHERNET",
        "tipo-de-Produto": "LINHA_DEDICADA",
        "meio-de-acesso": "Rádio"
    },
    {
        "cidade": "Campinas",
        "uf": "SP",
        "latitude": -22.905346,
        "longitude": -47.06595,
        "empresa": "TIM",
        "pf-ou-pj": "Pessoa Jurídica",
        "tecnologia": "FTTH",
        "tipo-de-Produto": "INTERNET",
        "meio-de-acesso": "Fibra"
    },
    {
        "cidade": "Caraguatatuba",
        "uf": "SP",
        "latitude": -23.612535,
        "longitude": -45.412533,
        "empresa": "TIM",
        "pf-ou-pj": "Pessoa Jurídica",
        "tecnologia": "ETHERNET",
        "tipo-de-Produto": "INTERNET",
        "meio-de-acesso": "Fibra"
    },
    {
        "cidade": "Carapicuíba",
        "uf": "SP",
        "latitude": -23.523471,
        "longitude": -46.840676,
        "empresa": "TIM",
        "pf-ou-pj": "Pessoa Jurídica",
        "tecnologia": "ETHERNET",
        "tipo-de-Produto": "INTERNET",
        "meio-de-acesso": "Fibra"
    },
    {
        "cidade": "Caçapava",
        "uf": "SP",
        "latitude": -23.099204,
        "longitude": -45.707645,
        "empresa": "TIM",
        "pf-ou-pj": "Pessoa Jurídica",
        "tecnologia": "ETHERNET",
        "tipo-de-Produto": "INTERNET",
        "meio-de-acesso": "Fibra"
    },
    {
        "cidade": "Cotia",
        "uf": "SP",
        "latitude": -23.602177,
        "longitude": -46.91902,
        "empresa": "TIM",
        "pf-ou-pj": "Pessoa Jurídica",
        "tecnologia": "ATM",
        "tipo-de-Produto": "LINHA_DEDICADA",
        "meio-de-acesso": "Cabo Metálico"
    },
    {
        "cidade": "Cotia",
        "uf": "SP",
        "latitude": -23.602177,
        "longitude": -46.91902,
        "empresa": "TIM",
        "pf-ou-pj": "Pessoa Jurídica",
        "tecnologia": "ETHERNET",
        "tipo-de-Produto": "INTERNET",
        "meio-de-acesso": "Fibra"
    },
    {
        "cidade": "Cotia",
        "uf": "SP",
        "latitude": -23.602177,
        "longitude": -46.91902,
        "empresa": "TIM",
        "pf-ou-pj": "Pessoa Jurídica",
        "tecnologia": "ETHERNET",
        "tipo-de-Produto": "LINHA_DEDICADA",
        "meio-de-acesso": "Fibra"
    },
    {
        "cidade": "Cubatão",
        "uf": "SP",
        "latitude": -23.891121,
        "longitude": -46.423968,
        "empresa": "TIM",
        "pf-ou-pj": "Pessoa Jurídica",
        "tecnologia": "ETHERNET",
        "tipo-de-Produto": "LINHA_DEDICADA",
        "meio-de-acesso": "Fibra"
    },
    {
        "cidade": "Diadema",
        "uf": "SP",
        "latitude": -23.681347,
        "longitude": -46.62052,
        "empresa": "TIM",
        "pf-ou-pj": "Pessoa Jurídica",
        "tecnologia": "ETHERNET",
        "tipo-de-Produto": "INTERNET",
        "meio-de-acesso": "Fibra"
    },
    {
        "cidade": "Diadema",
        "uf": "SP",
        "latitude": -23.681347,
        "longitude": -46.62052,
        "empresa": "TIM",
        "pf-ou-pj": "Pessoa Jurídica",
        "tecnologia": "ETHERNET",
        "tipo-de-Produto": "LINHA_DEDICADA",
        "meio-de-acesso": "Fibra"
    },
    {
        "cidade": "Diadema",
        "uf": "SP",
        "latitude": -23.681347,
        "longitude": -46.62052,
        "empresa": "TIM",
        "pf-ou-pj": "Pessoa Jurídica",
        "tecnologia": "FTTH",
        "tipo-de-Produto": "INTERNET",
        "meio-de-acesso": "Fibra"
    },
    {
        "cidade": "Elias Fausto",
        "uf": "SP",
        "latitude": -23.042822,
        "longitude": -47.368153,
        "empresa": "TIM",
        "pf-ou-pj": "Pessoa Jurídica",
        "tecnologia": "ETHERNET",
        "tipo-de-Produto": "INTERNET",
        "meio-de-acesso": "Rádio"
    },
    {
        "cidade": "Embu das Artes",
        "uf": "SP",
        "latitude": null,
        "longitude": null,
        "empresa": "TIM",
        "pf-ou-pj": "Pessoa Jurídica",
        "tecnologia": "ETHERNET",
        "tipo-de-Produto": "INTERNET",
        "meio-de-acesso": "Cabo Metálico"
    },
    {
        "cidade": "Embu das Artes",
        "uf": "SP",
        "latitude": null,
        "longitude": null,
        "empresa": "TIM",
        "pf-ou-pj": "Pessoa Jurídica",
        "tecnologia": "ETHERNET",
        "tipo-de-Produto": "INTERNET",
        "meio-de-acesso": "Fibra"
    },
    {
        "cidade": "Franca",
        "uf": "SP",
        "latitude": -20.53523,
        "longitude": -47.403861,
        "empresa": "TIM",
        "pf-ou-pj": "Pessoa Jurídica",
        "tecnologia": "ETHERNET",
        "tipo-de-Produto": "INTERNET",
        "meio-de-acesso": "Fibra"
    },
    {
        "cidade": "Franca",
        "uf": "SP",
        "latitude": -20.53523,
        "longitude": -47.403861,
        "empresa": "TIM",
        "pf-ou-pj": "Pessoa Jurídica",
        "tecnologia": "ETHERNET",
        "tipo-de-Produto": "LINHA_DEDICADA",
        "meio-de-acesso": "Fibra"
    },
    {
        "cidade": "Francisco Morato",
        "uf": "SP",
        "latitude": -23.279248,
        "longitude": -46.744781,
        "empresa": "TIM",
        "pf-ou-pj": "Pessoa Jurídica",
        "tecnologia": "ETHERNET",
        "tipo-de-Produto": "INTERNET",
        "meio-de-acesso": "Cabo Metálico"
    },
    {
        "cidade": "Francisco Morato",
        "uf": "SP",
        "latitude": -23.279248,
        "longitude": -46.744781,
        "empresa": "TIM",
        "pf-ou-pj": "Pessoa Jurídica",
        "tecnologia": "FTTH",
        "tipo-de-Produto": "INTERNET",
        "meio-de-acesso": "Fibra"
    },
    {
        "cidade": "Franco da Rocha",
        "uf": "SP",
        "latitude": -23.322882,
        "longitude": -46.729011,
        "empresa": "TIM",
        "pf-ou-pj": "Pessoa Jurídica",
        "tecnologia": "FTTH",
        "tipo-de-Produto": "INTERNET",
        "meio-de-acesso": "Fibra"
    },
    {
        "cidade": "Guararema",
        "uf": "SP",
        "latitude": -23.411195,
        "longitude": -46.036946,
        "empresa": "TIM",
        "pf-ou-pj": "Pessoa Jurídica",
        "tecnologia": "ETHERNET",
        "tipo-de-Produto": "INTERNET",
        "meio-de-acesso": "Fibra"
    },
    {
        "cidade": "Guarujá",
        "uf": "SP",
        "latitude": -23.988798,
        "longitude": -46.257959,
        "empresa": "TIM",
        "pf-ou-pj": "Pessoa Jurídica",
        "tecnologia": "ETHERNET",
        "tipo-de-Produto": "LINHA_DEDICADA",
        "meio-de-acesso": "Fibra"
    },
    {
        "cidade": "Guarulhos",
        "uf": "SP",
        "latitude": -23.453758,
        "longitude": -46.533347,
        "empresa": "TIM",
        "pf-ou-pj": "Pessoa Jurídica",
        "tecnologia": "ETHERNET",
        "tipo-de-Produto": "INTERNET",
        "meio-de-acesso": "Cabo Metálico"
    },
    {
        "cidade": "Guarulhos",
        "uf": "SP",
        "latitude": -23.453758,
        "longitude": -46.533347,
        "empresa": "TIM",
        "pf-ou-pj": "Pessoa Jurídica",
        "tecnologia": "ETHERNET",
        "tipo-de-Produto": "INTERNET",
        "meio-de-acesso": "Fibra"
    },
    {
        "cidade": "Guarulhos",
        "uf": "SP",
        "latitude": -23.453758,
        "longitude": -46.533347,
        "empresa": "TIM",
        "pf-ou-pj": "Pessoa Jurídica",
        "tecnologia": "ETHERNET",
        "tipo-de-Produto": "LINHA_DEDICADA",
        "meio-de-acesso": "Fibra"
    },
    {
        "cidade": "Guarulhos",
        "uf": "SP",
        "latitude": -23.453758,
        "longitude": -46.533347,
        "empresa": "TIM",
        "pf-ou-pj": "Pessoa Jurídica",
        "tecnologia": "FR",
        "tipo-de-Produto": "LINHA_DEDICADA",
        "meio-de-acesso": "Fibra"
    },
    {
        "cidade": "Guarulhos",
        "uf": "SP",
        "latitude": -23.453758,
        "longitude": -46.533347,
        "empresa": "TIM",
        "pf-ou-pj": "Pessoa Jurídica",
        "tecnologia": "FTTH",
        "tipo-de-Produto": "INTERNET",
        "meio-de-acesso": "Fibra"
    },
    {
        "cidade": "Guará",
        "uf": "SP",
        "latitude": -20.430162,
        "longitude": -47.823626,
        "empresa": "TIM",
        "pf-ou-pj": "Pessoa Jurídica",
        "tecnologia": "ETHERNET",
        "tipo-de-Produto": "INTERNET",
        "meio-de-acesso": "Fibra"
    },
    {
        "cidade": "Hortolândia",
        "uf": "SP",
        "latitude": -22.852854,
        "longitude": -47.214259,
        "empresa": "TIM",
        "pf-ou-pj": "Pessoa Jurídica",
        "tecnologia": "ETHERNET",
        "tipo-de-Produto": "INTERNET",
        "meio-de-acesso": "Fibra"
    },
    {
        "cidade": "Hortolândia",
        "uf": "SP",
        "latitude": -22.852854,
        "longitude": -47.214259,
        "empresa": "TIM",
        "pf-ou-pj": "Pessoa Jurídica",
        "tecnologia": "ETHERNET",
        "tipo-de-Produto": "INTERNET",
        "meio-de-acesso": "Rádio"
    },
    {
        "cidade": "Hortolândia",
        "uf": "SP",
        "latitude": -22.852854,
        "longitude": -47.214259,
        "empresa": "TIM",
        "pf-ou-pj": "Pessoa Jurídica",
        "tecnologia": "ETHERNET",
        "tipo-de-Produto": "LINHA_DEDICADA",
        "meio-de-acesso": "Fibra"
    },
    {
        "cidade": "Ibiúna",
        "uf": "SP",
        "latitude": -23.65961,
        "longitude": -47.223037,
        "empresa": "TIM",
        "pf-ou-pj": "Pessoa Jurídica",
        "tecnologia": "ETHERNET",
        "tipo-de-Produto": "LINHA_DEDICADA",
        "meio-de-acesso": "Fibra"
    },
    {
        "cidade": "Indaiatuba",
        "uf": "SP",
        "latitude": -23.081591,
        "longitude": -47.210093,
        "empresa": "TIM",
        "pf-ou-pj": "Pessoa Jurídica",
        "tecnologia": "ETHERNET",
        "tipo-de-Produto": "INTERNET",
        "meio-de-acesso": "Fibra"
    },
    {
        "cidade": "Iperó",
        "uf": "SP",
        "latitude": -23.351296,
        "longitude": -47.692717,
        "empresa": "TIM",
        "pf-ou-pj": "Pessoa Jurídica",
        "tecnologia": "ETHERNET",
        "tipo-de-Produto": "INTERNET",
        "meio-de-acesso": "Fibra"
    },
    {
        "cidade": "Itapevi",
        "uf": "SP",
        "latitude": -23.548774,
        "longitude": -46.932747,
        "empresa": "TIM",
        "pf-ou-pj": "Pessoa Jurídica",
        "tecnologia": "ETHERNET",
        "tipo-de-Produto": "INTERNET",
        "meio-de-acesso": "Fibra"
    },
    {
        "cidade": "Itaquaquecetuba",
        "uf": "SP",
        "latitude": -23.483481,
        "longitude": -46.345724,
        "empresa": "TIM",
        "pf-ou-pj": "Pessoa Jurídica",
        "tecnologia": "ETHERNET",
        "tipo-de-Produto": "INTERNET",
        "meio-de-acesso": "Fibra"
    },
    {
        "cidade": "Itatiba",
        "uf": "SP",
        "latitude": -23.003497,
        "longitude": -46.846353,
        "empresa": "TIM",
        "pf-ou-pj": "Pessoa Jurídica",
        "tecnologia": "ETHERNET",
        "tipo-de-Produto": "INTERNET",
        "meio-de-acesso": "Fibra"
    },
    {
        "cidade": "Itu",
        "uf": "SP",
        "latitude": -23.254397,
        "longitude": -47.292688,
        "empresa": "TIM",
        "pf-ou-pj": "Pessoa Jurídica",
        "tecnologia": "ETHERNET",
        "tipo-de-Produto": "LINHA_DEDICADA",
        "meio-de-acesso": "Fibra"
    },
    {
        "cidade": "Itupeva",
        "uf": "SP",
        "latitude": -23.152635,
        "longitude": -47.059262,
        "empresa": "TIM",
        "pf-ou-pj": "Pessoa Jurídica",
        "tecnologia": "ETHERNET",
        "tipo-de-Produto": "INTERNET",
        "meio-de-acesso": "Fibra"
    },
    {
        "cidade": "Jacareí",
        "uf": "SP",
        "latitude": -23.29829,
        "longitude": -45.965814,
        "empresa": "TIM",
        "pf-ou-pj": "Pessoa Jurídica",
        "tecnologia": "ETHERNET",
        "tipo-de-Produto": "INTERNET",
        "meio-de-acesso": "Cabo Metálico"
    },
    {
        "cidade": "Jacareí",
        "uf": "SP",
        "latitude": -23.29829,
        "longitude": -45.965814,
        "empresa": "TIM",
        "pf-ou-pj": "Pessoa Jurídica",
        "tecnologia": "ETHERNET",
        "tipo-de-Produto": "INTERNET",
        "meio-de-acesso": "Fibra"
    },
    {
        "cidade": "Jaguariúna",
        "uf": "SP",
        "latitude": -22.70374,
        "longitude": -46.985062,
        "empresa": "TIM",
        "pf-ou-pj": "Pessoa Jurídica",
        "tecnologia": "ETHERNET",
        "tipo-de-Produto": "INTERNET",
        "meio-de-acesso": "Fibra"
    },
    {
        "cidade": "Jandira",
        "uf": "SP",
        "latitude": -23.527537,
        "longitude": -46.902314,
        "empresa": "TIM",
        "pf-ou-pj": "Pessoa Jurídica",
        "tecnologia": "ETHERNET",
        "tipo-de-Produto": "INTERNET",
        "meio-de-acesso": "Cabo Metálico"
    },
    {
        "cidade": "Jundiaí",
        "uf": "SP",
        "latitude": -23.185218,
        "longitude": -46.897358,
        "empresa": "TIM",
        "pf-ou-pj": "Pessoa Jurídica",
        "tecnologia": "ATM",
        "tipo-de-Produto": "LINHA_DEDICADA",
        "meio-de-acesso": "Fibra"
    },
    {
        "cidade": "Jundiaí",
        "uf": "SP",
        "latitude": -23.185218,
        "longitude": -46.897358,
        "empresa": "TIM",
        "pf-ou-pj": "Pessoa Jurídica",
        "tecnologia": "ETHERNET",
        "tipo-de-Produto": "INTERNET",
        "meio-de-acesso": "Fibra"
    },
    {
        "cidade": "Jundiaí",
        "uf": "SP",
        "latitude": -23.185218,
        "longitude": -46.897358,
        "empresa": "TIM",
        "pf-ou-pj": "Pessoa Jurídica",
        "tecnologia": "ETHERNET",
        "tipo-de-Produto": "LINHA_DEDICADA",
        "meio-de-acesso": "Fibra"
    },
    {
        "cidade": "Jundiaí",
        "uf": "SP",
        "latitude": -23.185218,
        "longitude": -46.897358,
        "empresa": "TIM",
        "pf-ou-pj": "Pessoa Jurídica",
        "tecnologia": "ETHERNET",
        "tipo-de-Produto": "LINHA_DEDICADA",
        "meio-de-acesso": "Rádio"
    },
    {
        "cidade": "Limeira",
        "uf": "SP",
        "latitude": -22.56605,
        "longitude": -47.396987,
        "empresa": "TIM",
        "pf-ou-pj": "Pessoa Jurídica",
        "tecnologia": "ETHERNET",
        "tipo-de-Produto": "INTERNET",
        "meio-de-acesso": "Fibra"
    },
    {
        "cidade": "Limeira",
        "uf": "SP",
        "latitude": -22.56605,
        "longitude": -47.396987,
        "empresa": "TIM",
        "pf-ou-pj": "Pessoa Jurídica",
        "tecnologia": "FTTH",
        "tipo-de-Produto": "INTERNET",
        "meio-de-acesso": "Fibra"
    },
    {
        "cidade": "Mauá",
        "uf": "SP",
        "latitude": -23.66767,
        "longitude": -46.461263,
        "empresa": "TIM",
        "pf-ou-pj": "Pessoa Jurídica",
        "tecnologia": "ETHERNET",
        "tipo-de-Produto": "INTERNET",
        "meio-de-acesso": "Fibra"
    },
    {
        "cidade": "Mauá",
        "uf": "SP",
        "latitude": -23.66767,
        "longitude": -46.461263,
        "empresa": "TIM",
        "pf-ou-pj": "Pessoa Jurídica",
        "tecnologia": "ETHERNET",
        "tipo-de-Produto": "LINHA_DEDICADA",
        "meio-de-acesso": "Fibra"
    },
    {
        "cidade": "Mauá",
        "uf": "SP",
        "latitude": -23.66767,
        "longitude": -46.461263,
        "empresa": "TIM",
        "pf-ou-pj": "Pessoa Jurídica",
        "tecnologia": "FR",
        "tipo-de-Produto": "LINHA_DEDICADA",
        "meio-de-acesso": "Fibra"
    },
    {
        "cidade": "Mauá",
        "uf": "SP",
        "latitude": -23.66767,
        "longitude": -46.461263,
        "empresa": "TIM",
        "pf-ou-pj": "Pessoa Jurídica",
        "tecnologia": "FTTH",
        "tipo-de-Produto": "INTERNET",
        "meio-de-acesso": "Fibra"
    },
    {
        "cidade": "Mogi das Cruzes",
        "uf": "SP",
        "latitude": -23.52082,
        "longitude": -46.18541,
        "empresa": "TIM",
        "pf-ou-pj": "Pessoa Jurídica",
        "tecnologia": "ETHERNET",
        "tipo-de-Produto": "INTERNET",
        "meio-de-acesso": "Fibra"
    },
    {
        "cidade": "Mogi das Cruzes",
        "uf": "SP",
        "latitude": -23.52082,
        "longitude": -46.18541,
        "empresa": "TIM",
        "pf-ou-pj": "Pessoa Jurídica",
        "tecnologia": "ETHERNET",
        "tipo-de-Produto": "LINHA_DEDICADA",
        "meio-de-acesso": "Fibra"
    },
    {
        "cidade": "Osasco",
        "uf": "SP",
        "latitude": -23.53239,
        "longitude": -46.791555,
        "empresa": "TIM",
        "pf-ou-pj": "Pessoa Jurídica",
        "tecnologia": "ATM",
        "tipo-de-Produto": "LINHA_DEDICADA",
        "meio-de-acesso": "Fibra"
    },
    {
        "cidade": "Osasco",
        "uf": "SP",
        "latitude": -23.53239,
        "longitude": -46.791555,
        "empresa": "TIM",
        "pf-ou-pj": "Pessoa Jurídica",
        "tecnologia": "ETHERNET",
        "tipo-de-Produto": "INTERNET",
        "meio-de-acesso": "Cabo Metálico"
    },
    {
        "cidade": "Osasco",
        "uf": "SP",
        "latitude": -23.53239,
        "longitude": -46.791555,
        "empresa": "TIM",
        "pf-ou-pj": "Pessoa Jurídica",
        "tecnologia": "ETHERNET",
        "tipo-de-Produto": "INTERNET",
        "meio-de-acesso": "Fibra"
    },
    {
        "cidade": "Osasco",
        "uf": "SP",
        "latitude": -23.53239,
        "longitude": -46.791555,
        "empresa": "TIM",
        "pf-ou-pj": "Pessoa Jurídica",
        "tecnologia": "ETHERNET",
        "tipo-de-Produto": "LINHA_DEDICADA",
        "meio-de-acesso": "Cabo Metálico"
    },
    {
        "cidade": "Osasco",
        "uf": "SP",
        "latitude": -23.53239,
        "longitude": -46.791555,
        "empresa": "TIM",
        "pf-ou-pj": "Pessoa Jurídica",
        "tecnologia": "ETHERNET",
        "tipo-de-Produto": "LINHA_DEDICADA",
        "meio-de-acesso": "Fibra"
    },
    {
        "cidade": "Osasco",
        "uf": "SP",
        "latitude": -23.53239,
        "longitude": -46.791555,
        "empresa": "TIM",
        "pf-ou-pj": "Pessoa Jurídica",
        "tecnologia": "FR",
        "tipo-de-Produto": "LINHA_DEDICADA",
        "meio-de-acesso": "Fibra"
    },
    {
        "cidade": "Ourinhos",
        "uf": "SP",
        "latitude": -22.979695,
        "longitude": -49.869702,
        "empresa": "TIM",
        "pf-ou-pj": "Pessoa Jurídica",
        "tecnologia": "ETHERNET",
        "tipo-de-Produto": "LINHA_DEDICADA",
        "meio-de-acesso": "Fibra"
    },
    {
        "cidade": "Paulínia",
        "uf": "SP",
        "latitude": -22.754178,
        "longitude": -47.148776,
        "empresa": "TIM",
        "pf-ou-pj": "Pessoa Jurídica",
        "tecnologia": "ETHERNET",
        "tipo-de-Produto": "INTERNET",
        "meio-de-acesso": "Rádio"
    },
    {
        "cidade": "Pindamonhangaba",
        "uf": "SP",
        "latitude": -22.92463,
        "longitude": -45.461264,
        "empresa": "TIM",
        "pf-ou-pj": "Pessoa Jurídica",
        "tecnologia": "ETHERNET",
        "tipo-de-Produto": "INTERNET",
        "meio-de-acesso": "Fibra"
    },
    {
        "cidade": "Piracicaba",
        "uf": "SP",
        "latitude": -22.733801,
        "longitude": -47.647612,
        "empresa": "TIM",
        "pf-ou-pj": "Pessoa Jurídica",
        "tecnologia": "ETHERNET",
        "tipo-de-Produto": "INTERNET",
        "meio-de-acesso": "Fibra"
    },
    {
        "cidade": "Poá",
        "uf": "SP",
        "latitude": -23.533285,
        "longitude": -46.347292,
        "empresa": "TIM",
        "pf-ou-pj": "Pessoa Jurídica",
        "tecnologia": "ETHERNET",
        "tipo-de-Produto": "INTERNET",
        "meio-de-acesso": "Fibra"
    },
    {
        "cidade": "Poá",
        "uf": "SP",
        "latitude": -23.533285,
        "longitude": -46.347292,
        "empresa": "TIM",
        "pf-ou-pj": "Pessoa Jurídica",
        "tecnologia": "FTTH",
        "tipo-de-Produto": "INTERNET",
        "meio-de-acesso": "Fibra"
    },
    {
        "cidade": "Praia Grande",
        "uf": "SP",
        "latitude": -24.008378,
        "longitude": -46.412057,
        "empresa": "TIM",
        "pf-ou-pj": "Pessoa Jurídica",
        "tecnologia": "ETHERNET",
        "tipo-de-Produto": "LINHA_DEDICADA",
        "meio-de-acesso": "Fibra"
    },
    {
        "cidade": "Presidente Prudente",
        "uf": "SP",
        "latitude": -22.120654,
        "longitude": -51.392526,
        "empresa": "TIM",
        "pf-ou-pj": "Pessoa Jurídica",
        "tecnologia": "ETHERNET",
        "tipo-de-Produto": "LINHA_DEDICADA",
        "meio-de-acesso": "Fibra"
    },
    {
        "cidade": "Ribeirão Pires",
        "uf": "SP",
        "latitude": -23.706669,
        "longitude": -46.405805,
        "empresa": "TIM",
        "pf-ou-pj": "Pessoa Jurídica",
        "tecnologia": "ETHERNET",
        "tipo-de-Produto": "INTERNET",
        "meio-de-acesso": "Fibra"
    },
    {
        "cidade": "Ribeirão Pires",
        "uf": "SP",
        "latitude": -23.706669,
        "longitude": -46.405805,
        "empresa": "TIM",
        "pf-ou-pj": "Pessoa Jurídica",
        "tecnologia": "ETHERNET",
        "tipo-de-Produto": "LINHA_DEDICADA",
        "meio-de-acesso": "Fibra"
    },
    {
        "cidade": "Ribeirão Preto",
        "uf": "SP",
        "latitude": -21.169923,
        "longitude": -47.809875,
        "empresa": "TIM",
        "pf-ou-pj": "Pessoa Jurídica",
        "tecnologia": "ATM",
        "tipo-de-Produto": "LINHA_DEDICADA",
        "meio-de-acesso": "Cabo Metálico"
    },
    {
        "cidade": "Ribeirão Preto",
        "uf": "SP",
        "latitude": -21.169923,
        "longitude": -47.809875,
        "empresa": "TIM",
        "pf-ou-pj": "Pessoa Jurídica",
        "tecnologia": "ETHERNET",
        "tipo-de-Produto": "INTERNET",
        "meio-de-acesso": "Cabo Metálico"
    },
    {
        "cidade": "Ribeirão Preto",
        "uf": "SP",
        "latitude": -21.169923,
        "longitude": -47.809875,
        "empresa": "TIM",
        "pf-ou-pj": "Pessoa Jurídica",
        "tecnologia": "ETHERNET",
        "tipo-de-Produto": "INTERNET",
        "meio-de-acesso": "Fibra"
    },
    {
        "cidade": "Ribeirão Preto",
        "uf": "SP",
        "latitude": -21.169923,
        "longitude": -47.809875,
        "empresa": "TIM",
        "pf-ou-pj": "Pessoa Jurídica",
        "tecnologia": "ETHERNET",
        "tipo-de-Produto": "LINHA_DEDICADA",
        "meio-de-acesso": "Cabo Metálico"
    },
    {
        "cidade": "Rio Claro",
        "uf": "SP",
        "latitude": -22.398378,
        "longitude": -47.554632,
        "empresa": "TIM",
        "pf-ou-pj": "Pessoa Jurídica",
        "tecnologia": "ETHERNET",
        "tipo-de-Produto": "INTERNET",
        "meio-de-acesso": "Fibra"
    },
    {
        "cidade": "Salto",
        "uf": "SP",
        "latitude": -23.199592,
        "longitude": -47.293087,
        "empresa": "TIM",
        "pf-ou-pj": "Pessoa Jurídica",
        "tecnologia": "ETHERNET",
        "tipo-de-Produto": "INTERNET",
        "meio-de-acesso": "Fibra"
    },
    {
        "cidade": "Santa Bárbara d'Oeste",
        "uf": "SP",
        "latitude": null,
        "longitude": null,
        "empresa": "TIM",
        "pf-ou-pj": "Pessoa Jurídica",
        "tecnologia": "ETHERNET",
        "tipo-de-Produto": "INTERNET",
        "meio-de-acesso": "Cabo Metálico"
    },
    {
        "cidade": "Santana de Parnaíba",
        "uf": "SP",
        "latitude": -23.442514,
        "longitude": -46.922215,
        "empresa": "TIM",
        "pf-ou-pj": "Pessoa Jurídica",
        "tecnologia": "ETHERNET",
        "tipo-de-Produto": "INTERNET",
        "meio-de-acesso": "Cabo Metálico"
    },
    {
        "cidade": "Santana de Parnaíba",
        "uf": "SP",
        "latitude": -23.442514,
        "longitude": -46.922215,
        "empresa": "TIM",
        "pf-ou-pj": "Pessoa Jurídica",
        "tecnologia": "ETHERNET",
        "tipo-de-Produto": "INTERNET",
        "meio-de-acesso": "Fibra"
    },
    {
        "cidade": "Santana de Parnaíba",
        "uf": "SP",
        "latitude": -23.442514,
        "longitude": -46.922215,
        "empresa": "TIM",
        "pf-ou-pj": "Pessoa Jurídica",
        "tecnologia": "ETHERNET",
        "tipo-de-Produto": "LINHA_DEDICADA",
        "meio-de-acesso": "Fibra"
    },
    {
        "cidade": "Santo André",
        "uf": "SP",
        "latitude": -23.67373,
        "longitude": -46.543154,
        "empresa": "TIM",
        "pf-ou-pj": "Pessoa Jurídica",
        "tecnologia": "ETHERNET",
        "tipo-de-Produto": "INTERNET",
        "meio-de-acesso": "Cabo Metálico"
    },
    {
        "cidade": "Santo André",
        "uf": "SP",
        "latitude": -23.67373,
        "longitude": -46.543154,
        "empresa": "TIM",
        "pf-ou-pj": "Pessoa Jurídica",
        "tecnologia": "ETHERNET",
        "tipo-de-Produto": "INTERNET",
        "meio-de-acesso": "Fibra"
    },
    {
        "cidade": "Santo André",
        "uf": "SP",
        "latitude": -23.67373,
        "longitude": -46.543154,
        "empresa": "TIM",
        "pf-ou-pj": "Pessoa Jurídica",
        "tecnologia": "ETHERNET",
        "tipo-de-Produto": "LINHA_DEDICADA",
        "meio-de-acesso": "Fibra"
    },
    {
        "cidade": "Santos",
        "uf": "SP",
        "latitude": -23.953543,
        "longitude": -46.335042,
        "empresa": "TIM",
        "pf-ou-pj": "Pessoa Jurídica",
        "tecnologia": "ATM",
        "tipo-de-Produto": "LINHA_DEDICADA",
        "meio-de-acesso": "Fibra"
    },
    {
        "cidade": "Santos",
        "uf": "SP",
        "latitude": -23.953543,
        "longitude": -46.335042,
        "empresa": "TIM",
        "pf-ou-pj": "Pessoa Jurídica",
        "tecnologia": "ETHERNET",
        "tipo-de-Produto": "INTERNET",
        "meio-de-acesso": "Fibra"
    },
    {
        "cidade": "Sorocaba",
        "uf": "SP",
        "latitude": -23.496886,
        "longitude": -47.445073,
        "empresa": "TIM",
        "pf-ou-pj": "Pessoa Jurídica",
        "tecnologia": "ETHERNET",
        "tipo-de-Produto": "INTERNET",
        "meio-de-acesso": "Fibra"
    },
    {
        "cidade": "Sorocaba",
        "uf": "SP",
        "latitude": -23.496886,
        "longitude": -47.445073,
        "empresa": "TIM",
        "pf-ou-pj": "Pessoa Jurídica",
        "tecnologia": "ETHERNET",
        "tipo-de-Produto": "LINHA_DEDICADA",
        "meio-de-acesso": "Fibra"
    },
    {
        "cidade": "Sumaré",
        "uf": "SP",
        "latitude": -22.820416,
        "longitude": -47.272823,
        "empresa": "TIM",
        "pf-ou-pj": "Pessoa Jurídica",
        "tecnologia": "ATM",
        "tipo-de-Produto": "LINHA_DEDICADA",
        "meio-de-acesso": "Cabo Metálico"
    },
    {
        "cidade": "Sumaré",
        "uf": "SP",
        "latitude": -22.820416,
        "longitude": -47.272823,
        "empresa": "TIM",
        "pf-ou-pj": "Pessoa Jurídica",
        "tecnologia": "ATM",
        "tipo-de-Produto": "LINHA_DEDICADA",
        "meio-de-acesso": "Fibra"
    },
    {
        "cidade": "Sumaré",
        "uf": "SP",
        "latitude": -22.820416,
        "longitude": -47.272823,
        "empresa": "TIM",
        "pf-ou-pj": "Pessoa Jurídica",
        "tecnologia": "ETHERNET",
        "tipo-de-Produto": "INTERNET",
        "meio-de-acesso": "Fibra"
    },
    {
        "cidade": "Suzano",
        "uf": "SP",
        "latitude": -23.544828,
        "longitude": -46.311181,
        "empresa": "TIM",
        "pf-ou-pj": "Pessoa Jurídica",
        "tecnologia": "ETHERNET",
        "tipo-de-Produto": "INTERNET",
        "meio-de-acesso": "Cabo Metálico"
    },
    {
        "cidade": "Suzano",
        "uf": "SP",
        "latitude": -23.544828,
        "longitude": -46.311181,
        "empresa": "TIM",
        "pf-ou-pj": "Pessoa Jurídica",
        "tecnologia": "ETHERNET",
        "tipo-de-Produto": "LINHA_DEDICADA",
        "meio-de-acesso": "Fibra"
    },
    {
        "cidade": "Suzano",
        "uf": "SP",
        "latitude": -23.544828,
        "longitude": -46.311181,
        "empresa": "TIM",
        "pf-ou-pj": "Pessoa Jurídica",
        "tecnologia": "FTTH",
        "tipo-de-Produto": "INTERNET",
        "meio-de-acesso": "Fibra"
    },
    {
        "cidade": "São Bernardo do Campo",
        "uf": "SP",
        "latitude": -23.691412,
        "longitude": -46.564617,
        "empresa": "TIM",
        "pf-ou-pj": "Pessoa Jurídica",
        "tecnologia": "ETHERNET",
        "tipo-de-Produto": "INTERNET",
        "meio-de-acesso": "Fibra"
    },
    {
        "cidade": "São Bernardo do Campo",
        "uf": "SP",
        "latitude": -23.691412,
        "longitude": -46.564617,
        "empresa": "TIM",
        "pf-ou-pj": "Pessoa Jurídica",
        "tecnologia": "ETHERNET",
        "tipo-de-Produto": "LINHA_DEDICADA",
        "meio-de-acesso": "Fibra"
    },
    {
        "cidade": "São Bernardo do Campo",
        "uf": "SP",
        "latitude": -23.691412,
        "longitude": -46.564617,
        "empresa": "TIM",
        "pf-ou-pj": "Pessoa Jurídica",
        "tecnologia": "FR",
        "tipo-de-Produto": "LINHA_DEDICADA",
        "meio-de-acesso": "Fibra"
    },
    {
        "cidade": "São Caetano do Sul",
        "uf": "SP",
        "latitude": -23.62287,
        "longitude": -46.554797,
        "empresa": "TIM",
        "pf-ou-pj": "Pessoa Jurídica",
        "tecnologia": "ETHERNET",
        "tipo-de-Produto": "INTERNET",
        "meio-de-acesso": "Cabo Metálico"
    },
    {
        "cidade": "São Caetano do Sul",
        "uf": "SP",
        "latitude": -23.62287,
        "longitude": -46.554797,
        "empresa": "TIM",
        "pf-ou-pj": "Pessoa Jurídica",
        "tecnologia": "ETHERNET",
        "tipo-de-Produto": "INTERNET",
        "meio-de-acesso": "Fibra"
    },
    {
        "cidade": "São Caetano do Sul",
        "uf": "SP",
        "latitude": -23.62287,
        "longitude": -46.554797,
        "empresa": "TIM",
        "pf-ou-pj": "Pessoa Jurídica",
        "tecnologia": "ETHERNET",
        "tipo-de-Produto": "LINHA_DEDICADA",
        "meio-de-acesso": "Fibra"
    },
    {
        "cidade": "São José do Rio Preto",
        "uf": "SP",
        "latitude": -20.811289,
        "longitude": -49.375767,
        "empresa": "TIM",
        "pf-ou-pj": "Pessoa Jurídica",
        "tecnologia": "ETHERNET",
        "tipo-de-Produto": "INTERNET",
        "meio-de-acesso": "Fibra"
    },
    {
        "cidade": "São José dos Campos",
        "uf": "SP",
        "latitude": -23.189554,
        "longitude": -45.884115,
        "empresa": "TIM",
        "pf-ou-pj": "Pessoa Jurídica",
        "tecnologia": "ATM",
        "tipo-de-Produto": "LINHA_DEDICADA",
        "meio-de-acesso": "Fibra"
    },
    {
        "cidade": "São José dos Campos",
        "uf": "SP",
        "latitude": -23.189554,
        "longitude": -45.884115,
        "empresa": "TIM",
        "pf-ou-pj": "Pessoa Jurídica",
        "tecnologia": "ETHERNET",
        "tipo-de-Produto": "INTERNET",
        "meio-de-acesso": "Fibra"
    },
    {
        "cidade": "São José dos Campos",
        "uf": "SP",
        "latitude": -23.189554,
        "longitude": -45.884115,
        "empresa": "TIM",
        "pf-ou-pj": "Pessoa Jurídica",
        "tecnologia": "ETHERNET",
        "tipo-de-Produto": "LINHA_DEDICADA",
        "meio-de-acesso": "Fibra"
    },
    {
        "cidade": "São Paulo",
        "uf": "SP",
        "latitude": -23.532905,
        "longitude": -46.63952,
        "empresa": "TIM",
        "pf-ou-pj": "Pessoa Jurídica",
        "tecnologia": "ATM",
        "tipo-de-Produto": "LINHA_DEDICADA",
        "meio-de-acesso": "Cabo Metálico"
    },
    {
        "cidade": "São Paulo",
        "uf": "SP",
        "latitude": -23.532905,
        "longitude": -46.63952,
        "empresa": "TIM",
        "pf-ou-pj": "Pessoa Jurídica",
        "tecnologia": "ATM",
        "tipo-de-Produto": "LINHA_DEDICADA",
        "meio-de-acesso": "Fibra"
    },
    {
        "cidade": "São Paulo",
        "uf": "SP",
        "latitude": -23.532905,
        "longitude": -46.63952,
        "empresa": "TIM",
        "pf-ou-pj": "Pessoa Jurídica",
        "tecnologia": "ATM",
        "tipo-de-Produto": "LINHA_DEDICADA",
        "meio-de-acesso": "Rádio"
    },
    {
        "cidade": "São Paulo",
        "uf": "SP",
        "latitude": -23.532905,
        "longitude": -46.63952,
        "empresa": "TIM",
        "pf-ou-pj": "Pessoa Jurídica",
        "tecnologia": "ETHERNET",
        "tipo-de-Produto": "INTERNET",
        "meio-de-acesso": "Cabo Coaxial"
    },
    {
        "cidade": "São Paulo",
        "uf": "SP",
        "latitude": -23.532905,
        "longitude": -46.63952,
        "empresa": "TIM",
        "pf-ou-pj": "Pessoa Jurídica",
        "tecnologia": "ETHERNET",
        "tipo-de-Produto": "INTERNET",
        "meio-de-acesso": "Cabo Metálico"
    },
    {
        "cidade": "São Paulo",
        "uf": "SP",
        "latitude": -23.532905,
        "longitude": -46.63952,
        "empresa": "TIM",
        "pf-ou-pj": "Pessoa Jurídica",
        "tecnologia": "ETHERNET",
        "tipo-de-Produto": "INTERNET",
        "meio-de-acesso": "Fibra"
    },
    {
        "cidade": "São Paulo",
        "uf": "SP",
        "latitude": -23.532905,
        "longitude": -46.63952,
        "empresa": "TIM",
        "pf-ou-pj": "Pessoa Jurídica",
        "tecnologia": "ETHERNET",
        "tipo-de-Produto": "INTERNET",
        "meio-de-acesso": "Rádio"
    },
    {
        "cidade": "São Paulo",
        "uf": "SP",
        "latitude": -23.532905,
        "longitude": -46.63952,
        "empresa": "TIM",
        "pf-ou-pj": "Pessoa Jurídica",
        "tecnologia": "ETHERNET",
        "tipo-de-Produto": "LINHA_DEDICADA",
        "meio-de-acesso": "Cabo Metálico"
    },
    {
        "cidade": "São Paulo",
        "uf": "SP",
        "latitude": -23.532905,
        "longitude": -46.63952,
        "empresa": "TIM",
        "pf-ou-pj": "Pessoa Jurídica",
        "tecnologia": "ETHERNET",
        "tipo-de-Produto": "LINHA_DEDICADA",
        "meio-de-acesso": "Fibra"
    },
    {
        "cidade": "São Paulo",
        "uf": "SP",
        "latitude": -23.532905,
        "longitude": -46.63952,
        "empresa": "TIM",
        "pf-ou-pj": "Pessoa Jurídica",
        "tecnologia": "ETHERNET",
        "tipo-de-Produto": "LINHA_DEDICADA",
        "meio-de-acesso": "Rádio"
    },
    {
        "cidade": "São Paulo",
        "uf": "SP",
        "latitude": -23.532905,
        "longitude": -46.63952,
        "empresa": "TIM",
        "pf-ou-pj": "Pessoa Jurídica",
        "tecnologia": "FR",
        "tipo-de-Produto": "LINHA_DEDICADA",
        "meio-de-acesso": "Cabo Metálico"
    },
    {
        "cidade": "São Paulo",
        "uf": "SP",
        "latitude": -23.532905,
        "longitude": -46.63952,
        "empresa": "TIM",
        "pf-ou-pj": "Pessoa Jurídica",
        "tecnologia": "FR",
        "tipo-de-Produto": "LINHA_DEDICADA",
        "meio-de-acesso": "Fibra"
    },
    {
        "cidade": "São Paulo",
        "uf": "SP",
        "latitude": -23.532905,
        "longitude": -46.63952,
        "empresa": "TIM",
        "pf-ou-pj": "Pessoa Jurídica",
        "tecnologia": "FTTH",
        "tipo-de-Produto": "INTERNET",
        "meio-de-acesso": "Fibra"
    },
    {
        "cidade": "São Paulo",
        "uf": "SP",
        "latitude": -23.532905,
        "longitude": -46.63952,
        "empresa": "TIM",
        "pf-ou-pj": "Pessoa Jurídica",
        "tecnologia": "VDSL",
        "tipo-de-Produto": "INTERNET",
        "meio-de-acesso": "Cabo Metálico"
    },
    {
        "cidade": "São Vicente",
        "uf": "SP",
        "latitude": -23.957353,
        "longitude": -46.388333,
        "empresa": "TIM",
        "pf-ou-pj": "Pessoa Jurídica",
        "tecnologia": "ETHERNET",
        "tipo-de-Produto": "INTERNET",
        "meio-de-acesso": "Fibra"
    },
    {
        "cidade": "São Vicente",
        "uf": "SP",
        "latitude": -23.957353,
        "longitude": -46.388333,
        "empresa": "TIM",
        "pf-ou-pj": "Pessoa Jurídica",
        "tecnologia": "ETHERNET",
        "tipo-de-Produto": "LINHA_DEDICADA",
        "meio-de-acesso": "Fibra"
    },
    {
        "cidade": "Taboão da Serra",
        "uf": "SP",
        "latitude": -23.601867,
        "longitude": -46.752637,
        "empresa": "TIM",
        "pf-ou-pj": "Pessoa Jurídica",
        "tecnologia": "ETHERNET",
        "tipo-de-Produto": "INTERNET",
        "meio-de-acesso": "Fibra"
    },
    {
        "cidade": "Taboão da Serra",
        "uf": "SP",
        "latitude": -23.601867,
        "longitude": -46.752637,
        "empresa": "TIM",
        "pf-ou-pj": "Pessoa Jurídica",
        "tecnologia": "ETHERNET",
        "tipo-de-Produto": "LINHA_DEDICADA",
        "meio-de-acesso": "Fibra"
    },
    {
        "cidade": "Taboão da Serra",
        "uf": "SP",
        "latitude": -23.601867,
        "longitude": -46.752637,
        "empresa": "TIM",
        "pf-ou-pj": "Pessoa Jurídica",
        "tecnologia": "FTTH",
        "tipo-de-Produto": "INTERNET",
        "meio-de-acesso": "Fibra"
    },
    {
        "cidade": "Taubaté",
        "uf": "SP",
        "latitude": -23.010414,
        "longitude": -45.55926,
        "empresa": "TIM",
        "pf-ou-pj": "Pessoa Jurídica",
        "tecnologia": "ETHERNET",
        "tipo-de-Produto": "INTERNET",
        "meio-de-acesso": "Fibra"
    },
    {
        "cidade": "Taubaté",
        "uf": "SP",
        "latitude": -23.010414,
        "longitude": -45.55926,
        "empresa": "TIM",
        "pf-ou-pj": "Pessoa Jurídica",
        "tecnologia": "ETHERNET",
        "tipo-de-Produto": "LINHA_DEDICADA",
        "meio-de-acesso": "Fibra"
    },
    {
        "cidade": "Valinhos",
        "uf": "SP",
        "latitude": -22.969805,
        "longitude": -46.997367,
        "empresa": "TIM",
        "pf-ou-pj": "Pessoa Jurídica",
        "tecnologia": "ETHERNET",
        "tipo-de-Produto": "INTERNET",
        "meio-de-acesso": "Fibra"
    },
    {
        "cidade": "Votorantim",
        "uf": "SP",
        "latitude": -23.54459,
        "longitude": -47.438753,
        "empresa": "TIM",
        "pf-ou-pj": "Pessoa Jurídica",
        "tecnologia": "ETHERNET",
        "tipo-de-Produto": "INTERNET",
        "meio-de-acesso": "Fibra"
    }
]