[
    {
        "cidade": "Abreu e Lima",
        "uf": "PE",
        "latitude": -7.900719,
        "longitude": -34.898389,
        "empresa": "TIM",
        "pf-ou-pj": "Pessoa Jurídica",
        "tecnologia": "ETHERNET",
        "tipo-de-Produto": "INTERNET",
        "meio-de-acesso": "Fibra"
    },
    {
        "cidade": "Arcoverde",
        "uf": "PE",
        "latitude": -8.415192,
        "longitude": -37.057748,
        "empresa": "TIM",
        "pf-ou-pj": "Pessoa Jurídica",
        "tecnologia": "ETHERNET",
        "tipo-de-Produto": "INTERNET",
        "meio-de-acesso": "Fibra"
    },
    {
        "cidade": "Cabo de Santo Agostinho",
        "uf": "PE",
        "latitude": -8.28218,
        "longitude": -35.025293,
        "empresa": "TIM",
        "pf-ou-pj": "Pessoa Jurídica",
        "tecnologia": "ETHERNET",
        "tipo-de-Produto": "INTERNET",
        "meio-de-acesso": "Fibra"
    },
    {
        "cidade": "Cabo de Santo Agostinho",
        "uf": "PE",
        "latitude": -8.28218,
        "longitude": -35.025293,
        "empresa": "TIM",
        "pf-ou-pj": "Pessoa Jurídica",
        "tecnologia": "ETHERNET",
        "tipo-de-Produto": "LINHA_DEDICADA",
        "meio-de-acesso": "Fibra"
    },
    {
        "cidade": "Caruaru",
        "uf": "PE",
        "latitude": -8.284547,
        "longitude": -35.969863,
        "empresa": "TIM",
        "pf-ou-pj": "Pessoa Jurídica",
        "tecnologia": "ETHERNET",
        "tipo-de-Produto": "INTERNET",
        "meio-de-acesso": "Fibra"
    },
    {
        "cidade": "Caruaru",
        "uf": "PE",
        "latitude": -8.284547,
        "longitude": -35.969863,
        "empresa": "TIM",
        "pf-ou-pj": "Pessoa Jurídica",
        "tecnologia": "ETHERNET",
        "tipo-de-Produto": "LINHA_DEDICADA",
        "meio-de-acesso": "Fibra"
    },
    {
        "cidade": "Garanhuns",
        "uf": "PE",
        "latitude": -8.882434,
        "longitude": -36.496567,
        "empresa": "TIM",
        "pf-ou-pj": "Pessoa Jurídica",
        "tecnologia": "ETHERNET",
        "tipo-de-Produto": "LINHA_DEDICADA",
        "meio-de-acesso": "Fibra"
    },
    {
        "cidade": "Goiana",
        "uf": "PE",
        "latitude": -7.560603,
        "longitude": -34.99591,
        "empresa": "TIM",
        "pf-ou-pj": "Pessoa Jurídica",
        "tecnologia": "ETHERNET",
        "tipo-de-Produto": "LINHA_DEDICADA",
        "meio-de-acesso": "Fibra"
    },
    {
        "cidade": "Gravatá",
        "uf": "PE",
        "latitude": -8.211184,
        "longitude": -35.567458,
        "empresa": "TIM",
        "pf-ou-pj": "Pessoa Jurídica",
        "tecnologia": "ETHERNET",
        "tipo-de-Produto": "LINHA_DEDICADA",
        "meio-de-acesso": "Fibra"
    },
    {
        "cidade": "Ipojuca",
        "uf": "PE",
        "latitude": -8.393034,
        "longitude": -35.060864,
        "empresa": "TIM",
        "pf-ou-pj": "Pessoa Jurídica",
        "tecnologia": "ETHERNET",
        "tipo-de-Produto": "INTERNET",
        "meio-de-acesso": "Fibra"
    },
    {
        "cidade": "Itapissuma",
        "uf": "PE",
        "latitude": -7.767983,
        "longitude": -34.897136,
        "empresa": "TIM",
        "pf-ou-pj": "Pessoa Jurídica",
        "tecnologia": "ETHERNET",
        "tipo-de-Produto": "INTERNET",
        "meio-de-acesso": "Fibra"
    },
    {
        "cidade": "Jaboatão dos Guararapes",
        "uf": "PE",
        "latitude": -8.112982,
        "longitude": -35.014959,
        "empresa": "TIM",
        "pf-ou-pj": "Pessoa Jurídica",
        "tecnologia": "ATM",
        "tipo-de-Produto": "LINHA_DEDICADA",
        "meio-de-acesso": "Fibra"
    },
    {
        "cidade": "Jaboatão dos Guararapes",
        "uf": "PE",
        "latitude": -8.112982,
        "longitude": -35.014959,
        "empresa": "TIM",
        "pf-ou-pj": "Pessoa Jurídica",
        "tecnologia": "ETHERNET",
        "tipo-de-Produto": "INTERNET",
        "meio-de-acesso": "Cabo Metálico"
    },
    {
        "cidade": "Jaboatão dos Guararapes",
        "uf": "PE",
        "latitude": -8.112982,
        "longitude": -35.014959,
        "empresa": "TIM",
        "pf-ou-pj": "Pessoa Jurídica",
        "tecnologia": "ETHERNET",
        "tipo-de-Produto": "INTERNET",
        "meio-de-acesso": "Fibra"
    },
    {
        "cidade": "Jaboatão dos Guararapes",
        "uf": "PE",
        "latitude": -8.112982,
        "longitude": -35.014959,
        "empresa": "TIM",
        "pf-ou-pj": "Pessoa Jurídica",
        "tecnologia": "ETHERNET",
        "tipo-de-Produto": "LINHA_DEDICADA",
        "meio-de-acesso": "Fibra"
    },
    {
        "cidade": "Jaboatão dos Guararapes",
        "uf": "PE",
        "latitude": -8.112982,
        "longitude": -35.014959,
        "empresa": "TIM",
        "pf-ou-pj": "Pessoa Jurídica",
        "tecnologia": "FTTH",
        "tipo-de-Produto": "INTERNET",
        "meio-de-acesso": "Fibra"
    },
    {
        "cidade": "Nazaré da Mata",
        "uf": "PE",
        "latitude": -7.741491,
        "longitude": -35.219297,
        "empresa": "TIM",
        "pf-ou-pj": "Pessoa Jurídica",
        "tecnologia": "ETHERNET",
        "tipo-de-Produto": "LINHA_DEDICADA",
        "meio-de-acesso": "Fibra"
    },
    {
        "cidade": "Olinda",
        "uf": "PE",
        "latitude": -8.010166,
        "longitude": -34.854504,
        "empresa": "TIM",
        "pf-ou-pj": "Pessoa Jurídica",
        "tecnologia": "ETHERNET",
        "tipo-de-Produto": "INTERNET",
        "meio-de-acesso": "Fibra"
    },
    {
        "cidade": "Olinda",
        "uf": "PE",
        "latitude": -8.010166,
        "longitude": -34.854504,
        "empresa": "TIM",
        "pf-ou-pj": "Pessoa Jurídica",
        "tecnologia": "ETHERNET",
        "tipo-de-Produto": "LINHA_DEDICADA",
        "meio-de-acesso": "Fibra"
    },
    {
        "cidade": "Olinda",
        "uf": "PE",
        "latitude": -8.010166,
        "longitude": -34.854504,
        "empresa": "TIM",
        "pf-ou-pj": "Pessoa Jurídica",
        "tecnologia": "FTTH",
        "tipo-de-Produto": "INTERNET",
        "meio-de-acesso": "Fibra"
    },
    {
        "cidade": "Palmares",
        "uf": "PE",
        "latitude": -8.684226,
        "longitude": -35.589032,
        "empresa": "TIM",
        "pf-ou-pj": "Pessoa Jurídica",
        "tecnologia": "ETHERNET",
        "tipo-de-Produto": "LINHA_DEDICADA",
        "meio-de-acesso": "Fibra"
    },
    {
        "cidade": "Paulista",
        "uf": "PE",
        "latitude": -7.934007,
        "longitude": -34.868407,
        "empresa": "TIM",
        "pf-ou-pj": "Pessoa Jurídica",
        "tecnologia": "ATM",
        "tipo-de-Produto": "LINHA_DEDICADA",
        "meio-de-acesso": "Fibra"
    },
    {
        "cidade": "Paulista",
        "uf": "PE",
        "latitude": -7.934007,
        "longitude": -34.868407,
        "empresa": "TIM",
        "pf-ou-pj": "Pessoa Jurídica",
        "tecnologia": "ETHERNET",
        "tipo-de-Produto": "INTERNET",
        "meio-de-acesso": "Fibra"
    },
    {
        "cidade": "Paulista",
        "uf": "PE",
        "latitude": -7.934007,
        "longitude": -34.868407,
        "empresa": "TIM",
        "pf-ou-pj": "Pessoa Jurídica",
        "tecnologia": "ETHERNET",
        "tipo-de-Produto": "LINHA_DEDICADA",
        "meio-de-acesso": "Fibra"
    },
    {
        "cidade": "Paulista",
        "uf": "PE",
        "latitude": -7.934007,
        "longitude": -34.868407,
        "empresa": "TIM",
        "pf-ou-pj": "Pessoa Jurídica",
        "tecnologia": "FTTH",
        "tipo-de-Produto": "INTERNET",
        "meio-de-acesso": "Fibra"
    },
    {
        "cidade": "Petrolina",
        "uf": "PE",
        "latitude": -9.388662,
        "longitude": -40.502731,
        "empresa": "TIM",
        "pf-ou-pj": "Pessoa Jurídica",
        "tecnologia": "ETHERNET",
        "tipo-de-Produto": "INTERNET",
        "meio-de-acesso": "Fibra"
    },
    {
        "cidade": "Petrolina",
        "uf": "PE",
        "latitude": -9.388662,
        "longitude": -40.502731,
        "empresa": "TIM",
        "pf-ou-pj": "Pessoa Jurídica",
        "tecnologia": "ETHERNET",
        "tipo-de-Produto": "LINHA_DEDICADA",
        "meio-de-acesso": "Fibra"
    },
    {
        "cidade": "Primavera",
        "uf": "PE",
        "latitude": -8.329987,
        "longitude": -35.354378,
        "empresa": "TIM",
        "pf-ou-pj": "Pessoa Jurídica",
        "tecnologia": "ATM",
        "tipo-de-Produto": "LINHA_DEDICADA",
        "meio-de-acesso": "Fibra"
    },
    {
        "cidade": "Recife",
        "uf": "PE",
        "latitude": -8.046658,
        "longitude": -34.877065,
        "empresa": "TIM",
        "pf-ou-pj": "Pessoa Jurídica",
        "tecnologia": "ATM",
        "tipo-de-Produto": "LINHA_DEDICADA",
        "meio-de-acesso": "Cabo Metálico"
    },
    {
        "cidade": "Recife",
        "uf": "PE",
        "latitude": -8.046658,
        "longitude": -34.877065,
        "empresa": "TIM",
        "pf-ou-pj": "Pessoa Jurídica",
        "tecnologia": "ATM",
        "tipo-de-Produto": "LINHA_DEDICADA",
        "meio-de-acesso": "Fibra"
    },
    {
        "cidade": "Recife",
        "uf": "PE",
        "latitude": -8.046658,
        "longitude": -34.877065,
        "empresa": "TIM",
        "pf-ou-pj": "Pessoa Jurídica",
        "tecnologia": "ETHERNET",
        "tipo-de-Produto": "INTERNET",
        "meio-de-acesso": "Cabo Metálico"
    },
    {
        "cidade": "Recife",
        "uf": "PE",
        "latitude": -8.046658,
        "longitude": -34.877065,
        "empresa": "TIM",
        "pf-ou-pj": "Pessoa Jurídica",
        "tecnologia": "ETHERNET",
        "tipo-de-Produto": "INTERNET",
        "meio-de-acesso": "Fibra"
    },
    {
        "cidade": "Recife",
        "uf": "PE",
        "latitude": -8.046658,
        "longitude": -34.877065,
        "empresa": "TIM",
        "pf-ou-pj": "Pessoa Jurídica",
        "tecnologia": "ETHERNET",
        "tipo-de-Produto": "INTERNET",
        "meio-de-acesso": "Rádio"
    },
    {
        "cidade": "Recife",
        "uf": "PE",
        "latitude": -8.046658,
        "longitude": -34.877065,
        "empresa": "TIM",
        "pf-ou-pj": "Pessoa Jurídica",
        "tecnologia": "ETHERNET",
        "tipo-de-Produto": "LINHA_DEDICADA",
        "meio-de-acesso": "Fibra"
    },
    {
        "cidade": "Recife",
        "uf": "PE",
        "latitude": -8.046658,
        "longitude": -34.877065,
        "empresa": "TIM",
        "pf-ou-pj": "Pessoa Jurídica",
        "tecnologia": "ETHERNET",
        "tipo-de-Produto": "LINHA_DEDICADA",
        "meio-de-acesso": "Rádio"
    },
    {
        "cidade": "Recife",
        "uf": "PE",
        "latitude": -8.046658,
        "longitude": -34.877065,
        "empresa": "TIM",
        "pf-ou-pj": "Pessoa Jurídica",
        "tecnologia": "FR",
        "tipo-de-Produto": "LINHA_DEDICADA",
        "meio-de-acesso": "Fibra"
    },
    {
        "cidade": "Recife",
        "uf": "PE",
        "latitude": -8.046658,
        "longitude": -34.877065,
        "empresa": "TIM",
        "pf-ou-pj": "Pessoa Jurídica",
        "tecnologia": "FTTH",
        "tipo-de-Produto": "INTERNET",
        "meio-de-acesso": "Fibra"
    },
    {
        "cidade": "Serra Talhada",
        "uf": "PE",
        "latitude": -7.981778,
        "longitude": -38.289034,
        "empresa": "TIM",
        "pf-ou-pj": "Pessoa Jurídica",
        "tecnologia": "ETHERNET",
        "tipo-de-Produto": "INTERNET",
        "meio-de-acesso": "Fibra"
    },
    {
        "cidade": "Tamandaré",
        "uf": "PE",
        "latitude": -8.756646,
        "longitude": -35.103285,
        "empresa": "TIM",
        "pf-ou-pj": "Pessoa Jurídica",
        "tecnologia": "ATM",
        "tipo-de-Produto": "LINHA_DEDICADA",
        "meio-de-acesso": "Fibra"
    }
]