[
    {
        "cidade": "Ananindeua",
        "uf": "PA",
        "latitude": -1.363914,
        "longitude": -48.374298,
        "empresa": "CLARO",
        "pf-ou-pj": "Pessoa Física",
        "tecnologia": "FTTH",
        "tipo-de-Produto": "INTERNET",
        "meio-de-acesso": "Fibra"
    },
    {
        "cidade": "Ananindeua",
        "uf": "PA",
        "latitude": -1.363914,
        "longitude": -48.374298,
        "empresa": "CLARO",
        "pf-ou-pj": "Pessoa Física",
        "tecnologia": "HFC",
        "tipo-de-Produto": "INTERNET",
        "meio-de-acesso": "Cabo Coaxial"
    },
    {
        "cidade": "Belém",
        "uf": "PA",
        "latitude": -1.455396,
        "longitude": -48.489756,
        "empresa": "CLARO",
        "pf-ou-pj": "Pessoa Física",
        "tecnologia": "FTTH",
        "tipo-de-Produto": "INTERNET",
        "meio-de-acesso": "Fibra"
    },
    {
        "cidade": "Belém",
        "uf": "PA",
        "latitude": -1.455396,
        "longitude": -48.489756,
        "empresa": "CLARO",
        "pf-ou-pj": "Pessoa Física",
        "tecnologia": "HFC",
        "tipo-de-Produto": "INTERNET",
        "meio-de-acesso": "Cabo Coaxial"
    },
    {
        "cidade": "Castanhal",
        "uf": "PA",
        "latitude": -1.297971,
        "longitude": -47.916742,
        "empresa": "CLARO",
        "pf-ou-pj": "Pessoa Física",
        "tecnologia": "FTTH",
        "tipo-de-Produto": "INTERNET",
        "meio-de-acesso": "Fibra"
    },
    {
        "cidade": "Marabá",
        "uf": "PA",
        "latitude": -5.38075,
        "longitude": -49.132672,
        "empresa": "CLARO",
        "pf-ou-pj": "Pessoa Física",
        "tecnologia": "FTTH",
        "tipo-de-Produto": "INTERNET",
        "meio-de-acesso": "Fibra"
    },
    {
        "cidade": "Paragominas",
        "uf": "PA",
        "latitude": -3.002116,
        "longitude": -47.352692,
        "empresa": "CLARO",
        "pf-ou-pj": "Pessoa Física",
        "tecnologia": "FTTH",
        "tipo-de-Produto": "INTERNET",
        "meio-de-acesso": "Fibra"
    },
    {
        "cidade": "Parauapebas",
        "uf": "PA",
        "latitude": -6.067812,
        "longitude": -49.903733,
        "empresa": "CLARO",
        "pf-ou-pj": "Pessoa Física",
        "tecnologia": "FTTH",
        "tipo-de-Produto": "INTERNET",
        "meio-de-acesso": "Fibra"
    }
]