[
    {
        "cidade": "Acari",
        "uf": "RN",
        "latitude": -6.428201,
        "longitude": -36.634719,
        "empresa": "CLARO",
        "pf-ou-pj": "Pessoa Jurídica",
        "tecnologia": "ADSL1",
        "tipo-de-Produto": "LINHA_DEDICADA",
        "meio-de-acesso": "Cabo Metálico"
    },
    {
        "cidade": "Acari",
        "uf": "RN",
        "latitude": -6.428201,
        "longitude": -36.634719,
        "empresa": "CLARO",
        "pf-ou-pj": "Pessoa Jurídica",
        "tecnologia": "VSAT",
        "tipo-de-Produto": "INTERNET",
        "meio-de-acesso": "Satélite"
    },
    {
        "cidade": "Acari",
        "uf": "RN",
        "latitude": -6.428201,
        "longitude": -36.634719,
        "empresa": "CLARO",
        "pf-ou-pj": "Pessoa Jurídica",
        "tecnologia": "VSAT",
        "tipo-de-Produto": "LINHA_DEDICADA",
        "meio-de-acesso": "Satélite"
    },
    {
        "cidade": "Afonso Bezerra",
        "uf": "RN",
        "latitude": -5.492294,
        "longitude": -36.507469,
        "empresa": "CLARO",
        "pf-ou-pj": "Pessoa Jurídica",
        "tecnologia": "ADSL1",
        "tipo-de-Produto": "LINHA_DEDICADA",
        "meio-de-acesso": "Cabo Metálico"
    },
    {
        "cidade": "Afonso Bezerra",
        "uf": "RN",
        "latitude": -5.492294,
        "longitude": -36.507469,
        "empresa": "CLARO",
        "pf-ou-pj": "Pessoa Jurídica",
        "tecnologia": "VSAT",
        "tipo-de-Produto": "INTERNET",
        "meio-de-acesso": "Satélite"
    },
    {
        "cidade": "Afonso Bezerra",
        "uf": "RN",
        "latitude": -5.492294,
        "longitude": -36.507469,
        "empresa": "CLARO",
        "pf-ou-pj": "Pessoa Jurídica",
        "tecnologia": "VSAT",
        "tipo-de-Produto": "LINHA_DEDICADA",
        "meio-de-acesso": "Satélite"
    },
    {
        "cidade": "Alexandria",
        "uf": "RN",
        "latitude": -6.405335,
        "longitude": -38.01423,
        "empresa": "CLARO",
        "pf-ou-pj": "Pessoa Jurídica",
        "tecnologia": "ADSL1",
        "tipo-de-Produto": "LINHA_DEDICADA",
        "meio-de-acesso": "Cabo Metálico"
    },
    {
        "cidade": "Alexandria",
        "uf": "RN",
        "latitude": -6.405335,
        "longitude": -38.01423,
        "empresa": "CLARO",
        "pf-ou-pj": "Pessoa Jurídica",
        "tecnologia": "VSAT",
        "tipo-de-Produto": "INTERNET",
        "meio-de-acesso": "Satélite"
    },
    {
        "cidade": "Alexandria",
        "uf": "RN",
        "latitude": -6.405335,
        "longitude": -38.01423,
        "empresa": "CLARO",
        "pf-ou-pj": "Pessoa Jurídica",
        "tecnologia": "VSAT",
        "tipo-de-Produto": "LINHA_DEDICADA",
        "meio-de-acesso": "Satélite"
    },
    {
        "cidade": "Almino Afonso",
        "uf": "RN",
        "latitude": -6.147496,
        "longitude": -37.763574,
        "empresa": "CLARO",
        "pf-ou-pj": "Pessoa Jurídica",
        "tecnologia": "ADSL1",
        "tipo-de-Produto": "LINHA_DEDICADA",
        "meio-de-acesso": "Cabo Metálico"
    },
    {
        "cidade": "Almino Afonso",
        "uf": "RN",
        "latitude": -6.147496,
        "longitude": -37.763574,
        "empresa": "CLARO",
        "pf-ou-pj": "Pessoa Jurídica",
        "tecnologia": "VSAT",
        "tipo-de-Produto": "INTERNET",
        "meio-de-acesso": "Satélite"
    },
    {
        "cidade": "Almino Afonso",
        "uf": "RN",
        "latitude": -6.147496,
        "longitude": -37.763574,
        "empresa": "CLARO",
        "pf-ou-pj": "Pessoa Jurídica",
        "tecnologia": "VSAT",
        "tipo-de-Produto": "LINHA_DEDICADA",
        "meio-de-acesso": "Satélite"
    },
    {
        "cidade": "Alto do Rodrigues",
        "uf": "RN",
        "latitude": -5.281857,
        "longitude": -36.749971,
        "empresa": "CLARO",
        "pf-ou-pj": "Pessoa Jurídica",
        "tecnologia": "ADSL1",
        "tipo-de-Produto": "LINHA_DEDICADA",
        "meio-de-acesso": "Cabo Metálico"
    },
    {
        "cidade": "Alto do Rodrigues",
        "uf": "RN",
        "latitude": -5.281857,
        "longitude": -36.749971,
        "empresa": "CLARO",
        "pf-ou-pj": "Pessoa Jurídica",
        "tecnologia": "VSAT",
        "tipo-de-Produto": "LINHA_DEDICADA",
        "meio-de-acesso": "Satélite"
    },
    {
        "cidade": "Angicos",
        "uf": "RN",
        "latitude": -5.65792,
        "longitude": -36.609434,
        "empresa": "CLARO",
        "pf-ou-pj": "Pessoa Jurídica",
        "tecnologia": "FTTH",
        "tipo-de-Produto": "INTERNET",
        "meio-de-acesso": "Fibra"
    },
    {
        "cidade": "Angicos",
        "uf": "RN",
        "latitude": -5.65792,
        "longitude": -36.609434,
        "empresa": "CLARO",
        "pf-ou-pj": "Pessoa Jurídica",
        "tecnologia": "FTTH",
        "tipo-de-Produto": "LINHA_DEDICADA",
        "meio-de-acesso": "Fibra"
    },
    {
        "cidade": "Angicos",
        "uf": "RN",
        "latitude": -5.65792,
        "longitude": -36.609434,
        "empresa": "CLARO",
        "pf-ou-pj": "Pessoa Jurídica",
        "tecnologia": "FWA",
        "tipo-de-Produto": "LINHA_DEDICADA",
        "meio-de-acesso": "Rádio"
    },
    {
        "cidade": "Angicos",
        "uf": "RN",
        "latitude": -5.65792,
        "longitude": -36.609434,
        "empresa": "CLARO",
        "pf-ou-pj": "Pessoa Jurídica",
        "tecnologia": "VSAT",
        "tipo-de-Produto": "INTERNET",
        "meio-de-acesso": "Satélite"
    },
    {
        "cidade": "Angicos",
        "uf": "RN",
        "latitude": -5.65792,
        "longitude": -36.609434,
        "empresa": "CLARO",
        "pf-ou-pj": "Pessoa Jurídica",
        "tecnologia": "VSAT",
        "tipo-de-Produto": "LINHA_DEDICADA",
        "meio-de-acesso": "Satélite"
    },
    {
        "cidade": "Antônio Martins",
        "uf": "RN",
        "latitude": -6.213666,
        "longitude": -37.883363,
        "empresa": "CLARO",
        "pf-ou-pj": "Pessoa Jurídica",
        "tecnologia": "ADSL1",
        "tipo-de-Produto": "LINHA_DEDICADA",
        "meio-de-acesso": "Cabo Metálico"
    },
    {
        "cidade": "Antônio Martins",
        "uf": "RN",
        "latitude": -6.213666,
        "longitude": -37.883363,
        "empresa": "CLARO",
        "pf-ou-pj": "Pessoa Jurídica",
        "tecnologia": "VSAT",
        "tipo-de-Produto": "LINHA_DEDICADA",
        "meio-de-acesso": "Satélite"
    },
    {
        "cidade": "Apodi",
        "uf": "RN",
        "latitude": -5.653489,
        "longitude": -37.794593,
        "empresa": "CLARO",
        "pf-ou-pj": "Pessoa Jurídica",
        "tecnologia": "ADSL1",
        "tipo-de-Produto": "LINHA_DEDICADA",
        "meio-de-acesso": "Cabo Metálico"
    },
    {
        "cidade": "Apodi",
        "uf": "RN",
        "latitude": -5.653489,
        "longitude": -37.794593,
        "empresa": "CLARO",
        "pf-ou-pj": "Pessoa Jurídica",
        "tecnologia": "FTTH",
        "tipo-de-Produto": "INTERNET",
        "meio-de-acesso": "Fibra"
    },
    {
        "cidade": "Apodi",
        "uf": "RN",
        "latitude": -5.653489,
        "longitude": -37.794593,
        "empresa": "CLARO",
        "pf-ou-pj": "Pessoa Jurídica",
        "tecnologia": "VSAT",
        "tipo-de-Produto": "INTERNET",
        "meio-de-acesso": "Satélite"
    },
    {
        "cidade": "Apodi",
        "uf": "RN",
        "latitude": -5.653489,
        "longitude": -37.794593,
        "empresa": "CLARO",
        "pf-ou-pj": "Pessoa Jurídica",
        "tecnologia": "VSAT",
        "tipo-de-Produto": "LINHA_DEDICADA",
        "meio-de-acesso": "Satélite"
    },
    {
        "cidade": "Areia Branca",
        "uf": "RN",
        "latitude": -4.952537,
        "longitude": -37.125226,
        "empresa": "CLARO",
        "pf-ou-pj": "Pessoa Jurídica",
        "tecnologia": "FTTH",
        "tipo-de-Produto": "LINHA_DEDICADA",
        "meio-de-acesso": "Fibra"
    },
    {
        "cidade": "Areia Branca",
        "uf": "RN",
        "latitude": -4.952537,
        "longitude": -37.125226,
        "empresa": "CLARO",
        "pf-ou-pj": "Pessoa Jurídica",
        "tecnologia": "FWA",
        "tipo-de-Produto": "LINHA_DEDICADA",
        "meio-de-acesso": "Rádio"
    },
    {
        "cidade": "Areia Branca",
        "uf": "RN",
        "latitude": -4.952537,
        "longitude": -37.125226,
        "empresa": "CLARO",
        "pf-ou-pj": "Pessoa Jurídica",
        "tecnologia": "VSAT",
        "tipo-de-Produto": "INTERNET",
        "meio-de-acesso": "Satélite"
    },
    {
        "cidade": "Areia Branca",
        "uf": "RN",
        "latitude": -4.952537,
        "longitude": -37.125226,
        "empresa": "CLARO",
        "pf-ou-pj": "Pessoa Jurídica",
        "tecnologia": "VSAT",
        "tipo-de-Produto": "LINHA_DEDICADA",
        "meio-de-acesso": "Satélite"
    },
    {
        "cidade": "Arês",
        "uf": "RN",
        "latitude": -6.18831,
        "longitude": -35.160823,
        "empresa": "CLARO",
        "pf-ou-pj": "Pessoa Jurídica",
        "tecnologia": "VSAT",
        "tipo-de-Produto": "INTERNET",
        "meio-de-acesso": "Satélite"
    },
    {
        "cidade": "Augusto Severo",
        "uf": "RN",
        "latitude": null,
        "longitude": null,
        "empresa": "CLARO",
        "pf-ou-pj": "Pessoa Jurídica",
        "tecnologia": "ADSL1",
        "tipo-de-Produto": "LINHA_DEDICADA",
        "meio-de-acesso": "Cabo Metálico"
    },
    {
        "cidade": "Augusto Severo",
        "uf": "RN",
        "latitude": null,
        "longitude": null,
        "empresa": "CLARO",
        "pf-ou-pj": "Pessoa Jurídica",
        "tecnologia": "VSAT",
        "tipo-de-Produto": "INTERNET",
        "meio-de-acesso": "Satélite"
    },
    {
        "cidade": "Augusto Severo",
        "uf": "RN",
        "latitude": null,
        "longitude": null,
        "empresa": "CLARO",
        "pf-ou-pj": "Pessoa Jurídica",
        "tecnologia": "VSAT",
        "tipo-de-Produto": "LINHA_DEDICADA",
        "meio-de-acesso": "Satélite"
    },
    {
        "cidade": "Açu",
        "uf": "RN",
        "latitude": -5.565024,
        "longitude": -36.907538,
        "empresa": "CLARO",
        "pf-ou-pj": "Pessoa Jurídica",
        "tecnologia": "FTTH",
        "tipo-de-Produto": "LINHA_DEDICADA",
        "meio-de-acesso": "Fibra"
    },
    {
        "cidade": "Açu",
        "uf": "RN",
        "latitude": -5.565024,
        "longitude": -36.907538,
        "empresa": "CLARO",
        "pf-ou-pj": "Pessoa Jurídica",
        "tecnologia": "VSAT",
        "tipo-de-Produto": "INTERNET",
        "meio-de-acesso": "Satélite"
    },
    {
        "cidade": "Açu",
        "uf": "RN",
        "latitude": -5.565024,
        "longitude": -36.907538,
        "empresa": "CLARO",
        "pf-ou-pj": "Pessoa Jurídica",
        "tecnologia": "VSAT",
        "tipo-de-Produto": "LINHA_DEDICADA",
        "meio-de-acesso": "Satélite"
    },
    {
        "cidade": "Baraúna",
        "uf": "RN",
        "latitude": -5.06977,
        "longitude": -37.612911,
        "empresa": "CLARO",
        "pf-ou-pj": "Pessoa Jurídica",
        "tecnologia": "ADSL1",
        "tipo-de-Produto": "LINHA_DEDICADA",
        "meio-de-acesso": "Cabo Metálico"
    },
    {
        "cidade": "Baraúna",
        "uf": "RN",
        "latitude": -5.06977,
        "longitude": -37.612911,
        "empresa": "CLARO",
        "pf-ou-pj": "Pessoa Jurídica",
        "tecnologia": "VSAT",
        "tipo-de-Produto": "INTERNET",
        "meio-de-acesso": "Satélite"
    },
    {
        "cidade": "Baraúna",
        "uf": "RN",
        "latitude": -5.06977,
        "longitude": -37.612911,
        "empresa": "CLARO",
        "pf-ou-pj": "Pessoa Jurídica",
        "tecnologia": "VSAT",
        "tipo-de-Produto": "LINHA_DEDICADA",
        "meio-de-acesso": "Satélite"
    },
    {
        "cidade": "Barcelona",
        "uf": "RN",
        "latitude": -5.94284,
        "longitude": -35.924653,
        "empresa": "CLARO",
        "pf-ou-pj": "Pessoa Jurídica",
        "tecnologia": "ADSL1",
        "tipo-de-Produto": "LINHA_DEDICADA",
        "meio-de-acesso": "Cabo Metálico"
    },
    {
        "cidade": "Barcelona",
        "uf": "RN",
        "latitude": -5.94284,
        "longitude": -35.924653,
        "empresa": "CLARO",
        "pf-ou-pj": "Pessoa Jurídica",
        "tecnologia": "VSAT",
        "tipo-de-Produto": "LINHA_DEDICADA",
        "meio-de-acesso": "Satélite"
    },
    {
        "cidade": "Baía Formosa",
        "uf": "RN",
        "latitude": -6.371607,
        "longitude": -35.00327,
        "empresa": "CLARO",
        "pf-ou-pj": "Pessoa Jurídica",
        "tecnologia": "ADSL1",
        "tipo-de-Produto": "LINHA_DEDICADA",
        "meio-de-acesso": "Cabo Metálico"
    },
    {
        "cidade": "Baía Formosa",
        "uf": "RN",
        "latitude": -6.371607,
        "longitude": -35.00327,
        "empresa": "CLARO",
        "pf-ou-pj": "Pessoa Jurídica",
        "tecnologia": "VSAT",
        "tipo-de-Produto": "LINHA_DEDICADA",
        "meio-de-acesso": "Satélite"
    },
    {
        "cidade": "Bento Fernandes",
        "uf": "RN",
        "latitude": -5.699057,
        "longitude": -35.812996,
        "empresa": "CLARO",
        "pf-ou-pj": "Pessoa Jurídica",
        "tecnologia": "ADSL1",
        "tipo-de-Produto": "LINHA_DEDICADA",
        "meio-de-acesso": "Cabo Metálico"
    },
    {
        "cidade": "Bento Fernandes",
        "uf": "RN",
        "latitude": -5.699057,
        "longitude": -35.812996,
        "empresa": "CLARO",
        "pf-ou-pj": "Pessoa Jurídica",
        "tecnologia": "VSAT",
        "tipo-de-Produto": "LINHA_DEDICADA",
        "meio-de-acesso": "Satélite"
    },
    {
        "cidade": "Bodó",
        "uf": "RN",
        "latitude": -5.980269,
        "longitude": -36.416706,
        "empresa": "CLARO",
        "pf-ou-pj": "Pessoa Jurídica",
        "tecnologia": "ADSL1",
        "tipo-de-Produto": "LINHA_DEDICADA",
        "meio-de-acesso": "Cabo Metálico"
    },
    {
        "cidade": "Bodó",
        "uf": "RN",
        "latitude": -5.980269,
        "longitude": -36.416706,
        "empresa": "CLARO",
        "pf-ou-pj": "Pessoa Jurídica",
        "tecnologia": "VSAT",
        "tipo-de-Produto": "LINHA_DEDICADA",
        "meio-de-acesso": "Satélite"
    },
    {
        "cidade": "Bom Jesus",
        "uf": "RN",
        "latitude": -5.986479,
        "longitude": -35.579196,
        "empresa": "CLARO",
        "pf-ou-pj": "Pessoa Jurídica",
        "tecnologia": "VSAT",
        "tipo-de-Produto": "LINHA_DEDICADA",
        "meio-de-acesso": "Satélite"
    },
    {
        "cidade": "Brejinho",
        "uf": "RN",
        "latitude": -6.185662,
        "longitude": -35.359113,
        "empresa": "CLARO",
        "pf-ou-pj": "Pessoa Jurídica",
        "tecnologia": "VSAT",
        "tipo-de-Produto": "LINHA_DEDICADA",
        "meio-de-acesso": "Satélite"
    },
    {
        "cidade": "Caicó",
        "uf": "RN",
        "latitude": -6.454415,
        "longitude": -37.106723,
        "empresa": "CLARO",
        "pf-ou-pj": "Pessoa Jurídica",
        "tecnologia": "ADSL1",
        "tipo-de-Produto": "INTERNET",
        "meio-de-acesso": "Cabo Metálico"
    },
    {
        "cidade": "Caicó",
        "uf": "RN",
        "latitude": -6.454415,
        "longitude": -37.106723,
        "empresa": "CLARO",
        "pf-ou-pj": "Pessoa Jurídica",
        "tecnologia": "ADSL1",
        "tipo-de-Produto": "LINHA_DEDICADA",
        "meio-de-acesso": "Cabo Metálico"
    },
    {
        "cidade": "Caicó",
        "uf": "RN",
        "latitude": -6.454415,
        "longitude": -37.106723,
        "empresa": "CLARO",
        "pf-ou-pj": "Pessoa Jurídica",
        "tecnologia": "FTTH",
        "tipo-de-Produto": "INTERNET",
        "meio-de-acesso": "Fibra"
    },
    {
        "cidade": "Caicó",
        "uf": "RN",
        "latitude": -6.454415,
        "longitude": -37.106723,
        "empresa": "CLARO",
        "pf-ou-pj": "Pessoa Jurídica",
        "tecnologia": "FTTH",
        "tipo-de-Produto": "LINHA_DEDICADA",
        "meio-de-acesso": "Fibra"
    },
    {
        "cidade": "Caicó",
        "uf": "RN",
        "latitude": -6.454415,
        "longitude": -37.106723,
        "empresa": "CLARO",
        "pf-ou-pj": "Pessoa Jurídica",
        "tecnologia": "VSAT",
        "tipo-de-Produto": "LINHA_DEDICADA",
        "meio-de-acesso": "Satélite"
    },
    {
        "cidade": "Caiçara do Norte",
        "uf": "RN",
        "latitude": -5.070913,
        "longitude": -36.07169,
        "empresa": "CLARO",
        "pf-ou-pj": "Pessoa Jurídica",
        "tecnologia": "ADSL1",
        "tipo-de-Produto": "LINHA_DEDICADA",
        "meio-de-acesso": "Cabo Metálico"
    },
    {
        "cidade": "Caiçara do Norte",
        "uf": "RN",
        "latitude": -5.070913,
        "longitude": -36.07169,
        "empresa": "CLARO",
        "pf-ou-pj": "Pessoa Jurídica",
        "tecnologia": "VSAT",
        "tipo-de-Produto": "LINHA_DEDICADA",
        "meio-de-acesso": "Satélite"
    },
    {
        "cidade": "Caiçara do Rio do Vento",
        "uf": "RN",
        "latitude": -5.765412,
        "longitude": -35.993772,
        "empresa": "CLARO",
        "pf-ou-pj": "Pessoa Jurídica",
        "tecnologia": "ADSL1",
        "tipo-de-Produto": "LINHA_DEDICADA",
        "meio-de-acesso": "Cabo Metálico"
    },
    {
        "cidade": "Caiçara do Rio do Vento",
        "uf": "RN",
        "latitude": -5.765412,
        "longitude": -35.993772,
        "empresa": "CLARO",
        "pf-ou-pj": "Pessoa Jurídica",
        "tecnologia": "VSAT",
        "tipo-de-Produto": "LINHA_DEDICADA",
        "meio-de-acesso": "Satélite"
    },
    {
        "cidade": "Campo Redondo",
        "uf": "RN",
        "latitude": -6.23829,
        "longitude": -36.188768,
        "empresa": "CLARO",
        "pf-ou-pj": "Pessoa Jurídica",
        "tecnologia": "ADSL1",
        "tipo-de-Produto": "LINHA_DEDICADA",
        "meio-de-acesso": "Cabo Metálico"
    },
    {
        "cidade": "Campo Redondo",
        "uf": "RN",
        "latitude": -6.23829,
        "longitude": -36.188768,
        "empresa": "CLARO",
        "pf-ou-pj": "Pessoa Jurídica",
        "tecnologia": "VSAT",
        "tipo-de-Produto": "LINHA_DEDICADA",
        "meio-de-acesso": "Satélite"
    },
    {
        "cidade": "Canguaretama",
        "uf": "RN",
        "latitude": -6.371927,
        "longitude": -35.128059,
        "empresa": "CLARO",
        "pf-ou-pj": "Pessoa Jurídica",
        "tecnologia": "ADSL1",
        "tipo-de-Produto": "LINHA_DEDICADA",
        "meio-de-acesso": "Cabo Metálico"
    },
    {
        "cidade": "Canguaretama",
        "uf": "RN",
        "latitude": -6.371927,
        "longitude": -35.128059,
        "empresa": "CLARO",
        "pf-ou-pj": "Pessoa Jurídica",
        "tecnologia": "FTTH",
        "tipo-de-Produto": "LINHA_DEDICADA",
        "meio-de-acesso": "Fibra"
    },
    {
        "cidade": "Canguaretama",
        "uf": "RN",
        "latitude": -6.371927,
        "longitude": -35.128059,
        "empresa": "CLARO",
        "pf-ou-pj": "Pessoa Jurídica",
        "tecnologia": "VSAT",
        "tipo-de-Produto": "INTERNET",
        "meio-de-acesso": "Satélite"
    },
    {
        "cidade": "Canguaretama",
        "uf": "RN",
        "latitude": -6.371927,
        "longitude": -35.128059,
        "empresa": "CLARO",
        "pf-ou-pj": "Pessoa Jurídica",
        "tecnologia": "VSAT",
        "tipo-de-Produto": "LINHA_DEDICADA",
        "meio-de-acesso": "Satélite"
    },
    {
        "cidade": "Caraúbas",
        "uf": "RN",
        "latitude": -5.783867,
        "longitude": -37.558629,
        "empresa": "CLARO",
        "pf-ou-pj": "Pessoa Jurídica",
        "tecnologia": "ADSL1",
        "tipo-de-Produto": "LINHA_DEDICADA",
        "meio-de-acesso": "Cabo Metálico"
    },
    {
        "cidade": "Caraúbas",
        "uf": "RN",
        "latitude": -5.783867,
        "longitude": -37.558629,
        "empresa": "CLARO",
        "pf-ou-pj": "Pessoa Jurídica",
        "tecnologia": "VSAT",
        "tipo-de-Produto": "INTERNET",
        "meio-de-acesso": "Satélite"
    },
    {
        "cidade": "Caraúbas",
        "uf": "RN",
        "latitude": -5.783867,
        "longitude": -37.558629,
        "empresa": "CLARO",
        "pf-ou-pj": "Pessoa Jurídica",
        "tecnologia": "VSAT",
        "tipo-de-Produto": "LINHA_DEDICADA",
        "meio-de-acesso": "Satélite"
    },
    {
        "cidade": "Carnaubais",
        "uf": "RN",
        "latitude": -5.341808,
        "longitude": -36.833489,
        "empresa": "CLARO",
        "pf-ou-pj": "Pessoa Jurídica",
        "tecnologia": "ADSL1",
        "tipo-de-Produto": "LINHA_DEDICADA",
        "meio-de-acesso": "Cabo Metálico"
    },
    {
        "cidade": "Carnaubais",
        "uf": "RN",
        "latitude": -5.341808,
        "longitude": -36.833489,
        "empresa": "CLARO",
        "pf-ou-pj": "Pessoa Jurídica",
        "tecnologia": "VSAT",
        "tipo-de-Produto": "LINHA_DEDICADA",
        "meio-de-acesso": "Satélite"
    },
    {
        "cidade": "Carnaúba dos Dantas",
        "uf": "RN",
        "latitude": -6.550153,
        "longitude": -36.586818,
        "empresa": "CLARO",
        "pf-ou-pj": "Pessoa Jurídica",
        "tecnologia": "ADSL1",
        "tipo-de-Produto": "LINHA_DEDICADA",
        "meio-de-acesso": "Cabo Metálico"
    },
    {
        "cidade": "Carnaúba dos Dantas",
        "uf": "RN",
        "latitude": -6.550153,
        "longitude": -36.586818,
        "empresa": "CLARO",
        "pf-ou-pj": "Pessoa Jurídica",
        "tecnologia": "VSAT",
        "tipo-de-Produto": "LINHA_DEDICADA",
        "meio-de-acesso": "Satélite"
    },
    {
        "cidade": "Ceará-Mirim",
        "uf": "RN",
        "latitude": -5.640061,
        "longitude": -35.419741,
        "empresa": "CLARO",
        "pf-ou-pj": "Pessoa Jurídica",
        "tecnologia": "ADSL1",
        "tipo-de-Produto": "LINHA_DEDICADA",
        "meio-de-acesso": "Cabo Metálico"
    },
    {
        "cidade": "Ceará-Mirim",
        "uf": "RN",
        "latitude": -5.640061,
        "longitude": -35.419741,
        "empresa": "CLARO",
        "pf-ou-pj": "Pessoa Jurídica",
        "tecnologia": "FTTH",
        "tipo-de-Produto": "INTERNET",
        "meio-de-acesso": "Fibra"
    },
    {
        "cidade": "Ceará-Mirim",
        "uf": "RN",
        "latitude": -5.640061,
        "longitude": -35.419741,
        "empresa": "CLARO",
        "pf-ou-pj": "Pessoa Jurídica",
        "tecnologia": "FTTH",
        "tipo-de-Produto": "LINHA_DEDICADA",
        "meio-de-acesso": "Fibra"
    },
    {
        "cidade": "Ceará-Mirim",
        "uf": "RN",
        "latitude": -5.640061,
        "longitude": -35.419741,
        "empresa": "CLARO",
        "pf-ou-pj": "Pessoa Jurídica",
        "tecnologia": "VSAT",
        "tipo-de-Produto": "INTERNET",
        "meio-de-acesso": "Satélite"
    },
    {
        "cidade": "Ceará-Mirim",
        "uf": "RN",
        "latitude": -5.640061,
        "longitude": -35.419741,
        "empresa": "CLARO",
        "pf-ou-pj": "Pessoa Jurídica",
        "tecnologia": "VSAT",
        "tipo-de-Produto": "LINHA_DEDICADA",
        "meio-de-acesso": "Satélite"
    },
    {
        "cidade": "Cerro Corá",
        "uf": "RN",
        "latitude": -6.03503,
        "longitude": -36.350278,
        "empresa": "CLARO",
        "pf-ou-pj": "Pessoa Jurídica",
        "tecnologia": "ADSL1",
        "tipo-de-Produto": "LINHA_DEDICADA",
        "meio-de-acesso": "Cabo Metálico"
    },
    {
        "cidade": "Cerro Corá",
        "uf": "RN",
        "latitude": -6.03503,
        "longitude": -36.350278,
        "empresa": "CLARO",
        "pf-ou-pj": "Pessoa Jurídica",
        "tecnologia": "VSAT",
        "tipo-de-Produto": "LINHA_DEDICADA",
        "meio-de-acesso": "Satélite"
    },
    {
        "cidade": "Coronel Ezequiel",
        "uf": "RN",
        "latitude": -6.374801,
        "longitude": -36.222346,
        "empresa": "CLARO",
        "pf-ou-pj": "Pessoa Jurídica",
        "tecnologia": "ADSL1",
        "tipo-de-Produto": "LINHA_DEDICADA",
        "meio-de-acesso": "Cabo Metálico"
    },
    {
        "cidade": "Coronel Ezequiel",
        "uf": "RN",
        "latitude": -6.374801,
        "longitude": -36.222346,
        "empresa": "CLARO",
        "pf-ou-pj": "Pessoa Jurídica",
        "tecnologia": "VSAT",
        "tipo-de-Produto": "LINHA_DEDICADA",
        "meio-de-acesso": "Satélite"
    },
    {
        "cidade": "Coronel João Pessoa",
        "uf": "RN",
        "latitude": -6.249736,
        "longitude": -38.44415,
        "empresa": "CLARO",
        "pf-ou-pj": "Pessoa Jurídica",
        "tecnologia": "ADSL1",
        "tipo-de-Produto": "LINHA_DEDICADA",
        "meio-de-acesso": "Cabo Metálico"
    },
    {
        "cidade": "Coronel João Pessoa",
        "uf": "RN",
        "latitude": -6.249736,
        "longitude": -38.44415,
        "empresa": "CLARO",
        "pf-ou-pj": "Pessoa Jurídica",
        "tecnologia": "VSAT",
        "tipo-de-Produto": "LINHA_DEDICADA",
        "meio-de-acesso": "Satélite"
    },
    {
        "cidade": "Cruzeta",
        "uf": "RN",
        "latitude": -6.408939,
        "longitude": -36.778239,
        "empresa": "CLARO",
        "pf-ou-pj": "Pessoa Jurídica",
        "tecnologia": "ADSL1",
        "tipo-de-Produto": "LINHA_DEDICADA",
        "meio-de-acesso": "Cabo Metálico"
    },
    {
        "cidade": "Cruzeta",
        "uf": "RN",
        "latitude": -6.408939,
        "longitude": -36.778239,
        "empresa": "CLARO",
        "pf-ou-pj": "Pessoa Jurídica",
        "tecnologia": "VSAT",
        "tipo-de-Produto": "INTERNET",
        "meio-de-acesso": "Satélite"
    },
    {
        "cidade": "Cruzeta",
        "uf": "RN",
        "latitude": -6.408939,
        "longitude": -36.778239,
        "empresa": "CLARO",
        "pf-ou-pj": "Pessoa Jurídica",
        "tecnologia": "VSAT",
        "tipo-de-Produto": "LINHA_DEDICADA",
        "meio-de-acesso": "Satélite"
    },
    {
        "cidade": "Currais Novos",
        "uf": "RN",
        "latitude": -6.254843,
        "longitude": -36.514648,
        "empresa": "CLARO",
        "pf-ou-pj": "Pessoa Jurídica",
        "tecnologia": "ADSL1",
        "tipo-de-Produto": "LINHA_DEDICADA",
        "meio-de-acesso": "Cabo Metálico"
    },
    {
        "cidade": "Currais Novos",
        "uf": "RN",
        "latitude": -6.254843,
        "longitude": -36.514648,
        "empresa": "CLARO",
        "pf-ou-pj": "Pessoa Jurídica",
        "tecnologia": "FTTH",
        "tipo-de-Produto": "INTERNET",
        "meio-de-acesso": "Fibra"
    },
    {
        "cidade": "Currais Novos",
        "uf": "RN",
        "latitude": -6.254843,
        "longitude": -36.514648,
        "empresa": "CLARO",
        "pf-ou-pj": "Pessoa Jurídica",
        "tecnologia": "FWA",
        "tipo-de-Produto": "LINHA_DEDICADA",
        "meio-de-acesso": "Rádio"
    },
    {
        "cidade": "Currais Novos",
        "uf": "RN",
        "latitude": -6.254843,
        "longitude": -36.514648,
        "empresa": "CLARO",
        "pf-ou-pj": "Pessoa Jurídica",
        "tecnologia": "VSAT",
        "tipo-de-Produto": "INTERNET",
        "meio-de-acesso": "Satélite"
    },
    {
        "cidade": "Currais Novos",
        "uf": "RN",
        "latitude": -6.254843,
        "longitude": -36.514648,
        "empresa": "CLARO",
        "pf-ou-pj": "Pessoa Jurídica",
        "tecnologia": "VSAT",
        "tipo-de-Produto": "LINHA_DEDICADA",
        "meio-de-acesso": "Satélite"
    },
    {
        "cidade": "Doutor Severiano",
        "uf": "RN",
        "latitude": -6.080819,
        "longitude": -38.379407,
        "empresa": "CLARO",
        "pf-ou-pj": "Pessoa Jurídica",
        "tecnologia": "ADSL1",
        "tipo-de-Produto": "LINHA_DEDICADA",
        "meio-de-acesso": "Cabo Metálico"
    },
    {
        "cidade": "Doutor Severiano",
        "uf": "RN",
        "latitude": -6.080819,
        "longitude": -38.379407,
        "empresa": "CLARO",
        "pf-ou-pj": "Pessoa Jurídica",
        "tecnologia": "VSAT",
        "tipo-de-Produto": "LINHA_DEDICADA",
        "meio-de-acesso": "Satélite"
    },
    {
        "cidade": "Encanto",
        "uf": "RN",
        "latitude": -6.106912,
        "longitude": -38.30328,
        "empresa": "CLARO",
        "pf-ou-pj": "Pessoa Jurídica",
        "tecnologia": "ADSL1",
        "tipo-de-Produto": "LINHA_DEDICADA",
        "meio-de-acesso": "Cabo Metálico"
    },
    {
        "cidade": "Encanto",
        "uf": "RN",
        "latitude": -6.106912,
        "longitude": -38.30328,
        "empresa": "CLARO",
        "pf-ou-pj": "Pessoa Jurídica",
        "tecnologia": "VSAT",
        "tipo-de-Produto": "LINHA_DEDICADA",
        "meio-de-acesso": "Satélite"
    },
    {
        "cidade": "Equador",
        "uf": "RN",
        "latitude": -6.938355,
        "longitude": -36.716957,
        "empresa": "CLARO",
        "pf-ou-pj": "Pessoa Jurídica",
        "tecnologia": "ADSL1",
        "tipo-de-Produto": "LINHA_DEDICADA",
        "meio-de-acesso": "Cabo Metálico"
    },
    {
        "cidade": "Equador",
        "uf": "RN",
        "latitude": -6.938355,
        "longitude": -36.716957,
        "empresa": "CLARO",
        "pf-ou-pj": "Pessoa Jurídica",
        "tecnologia": "VSAT",
        "tipo-de-Produto": "LINHA_DEDICADA",
        "meio-de-acesso": "Satélite"
    },
    {
        "cidade": "Espírito Santo",
        "uf": "RN",
        "latitude": -6.335634,
        "longitude": -35.305217,
        "empresa": "CLARO",
        "pf-ou-pj": "Pessoa Jurídica",
        "tecnologia": "ADSL1",
        "tipo-de-Produto": "LINHA_DEDICADA",
        "meio-de-acesso": "Cabo Metálico"
    },
    {
        "cidade": "Espírito Santo",
        "uf": "RN",
        "latitude": -6.335634,
        "longitude": -35.305217,
        "empresa": "CLARO",
        "pf-ou-pj": "Pessoa Jurídica",
        "tecnologia": "VSAT",
        "tipo-de-Produto": "LINHA_DEDICADA",
        "meio-de-acesso": "Satélite"
    },
    {
        "cidade": "Extremoz",
        "uf": "RN",
        "latitude": -5.701433,
        "longitude": -35.30484,
        "empresa": "CLARO",
        "pf-ou-pj": "Pessoa Jurídica",
        "tecnologia": "ADSL1",
        "tipo-de-Produto": "LINHA_DEDICADA",
        "meio-de-acesso": "Cabo Metálico"
    },
    {
        "cidade": "Felipe Guerra",
        "uf": "RN",
        "latitude": -5.592737,
        "longitude": -37.687518,
        "empresa": "CLARO",
        "pf-ou-pj": "Pessoa Jurídica",
        "tecnologia": "ADSL1",
        "tipo-de-Produto": "LINHA_DEDICADA",
        "meio-de-acesso": "Cabo Metálico"
    },
    {
        "cidade": "Felipe Guerra",
        "uf": "RN",
        "latitude": -5.592737,
        "longitude": -37.687518,
        "empresa": "CLARO",
        "pf-ou-pj": "Pessoa Jurídica",
        "tecnologia": "VSAT",
        "tipo-de-Produto": "LINHA_DEDICADA",
        "meio-de-acesso": "Satélite"
    },
    {
        "cidade": "Fernando Pedroza",
        "uf": "RN",
        "latitude": -5.690955,
        "longitude": -36.528193,
        "empresa": "CLARO",
        "pf-ou-pj": "Pessoa Jurídica",
        "tecnologia": "ADSL1",
        "tipo-de-Produto": "LINHA_DEDICADA",
        "meio-de-acesso": "Cabo Metálico"
    },
    {
        "cidade": "Fernando Pedroza",
        "uf": "RN",
        "latitude": -5.690955,
        "longitude": -36.528193,
        "empresa": "CLARO",
        "pf-ou-pj": "Pessoa Jurídica",
        "tecnologia": "VSAT",
        "tipo-de-Produto": "LINHA_DEDICADA",
        "meio-de-acesso": "Satélite"
    },
    {
        "cidade": "Florânia",
        "uf": "RN",
        "latitude": -6.122645,
        "longitude": -36.822624,
        "empresa": "CLARO",
        "pf-ou-pj": "Pessoa Jurídica",
        "tecnologia": "ADSL1",
        "tipo-de-Produto": "LINHA_DEDICADA",
        "meio-de-acesso": "Cabo Metálico"
    },
    {
        "cidade": "Florânia",
        "uf": "RN",
        "latitude": -6.122645,
        "longitude": -36.822624,
        "empresa": "CLARO",
        "pf-ou-pj": "Pessoa Jurídica",
        "tecnologia": "VSAT",
        "tipo-de-Produto": "INTERNET",
        "meio-de-acesso": "Satélite"
    },
    {
        "cidade": "Florânia",
        "uf": "RN",
        "latitude": -6.122645,
        "longitude": -36.822624,
        "empresa": "CLARO",
        "pf-ou-pj": "Pessoa Jurídica",
        "tecnologia": "VSAT",
        "tipo-de-Produto": "LINHA_DEDICADA",
        "meio-de-acesso": "Satélite"
    },
    {
        "cidade": "Francisco Dantas",
        "uf": "RN",
        "latitude": -6.072339,
        "longitude": -38.121209,
        "empresa": "CLARO",
        "pf-ou-pj": "Pessoa Jurídica",
        "tecnologia": "ADSL1",
        "tipo-de-Produto": "LINHA_DEDICADA",
        "meio-de-acesso": "Cabo Metálico"
    },
    {
        "cidade": "Francisco Dantas",
        "uf": "RN",
        "latitude": -6.072339,
        "longitude": -38.121209,
        "empresa": "CLARO",
        "pf-ou-pj": "Pessoa Jurídica",
        "tecnologia": "VSAT",
        "tipo-de-Produto": "LINHA_DEDICADA",
        "meio-de-acesso": "Satélite"
    },
    {
        "cidade": "Frutuoso Gomes",
        "uf": "RN",
        "latitude": -6.156686,
        "longitude": -37.837493,
        "empresa": "CLARO",
        "pf-ou-pj": "Pessoa Jurídica",
        "tecnologia": "ADSL1",
        "tipo-de-Produto": "LINHA_DEDICADA",
        "meio-de-acesso": "Cabo Metálico"
    },
    {
        "cidade": "Frutuoso Gomes",
        "uf": "RN",
        "latitude": -6.156686,
        "longitude": -37.837493,
        "empresa": "CLARO",
        "pf-ou-pj": "Pessoa Jurídica",
        "tecnologia": "VSAT",
        "tipo-de-Produto": "LINHA_DEDICADA",
        "meio-de-acesso": "Satélite"
    },
    {
        "cidade": "Galinhos",
        "uf": "RN",
        "latitude": -5.090901,
        "longitude": -36.275449,
        "empresa": "CLARO",
        "pf-ou-pj": "Pessoa Jurídica",
        "tecnologia": "ADSL1",
        "tipo-de-Produto": "LINHA_DEDICADA",
        "meio-de-acesso": "Cabo Metálico"
    },
    {
        "cidade": "Galinhos",
        "uf": "RN",
        "latitude": -5.090901,
        "longitude": -36.275449,
        "empresa": "CLARO",
        "pf-ou-pj": "Pessoa Jurídica",
        "tecnologia": "VSAT",
        "tipo-de-Produto": "LINHA_DEDICADA",
        "meio-de-acesso": "Satélite"
    },
    {
        "cidade": "Goianinha",
        "uf": "RN",
        "latitude": -6.264864,
        "longitude": -35.194289,
        "empresa": "CLARO",
        "pf-ou-pj": "Pessoa Jurídica",
        "tecnologia": "ADSL1",
        "tipo-de-Produto": "LINHA_DEDICADA",
        "meio-de-acesso": "Cabo Metálico"
    },
    {
        "cidade": "Goianinha",
        "uf": "RN",
        "latitude": -6.264864,
        "longitude": -35.194289,
        "empresa": "CLARO",
        "pf-ou-pj": "Pessoa Jurídica",
        "tecnologia": "VSAT",
        "tipo-de-Produto": "INTERNET",
        "meio-de-acesso": "Satélite"
    },
    {
        "cidade": "Goianinha",
        "uf": "RN",
        "latitude": -6.264864,
        "longitude": -35.194289,
        "empresa": "CLARO",
        "pf-ou-pj": "Pessoa Jurídica",
        "tecnologia": "VSAT",
        "tipo-de-Produto": "LINHA_DEDICADA",
        "meio-de-acesso": "Satélite"
    },
    {
        "cidade": "Governador Dix-Sept Rosado",
        "uf": "RN",
        "latitude": -5.448867,
        "longitude": -37.518265,
        "empresa": "CLARO",
        "pf-ou-pj": "Pessoa Jurídica",
        "tecnologia": "ADSL1",
        "tipo-de-Produto": "LINHA_DEDICADA",
        "meio-de-acesso": "Cabo Metálico"
    },
    {
        "cidade": "Governador Dix-Sept Rosado",
        "uf": "RN",
        "latitude": -5.448867,
        "longitude": -37.518265,
        "empresa": "CLARO",
        "pf-ou-pj": "Pessoa Jurídica",
        "tecnologia": "VSAT",
        "tipo-de-Produto": "INTERNET",
        "meio-de-acesso": "Satélite"
    },
    {
        "cidade": "Governador Dix-Sept Rosado",
        "uf": "RN",
        "latitude": -5.448867,
        "longitude": -37.518265,
        "empresa": "CLARO",
        "pf-ou-pj": "Pessoa Jurídica",
        "tecnologia": "VSAT",
        "tipo-de-Produto": "LINHA_DEDICADA",
        "meio-de-acesso": "Satélite"
    },
    {
        "cidade": "Grossos",
        "uf": "RN",
        "latitude": -4.98068,
        "longitude": -37.16208,
        "empresa": "CLARO",
        "pf-ou-pj": "Pessoa Jurídica",
        "tecnologia": "ADSL1",
        "tipo-de-Produto": "LINHA_DEDICADA",
        "meio-de-acesso": "Cabo Metálico"
    },
    {
        "cidade": "Grossos",
        "uf": "RN",
        "latitude": -4.98068,
        "longitude": -37.16208,
        "empresa": "CLARO",
        "pf-ou-pj": "Pessoa Jurídica",
        "tecnologia": "VSAT",
        "tipo-de-Produto": "LINHA_DEDICADA",
        "meio-de-acesso": "Satélite"
    },
    {
        "cidade": "Guamaré",
        "uf": "RN",
        "latitude": -5.106194,
        "longitude": -36.322172,
        "empresa": "CLARO",
        "pf-ou-pj": "Pessoa Jurídica",
        "tecnologia": "ADSL1",
        "tipo-de-Produto": "LINHA_DEDICADA",
        "meio-de-acesso": "Cabo Metálico"
    },
    {
        "cidade": "Guamaré",
        "uf": "RN",
        "latitude": -5.106194,
        "longitude": -36.322172,
        "empresa": "CLARO",
        "pf-ou-pj": "Pessoa Jurídica",
        "tecnologia": "FTTH",
        "tipo-de-Produto": "INTERNET",
        "meio-de-acesso": "Fibra"
    },
    {
        "cidade": "Guamaré",
        "uf": "RN",
        "latitude": -5.106194,
        "longitude": -36.322172,
        "empresa": "CLARO",
        "pf-ou-pj": "Pessoa Jurídica",
        "tecnologia": "FTTH",
        "tipo-de-Produto": "LINHA_DEDICADA",
        "meio-de-acesso": "Fibra"
    },
    {
        "cidade": "Guamaré",
        "uf": "RN",
        "latitude": -5.106194,
        "longitude": -36.322172,
        "empresa": "CLARO",
        "pf-ou-pj": "Pessoa Jurídica",
        "tecnologia": "VSAT",
        "tipo-de-Produto": "INTERNET",
        "meio-de-acesso": "Satélite"
    },
    {
        "cidade": "Guamaré",
        "uf": "RN",
        "latitude": -5.106194,
        "longitude": -36.322172,
        "empresa": "CLARO",
        "pf-ou-pj": "Pessoa Jurídica",
        "tecnologia": "VSAT",
        "tipo-de-Produto": "LINHA_DEDICADA",
        "meio-de-acesso": "Satélite"
    },
    {
        "cidade": "Ipanguaçu",
        "uf": "RN",
        "latitude": -5.489844,
        "longitude": -36.850137,
        "empresa": "CLARO",
        "pf-ou-pj": "Pessoa Jurídica",
        "tecnologia": "ADSL1",
        "tipo-de-Produto": "LINHA_DEDICADA",
        "meio-de-acesso": "Cabo Metálico"
    },
    {
        "cidade": "Ipanguaçu",
        "uf": "RN",
        "latitude": -5.489844,
        "longitude": -36.850137,
        "empresa": "CLARO",
        "pf-ou-pj": "Pessoa Jurídica",
        "tecnologia": "VSAT",
        "tipo-de-Produto": "LINHA_DEDICADA",
        "meio-de-acesso": "Satélite"
    },
    {
        "cidade": "Ipueira",
        "uf": "RN",
        "latitude": -6.805962,
        "longitude": -37.204541,
        "empresa": "CLARO",
        "pf-ou-pj": "Pessoa Jurídica",
        "tecnologia": "ADSL1",
        "tipo-de-Produto": "LINHA_DEDICADA",
        "meio-de-acesso": "Cabo Metálico"
    },
    {
        "cidade": "Ipueira",
        "uf": "RN",
        "latitude": -6.805962,
        "longitude": -37.204541,
        "empresa": "CLARO",
        "pf-ou-pj": "Pessoa Jurídica",
        "tecnologia": "VSAT",
        "tipo-de-Produto": "LINHA_DEDICADA",
        "meio-de-acesso": "Satélite"
    },
    {
        "cidade": "Itajá",
        "uf": "RN",
        "latitude": -5.638936,
        "longitude": -36.871176,
        "empresa": "CLARO",
        "pf-ou-pj": "Pessoa Jurídica",
        "tecnologia": "ADSL1",
        "tipo-de-Produto": "LINHA_DEDICADA",
        "meio-de-acesso": "Cabo Metálico"
    },
    {
        "cidade": "Itajá",
        "uf": "RN",
        "latitude": -5.638936,
        "longitude": -36.871176,
        "empresa": "CLARO",
        "pf-ou-pj": "Pessoa Jurídica",
        "tecnologia": "VSAT",
        "tipo-de-Produto": "LINHA_DEDICADA",
        "meio-de-acesso": "Satélite"
    },
    {
        "cidade": "Itaú",
        "uf": "RN",
        "latitude": -5.836301,
        "longitude": -37.991249,
        "empresa": "CLARO",
        "pf-ou-pj": "Pessoa Jurídica",
        "tecnologia": "ADSL1",
        "tipo-de-Produto": "LINHA_DEDICADA",
        "meio-de-acesso": "Cabo Metálico"
    },
    {
        "cidade": "Itaú",
        "uf": "RN",
        "latitude": -5.836301,
        "longitude": -37.991249,
        "empresa": "CLARO",
        "pf-ou-pj": "Pessoa Jurídica",
        "tecnologia": "VSAT",
        "tipo-de-Produto": "LINHA_DEDICADA",
        "meio-de-acesso": "Satélite"
    },
    {
        "cidade": "Jandaíra",
        "uf": "RN",
        "latitude": -5.352106,
        "longitude": -36.127836,
        "empresa": "CLARO",
        "pf-ou-pj": "Pessoa Jurídica",
        "tecnologia": "ADSL1",
        "tipo-de-Produto": "LINHA_DEDICADA",
        "meio-de-acesso": "Cabo Metálico"
    },
    {
        "cidade": "Jandaíra",
        "uf": "RN",
        "latitude": -5.352106,
        "longitude": -36.127836,
        "empresa": "CLARO",
        "pf-ou-pj": "Pessoa Jurídica",
        "tecnologia": "VSAT",
        "tipo-de-Produto": "LINHA_DEDICADA",
        "meio-de-acesso": "Satélite"
    },
    {
        "cidade": "Janduís",
        "uf": "RN",
        "latitude": -6.014739,
        "longitude": -37.40482,
        "empresa": "CLARO",
        "pf-ou-pj": "Pessoa Jurídica",
        "tecnologia": "ADSL1",
        "tipo-de-Produto": "LINHA_DEDICADA",
        "meio-de-acesso": "Cabo Metálico"
    },
    {
        "cidade": "Janduís",
        "uf": "RN",
        "latitude": -6.014739,
        "longitude": -37.40482,
        "empresa": "CLARO",
        "pf-ou-pj": "Pessoa Jurídica",
        "tecnologia": "VSAT",
        "tipo-de-Produto": "INTERNET",
        "meio-de-acesso": "Satélite"
    },
    {
        "cidade": "Janduís",
        "uf": "RN",
        "latitude": -6.014739,
        "longitude": -37.40482,
        "empresa": "CLARO",
        "pf-ou-pj": "Pessoa Jurídica",
        "tecnologia": "VSAT",
        "tipo-de-Produto": "LINHA_DEDICADA",
        "meio-de-acesso": "Satélite"
    },
    {
        "cidade": "Januário Cicco",
        "uf": "RN",
        "latitude": null,
        "longitude": null,
        "empresa": "CLARO",
        "pf-ou-pj": "Pessoa Jurídica",
        "tecnologia": "ADSL1",
        "tipo-de-Produto": "LINHA_DEDICADA",
        "meio-de-acesso": "Cabo Metálico"
    },
    {
        "cidade": "Januário Cicco",
        "uf": "RN",
        "latitude": null,
        "longitude": null,
        "empresa": "CLARO",
        "pf-ou-pj": "Pessoa Jurídica",
        "tecnologia": "VSAT",
        "tipo-de-Produto": "LINHA_DEDICADA",
        "meio-de-acesso": "Satélite"
    },
    {
        "cidade": "Japi",
        "uf": "RN",
        "latitude": -6.46544,
        "longitude": -35.934551,
        "empresa": "CLARO",
        "pf-ou-pj": "Pessoa Jurídica",
        "tecnologia": "ADSL1",
        "tipo-de-Produto": "LINHA_DEDICADA",
        "meio-de-acesso": "Cabo Metálico"
    },
    {
        "cidade": "Japi",
        "uf": "RN",
        "latitude": -6.46544,
        "longitude": -35.934551,
        "empresa": "CLARO",
        "pf-ou-pj": "Pessoa Jurídica",
        "tecnologia": "VSAT",
        "tipo-de-Produto": "LINHA_DEDICADA",
        "meio-de-acesso": "Satélite"
    },
    {
        "cidade": "Jardim de Angicos",
        "uf": "RN",
        "latitude": -5.649993,
        "longitude": -35.971287,
        "empresa": "CLARO",
        "pf-ou-pj": "Pessoa Jurídica",
        "tecnologia": "ADSL1",
        "tipo-de-Produto": "LINHA_DEDICADA",
        "meio-de-acesso": "Cabo Metálico"
    },
    {
        "cidade": "Jardim de Angicos",
        "uf": "RN",
        "latitude": -5.649993,
        "longitude": -35.971287,
        "empresa": "CLARO",
        "pf-ou-pj": "Pessoa Jurídica",
        "tecnologia": "VSAT",
        "tipo-de-Produto": "LINHA_DEDICADA",
        "meio-de-acesso": "Satélite"
    },
    {
        "cidade": "Jardim de Piranhas",
        "uf": "RN",
        "latitude": -6.376649,
        "longitude": -37.349643,
        "empresa": "CLARO",
        "pf-ou-pj": "Pessoa Jurídica",
        "tecnologia": "ADSL1",
        "tipo-de-Produto": "LINHA_DEDICADA",
        "meio-de-acesso": "Cabo Metálico"
    },
    {
        "cidade": "Jardim de Piranhas",
        "uf": "RN",
        "latitude": -6.376649,
        "longitude": -37.349643,
        "empresa": "CLARO",
        "pf-ou-pj": "Pessoa Jurídica",
        "tecnologia": "VSAT",
        "tipo-de-Produto": "INTERNET",
        "meio-de-acesso": "Satélite"
    },
    {
        "cidade": "Jardim de Piranhas",
        "uf": "RN",
        "latitude": -6.376649,
        "longitude": -37.349643,
        "empresa": "CLARO",
        "pf-ou-pj": "Pessoa Jurídica",
        "tecnologia": "VSAT",
        "tipo-de-Produto": "LINHA_DEDICADA",
        "meio-de-acesso": "Satélite"
    },
    {
        "cidade": "Jardim do Seridó",
        "uf": "RN",
        "latitude": -6.580474,
        "longitude": -36.773574,
        "empresa": "CLARO",
        "pf-ou-pj": "Pessoa Jurídica",
        "tecnologia": "ADSL1",
        "tipo-de-Produto": "LINHA_DEDICADA",
        "meio-de-acesso": "Cabo Metálico"
    },
    {
        "cidade": "Jardim do Seridó",
        "uf": "RN",
        "latitude": -6.580474,
        "longitude": -36.773574,
        "empresa": "CLARO",
        "pf-ou-pj": "Pessoa Jurídica",
        "tecnologia": "VSAT",
        "tipo-de-Produto": "INTERNET",
        "meio-de-acesso": "Satélite"
    },
    {
        "cidade": "Jardim do Seridó",
        "uf": "RN",
        "latitude": -6.580474,
        "longitude": -36.773574,
        "empresa": "CLARO",
        "pf-ou-pj": "Pessoa Jurídica",
        "tecnologia": "VSAT",
        "tipo-de-Produto": "LINHA_DEDICADA",
        "meio-de-acesso": "Satélite"
    },
    {
        "cidade": "Jaçanã",
        "uf": "RN",
        "latitude": -6.418559,
        "longitude": -36.203081,
        "empresa": "CLARO",
        "pf-ou-pj": "Pessoa Jurídica",
        "tecnologia": "ADSL1",
        "tipo-de-Produto": "LINHA_DEDICADA",
        "meio-de-acesso": "Cabo Metálico"
    },
    {
        "cidade": "Jaçanã",
        "uf": "RN",
        "latitude": -6.418559,
        "longitude": -36.203081,
        "empresa": "CLARO",
        "pf-ou-pj": "Pessoa Jurídica",
        "tecnologia": "VSAT",
        "tipo-de-Produto": "LINHA_DEDICADA",
        "meio-de-acesso": "Satélite"
    },
    {
        "cidade": "José da Penha",
        "uf": "RN",
        "latitude": -6.310947,
        "longitude": -38.282277,
        "empresa": "CLARO",
        "pf-ou-pj": "Pessoa Jurídica",
        "tecnologia": "VSAT",
        "tipo-de-Produto": "LINHA_DEDICADA",
        "meio-de-acesso": "Satélite"
    },
    {
        "cidade": "João Câmara",
        "uf": "RN",
        "latitude": -5.54094,
        "longitude": -35.812186,
        "empresa": "CLARO",
        "pf-ou-pj": "Pessoa Jurídica",
        "tecnologia": "ADSL1",
        "tipo-de-Produto": "LINHA_DEDICADA",
        "meio-de-acesso": "Cabo Metálico"
    },
    {
        "cidade": "João Câmara",
        "uf": "RN",
        "latitude": -5.54094,
        "longitude": -35.812186,
        "empresa": "CLARO",
        "pf-ou-pj": "Pessoa Jurídica",
        "tecnologia": "FTTH",
        "tipo-de-Produto": "LINHA_DEDICADA",
        "meio-de-acesso": "Fibra"
    },
    {
        "cidade": "João Câmara",
        "uf": "RN",
        "latitude": -5.54094,
        "longitude": -35.812186,
        "empresa": "CLARO",
        "pf-ou-pj": "Pessoa Jurídica",
        "tecnologia": "VSAT",
        "tipo-de-Produto": "INTERNET",
        "meio-de-acesso": "Satélite"
    },
    {
        "cidade": "João Câmara",
        "uf": "RN",
        "latitude": -5.54094,
        "longitude": -35.812186,
        "empresa": "CLARO",
        "pf-ou-pj": "Pessoa Jurídica",
        "tecnologia": "VSAT",
        "tipo-de-Produto": "LINHA_DEDICADA",
        "meio-de-acesso": "Satélite"
    },
    {
        "cidade": "João Dias",
        "uf": "RN",
        "latitude": -6.272154,
        "longitude": -37.788546,
        "empresa": "CLARO",
        "pf-ou-pj": "Pessoa Jurídica",
        "tecnologia": "ADSL1",
        "tipo-de-Produto": "LINHA_DEDICADA",
        "meio-de-acesso": "Cabo Metálico"
    },
    {
        "cidade": "João Dias",
        "uf": "RN",
        "latitude": -6.272154,
        "longitude": -37.788546,
        "empresa": "CLARO",
        "pf-ou-pj": "Pessoa Jurídica",
        "tecnologia": "VSAT",
        "tipo-de-Produto": "LINHA_DEDICADA",
        "meio-de-acesso": "Satélite"
    },
    {
        "cidade": "Jucurutu",
        "uf": "RN",
        "latitude": -6.030599,
        "longitude": -37.00902,
        "empresa": "CLARO",
        "pf-ou-pj": "Pessoa Jurídica",
        "tecnologia": "ADSL1",
        "tipo-de-Produto": "LINHA_DEDICADA",
        "meio-de-acesso": "Cabo Metálico"
    },
    {
        "cidade": "Jucurutu",
        "uf": "RN",
        "latitude": -6.030599,
        "longitude": -37.00902,
        "empresa": "CLARO",
        "pf-ou-pj": "Pessoa Jurídica",
        "tecnologia": "VSAT",
        "tipo-de-Produto": "INTERNET",
        "meio-de-acesso": "Satélite"
    },
    {
        "cidade": "Jucurutu",
        "uf": "RN",
        "latitude": -6.030599,
        "longitude": -37.00902,
        "empresa": "CLARO",
        "pf-ou-pj": "Pessoa Jurídica",
        "tecnologia": "VSAT",
        "tipo-de-Produto": "LINHA_DEDICADA",
        "meio-de-acesso": "Satélite"
    },
    {
        "cidade": "Jundiá",
        "uf": "RN",
        "latitude": -6.268657,
        "longitude": -35.349469,
        "empresa": "CLARO",
        "pf-ou-pj": "Pessoa Jurídica",
        "tecnologia": "ADSL1",
        "tipo-de-Produto": "LINHA_DEDICADA",
        "meio-de-acesso": "Cabo Metálico"
    },
    {
        "cidade": "Jundiá",
        "uf": "RN",
        "latitude": -6.268657,
        "longitude": -35.349469,
        "empresa": "CLARO",
        "pf-ou-pj": "Pessoa Jurídica",
        "tecnologia": "VSAT",
        "tipo-de-Produto": "LINHA_DEDICADA",
        "meio-de-acesso": "Satélite"
    },
    {
        "cidade": "Lagoa Nova",
        "uf": "RN",
        "latitude": -6.093386,
        "longitude": -36.47027,
        "empresa": "CLARO",
        "pf-ou-pj": "Pessoa Jurídica",
        "tecnologia": "ADSL1",
        "tipo-de-Produto": "LINHA_DEDICADA",
        "meio-de-acesso": "Cabo Metálico"
    },
    {
        "cidade": "Lagoa Nova",
        "uf": "RN",
        "latitude": -6.093386,
        "longitude": -36.47027,
        "empresa": "CLARO",
        "pf-ou-pj": "Pessoa Jurídica",
        "tecnologia": "VSAT",
        "tipo-de-Produto": "LINHA_DEDICADA",
        "meio-de-acesso": "Satélite"
    },
    {
        "cidade": "Lagoa Salgada",
        "uf": "RN",
        "latitude": -6.122954,
        "longitude": -35.472394,
        "empresa": "CLARO",
        "pf-ou-pj": "Pessoa Jurídica",
        "tecnologia": "VSAT",
        "tipo-de-Produto": "LINHA_DEDICADA",
        "meio-de-acesso": "Satélite"
    },
    {
        "cidade": "Lagoa d'Anta",
        "uf": "RN",
        "latitude": null,
        "longitude": null,
        "empresa": "CLARO",
        "pf-ou-pj": "Pessoa Jurídica",
        "tecnologia": "ADSL1",
        "tipo-de-Produto": "LINHA_DEDICADA",
        "meio-de-acesso": "Cabo Metálico"
    },
    {
        "cidade": "Lagoa d'Anta",
        "uf": "RN",
        "latitude": null,
        "longitude": null,
        "empresa": "CLARO",
        "pf-ou-pj": "Pessoa Jurídica",
        "tecnologia": "VSAT",
        "tipo-de-Produto": "LINHA_DEDICADA",
        "meio-de-acesso": "Satélite"
    },
    {
        "cidade": "Lagoa de Pedras",
        "uf": "RN",
        "latitude": -6.150815,
        "longitude": -35.429888,
        "empresa": "CLARO",
        "pf-ou-pj": "Pessoa Jurídica",
        "tecnologia": "VSAT",
        "tipo-de-Produto": "LINHA_DEDICADA",
        "meio-de-acesso": "Satélite"
    },
    {
        "cidade": "Lagoa de Velhos",
        "uf": "RN",
        "latitude": -6.011897,
        "longitude": -35.872928,
        "empresa": "CLARO",
        "pf-ou-pj": "Pessoa Jurídica",
        "tecnologia": "ADSL1",
        "tipo-de-Produto": "LINHA_DEDICADA",
        "meio-de-acesso": "Cabo Metálico"
    },
    {
        "cidade": "Lagoa de Velhos",
        "uf": "RN",
        "latitude": -6.011897,
        "longitude": -35.872928,
        "empresa": "CLARO",
        "pf-ou-pj": "Pessoa Jurídica",
        "tecnologia": "VSAT",
        "tipo-de-Produto": "LINHA_DEDICADA",
        "meio-de-acesso": "Satélite"
    },
    {
        "cidade": "Lajes",
        "uf": "RN",
        "latitude": -5.693222,
        "longitude": -36.24704,
        "empresa": "CLARO",
        "pf-ou-pj": "Pessoa Jurídica",
        "tecnologia": "ADSL1",
        "tipo-de-Produto": "LINHA_DEDICADA",
        "meio-de-acesso": "Cabo Metálico"
    },
    {
        "cidade": "Lajes",
        "uf": "RN",
        "latitude": -5.693222,
        "longitude": -36.24704,
        "empresa": "CLARO",
        "pf-ou-pj": "Pessoa Jurídica",
        "tecnologia": "FTTH",
        "tipo-de-Produto": "INTERNET",
        "meio-de-acesso": "Fibra"
    },
    {
        "cidade": "Lajes",
        "uf": "RN",
        "latitude": -5.693222,
        "longitude": -36.24704,
        "empresa": "CLARO",
        "pf-ou-pj": "Pessoa Jurídica",
        "tecnologia": "VSAT",
        "tipo-de-Produto": "INTERNET",
        "meio-de-acesso": "Satélite"
    },
    {
        "cidade": "Lajes",
        "uf": "RN",
        "latitude": -5.693222,
        "longitude": -36.24704,
        "empresa": "CLARO",
        "pf-ou-pj": "Pessoa Jurídica",
        "tecnologia": "VSAT",
        "tipo-de-Produto": "LINHA_DEDICADA",
        "meio-de-acesso": "Satélite"
    },
    {
        "cidade": "Lajes Pintadas",
        "uf": "RN",
        "latitude": -6.149429,
        "longitude": -36.117088,
        "empresa": "CLARO",
        "pf-ou-pj": "Pessoa Jurídica",
        "tecnologia": "ADSL1",
        "tipo-de-Produto": "LINHA_DEDICADA",
        "meio-de-acesso": "Cabo Metálico"
    },
    {
        "cidade": "Lajes Pintadas",
        "uf": "RN",
        "latitude": -6.149429,
        "longitude": -36.117088,
        "empresa": "CLARO",
        "pf-ou-pj": "Pessoa Jurídica",
        "tecnologia": "VSAT",
        "tipo-de-Produto": "LINHA_DEDICADA",
        "meio-de-acesso": "Satélite"
    },
    {
        "cidade": "Lucrécia",
        "uf": "RN",
        "latitude": -6.105248,
        "longitude": -37.813365,
        "empresa": "CLARO",
        "pf-ou-pj": "Pessoa Jurídica",
        "tecnologia": "VSAT",
        "tipo-de-Produto": "LINHA_DEDICADA",
        "meio-de-acesso": "Satélite"
    },
    {
        "cidade": "Luís Gomes",
        "uf": "RN",
        "latitude": -6.405883,
        "longitude": -38.389865,
        "empresa": "CLARO",
        "pf-ou-pj": "Pessoa Jurídica",
        "tecnologia": "ADSL1",
        "tipo-de-Produto": "LINHA_DEDICADA",
        "meio-de-acesso": "Cabo Metálico"
    },
    {
        "cidade": "Luís Gomes",
        "uf": "RN",
        "latitude": -6.405883,
        "longitude": -38.389865,
        "empresa": "CLARO",
        "pf-ou-pj": "Pessoa Jurídica",
        "tecnologia": "VSAT",
        "tipo-de-Produto": "INTERNET",
        "meio-de-acesso": "Satélite"
    },
    {
        "cidade": "Luís Gomes",
        "uf": "RN",
        "latitude": -6.405883,
        "longitude": -38.389865,
        "empresa": "CLARO",
        "pf-ou-pj": "Pessoa Jurídica",
        "tecnologia": "VSAT",
        "tipo-de-Produto": "LINHA_DEDICADA",
        "meio-de-acesso": "Satélite"
    },
    {
        "cidade": "Macau",
        "uf": "RN",
        "latitude": -5.107947,
        "longitude": -36.631842,
        "empresa": "CLARO",
        "pf-ou-pj": "Pessoa Jurídica",
        "tecnologia": "ADSL1",
        "tipo-de-Produto": "LINHA_DEDICADA",
        "meio-de-acesso": "Cabo Metálico"
    },
    {
        "cidade": "Macau",
        "uf": "RN",
        "latitude": -5.107947,
        "longitude": -36.631842,
        "empresa": "CLARO",
        "pf-ou-pj": "Pessoa Jurídica",
        "tecnologia": "FTTH",
        "tipo-de-Produto": "LINHA_DEDICADA",
        "meio-de-acesso": "Fibra"
    },
    {
        "cidade": "Macau",
        "uf": "RN",
        "latitude": -5.107947,
        "longitude": -36.631842,
        "empresa": "CLARO",
        "pf-ou-pj": "Pessoa Jurídica",
        "tecnologia": "VSAT",
        "tipo-de-Produto": "INTERNET",
        "meio-de-acesso": "Satélite"
    },
    {
        "cidade": "Macau",
        "uf": "RN",
        "latitude": -5.107947,
        "longitude": -36.631842,
        "empresa": "CLARO",
        "pf-ou-pj": "Pessoa Jurídica",
        "tecnologia": "VSAT",
        "tipo-de-Produto": "LINHA_DEDICADA",
        "meio-de-acesso": "Satélite"
    },
    {
        "cidade": "Macaíba",
        "uf": "RN",
        "latitude": -5.852295,
        "longitude": -35.355184,
        "empresa": "CLARO",
        "pf-ou-pj": "Pessoa Jurídica",
        "tecnologia": "ADSL1",
        "tipo-de-Produto": "LINHA_DEDICADA",
        "meio-de-acesso": "Cabo Metálico"
    },
    {
        "cidade": "Macaíba",
        "uf": "RN",
        "latitude": -5.852295,
        "longitude": -35.355184,
        "empresa": "CLARO",
        "pf-ou-pj": "Pessoa Jurídica",
        "tecnologia": "FTTH",
        "tipo-de-Produto": "INTERNET",
        "meio-de-acesso": "Fibra"
    },
    {
        "cidade": "Macaíba",
        "uf": "RN",
        "latitude": -5.852295,
        "longitude": -35.355184,
        "empresa": "CLARO",
        "pf-ou-pj": "Pessoa Jurídica",
        "tecnologia": "FTTH",
        "tipo-de-Produto": "LINHA_DEDICADA",
        "meio-de-acesso": "Fibra"
    },
    {
        "cidade": "Macaíba",
        "uf": "RN",
        "latitude": -5.852295,
        "longitude": -35.355184,
        "empresa": "CLARO",
        "pf-ou-pj": "Pessoa Jurídica",
        "tecnologia": "FWA",
        "tipo-de-Produto": "INTERNET",
        "meio-de-acesso": "Rádio"
    },
    {
        "cidade": "Macaíba",
        "uf": "RN",
        "latitude": -5.852295,
        "longitude": -35.355184,
        "empresa": "CLARO",
        "pf-ou-pj": "Pessoa Jurídica",
        "tecnologia": "VSAT",
        "tipo-de-Produto": "INTERNET",
        "meio-de-acesso": "Satélite"
    },
    {
        "cidade": "Macaíba",
        "uf": "RN",
        "latitude": -5.852295,
        "longitude": -35.355184,
        "empresa": "CLARO",
        "pf-ou-pj": "Pessoa Jurídica",
        "tecnologia": "VSAT",
        "tipo-de-Produto": "LINHA_DEDICADA",
        "meio-de-acesso": "Satélite"
    },
    {
        "cidade": "Major Sales",
        "uf": "RN",
        "latitude": -6.399485,
        "longitude": -38.324019,
        "empresa": "CLARO",
        "pf-ou-pj": "Pessoa Jurídica",
        "tecnologia": "ADSL1",
        "tipo-de-Produto": "LINHA_DEDICADA",
        "meio-de-acesso": "Cabo Metálico"
    },
    {
        "cidade": "Major Sales",
        "uf": "RN",
        "latitude": -6.399485,
        "longitude": -38.324019,
        "empresa": "CLARO",
        "pf-ou-pj": "Pessoa Jurídica",
        "tecnologia": "VSAT",
        "tipo-de-Produto": "LINHA_DEDICADA",
        "meio-de-acesso": "Satélite"
    },
    {
        "cidade": "Marcelino Vieira",
        "uf": "RN",
        "latitude": -6.284595,
        "longitude": -38.164162,
        "empresa": "CLARO",
        "pf-ou-pj": "Pessoa Jurídica",
        "tecnologia": "ADSL1",
        "tipo-de-Produto": "LINHA_DEDICADA",
        "meio-de-acesso": "Cabo Metálico"
    },
    {
        "cidade": "Marcelino Vieira",
        "uf": "RN",
        "latitude": -6.284595,
        "longitude": -38.164162,
        "empresa": "CLARO",
        "pf-ou-pj": "Pessoa Jurídica",
        "tecnologia": "VSAT",
        "tipo-de-Produto": "INTERNET",
        "meio-de-acesso": "Satélite"
    },
    {
        "cidade": "Marcelino Vieira",
        "uf": "RN",
        "latitude": -6.284595,
        "longitude": -38.164162,
        "empresa": "CLARO",
        "pf-ou-pj": "Pessoa Jurídica",
        "tecnologia": "VSAT",
        "tipo-de-Produto": "LINHA_DEDICADA",
        "meio-de-acesso": "Satélite"
    },
    {
        "cidade": "Martins",
        "uf": "RN",
        "latitude": -6.08279,
        "longitude": -37.907973,
        "empresa": "CLARO",
        "pf-ou-pj": "Pessoa Jurídica",
        "tecnologia": "FTTH",
        "tipo-de-Produto": "LINHA_DEDICADA",
        "meio-de-acesso": "Fibra"
    },
    {
        "cidade": "Martins",
        "uf": "RN",
        "latitude": -6.08279,
        "longitude": -37.907973,
        "empresa": "CLARO",
        "pf-ou-pj": "Pessoa Jurídica",
        "tecnologia": "VSAT",
        "tipo-de-Produto": "INTERNET",
        "meio-de-acesso": "Satélite"
    },
    {
        "cidade": "Martins",
        "uf": "RN",
        "latitude": -6.08279,
        "longitude": -37.907973,
        "empresa": "CLARO",
        "pf-ou-pj": "Pessoa Jurídica",
        "tecnologia": "VSAT",
        "tipo-de-Produto": "LINHA_DEDICADA",
        "meio-de-acesso": "Satélite"
    },
    {
        "cidade": "Messias Targino",
        "uf": "RN",
        "latitude": -6.071935,
        "longitude": -37.515817,
        "empresa": "CLARO",
        "pf-ou-pj": "Pessoa Jurídica",
        "tecnologia": "ADSL1",
        "tipo-de-Produto": "LINHA_DEDICADA",
        "meio-de-acesso": "Cabo Metálico"
    },
    {
        "cidade": "Messias Targino",
        "uf": "RN",
        "latitude": -6.071935,
        "longitude": -37.515817,
        "empresa": "CLARO",
        "pf-ou-pj": "Pessoa Jurídica",
        "tecnologia": "VSAT",
        "tipo-de-Produto": "LINHA_DEDICADA",
        "meio-de-acesso": "Satélite"
    },
    {
        "cidade": "Montanhas",
        "uf": "RN",
        "latitude": -6.485217,
        "longitude": -35.284158,
        "empresa": "CLARO",
        "pf-ou-pj": "Pessoa Jurídica",
        "tecnologia": "ADSL1",
        "tipo-de-Produto": "LINHA_DEDICADA",
        "meio-de-acesso": "Cabo Metálico"
    },
    {
        "cidade": "Montanhas",
        "uf": "RN",
        "latitude": -6.485217,
        "longitude": -35.284158,
        "empresa": "CLARO",
        "pf-ou-pj": "Pessoa Jurídica",
        "tecnologia": "VSAT",
        "tipo-de-Produto": "LINHA_DEDICADA",
        "meio-de-acesso": "Satélite"
    },
    {
        "cidade": "Monte Alegre",
        "uf": "RN",
        "latitude": -6.07063,
        "longitude": -35.325337,
        "empresa": "CLARO",
        "pf-ou-pj": "Pessoa Jurídica",
        "tecnologia": "ADSL1",
        "tipo-de-Produto": "LINHA_DEDICADA",
        "meio-de-acesso": "Cabo Metálico"
    },
    {
        "cidade": "Monte Alegre",
        "uf": "RN",
        "latitude": -6.07063,
        "longitude": -35.325337,
        "empresa": "CLARO",
        "pf-ou-pj": "Pessoa Jurídica",
        "tecnologia": "VSAT",
        "tipo-de-Produto": "INTERNET",
        "meio-de-acesso": "Satélite"
    },
    {
        "cidade": "Monte Alegre",
        "uf": "RN",
        "latitude": -6.07063,
        "longitude": -35.325337,
        "empresa": "CLARO",
        "pf-ou-pj": "Pessoa Jurídica",
        "tecnologia": "VSAT",
        "tipo-de-Produto": "LINHA_DEDICADA",
        "meio-de-acesso": "Satélite"
    },
    {
        "cidade": "Monte das Gameleiras",
        "uf": "RN",
        "latitude": -6.43698,
        "longitude": -35.783133,
        "empresa": "CLARO",
        "pf-ou-pj": "Pessoa Jurídica",
        "tecnologia": "VSAT",
        "tipo-de-Produto": "LINHA_DEDICADA",
        "meio-de-acesso": "Satélite"
    },
    {
        "cidade": "Mossoró",
        "uf": "RN",
        "latitude": -5.183737,
        "longitude": -37.347446,
        "empresa": "CLARO",
        "pf-ou-pj": "Pessoa Jurídica",
        "tecnologia": "ADSL1",
        "tipo-de-Produto": "INTERNET",
        "meio-de-acesso": "Cabo Metálico"
    },
    {
        "cidade": "Mossoró",
        "uf": "RN",
        "latitude": -5.183737,
        "longitude": -37.347446,
        "empresa": "CLARO",
        "pf-ou-pj": "Pessoa Jurídica",
        "tecnologia": "ADSL1",
        "tipo-de-Produto": "LINHA_DEDICADA",
        "meio-de-acesso": "Cabo Metálico"
    },
    {
        "cidade": "Mossoró",
        "uf": "RN",
        "latitude": -5.183737,
        "longitude": -37.347446,
        "empresa": "CLARO",
        "pf-ou-pj": "Pessoa Jurídica",
        "tecnologia": "FTTH",
        "tipo-de-Produto": "INTERNET",
        "meio-de-acesso": "Fibra"
    },
    {
        "cidade": "Mossoró",
        "uf": "RN",
        "latitude": -5.183737,
        "longitude": -37.347446,
        "empresa": "CLARO",
        "pf-ou-pj": "Pessoa Jurídica",
        "tecnologia": "FTTH",
        "tipo-de-Produto": "LINHA_DEDICADA",
        "meio-de-acesso": "Fibra"
    },
    {
        "cidade": "Mossoró",
        "uf": "RN",
        "latitude": -5.183737,
        "longitude": -37.347446,
        "empresa": "CLARO",
        "pf-ou-pj": "Pessoa Jurídica",
        "tecnologia": "FWA",
        "tipo-de-Produto": "LINHA_DEDICADA",
        "meio-de-acesso": "Rádio"
    },
    {
        "cidade": "Mossoró",
        "uf": "RN",
        "latitude": -5.183737,
        "longitude": -37.347446,
        "empresa": "CLARO",
        "pf-ou-pj": "Pessoa Jurídica",
        "tecnologia": "HFC",
        "tipo-de-Produto": "INTERNET",
        "meio-de-acesso": "Cabo Coaxial"
    },
    {
        "cidade": "Mossoró",
        "uf": "RN",
        "latitude": -5.183737,
        "longitude": -37.347446,
        "empresa": "CLARO",
        "pf-ou-pj": "Pessoa Jurídica",
        "tecnologia": "VSAT",
        "tipo-de-Produto": "LINHA_DEDICADA",
        "meio-de-acesso": "Satélite"
    },
    {
        "cidade": "Natal",
        "uf": "RN",
        "latitude": -5.793567,
        "longitude": -35.198604,
        "empresa": "CLARO",
        "pf-ou-pj": "Pessoa Jurídica",
        "tecnologia": "ADSL1",
        "tipo-de-Produto": "INTERNET",
        "meio-de-acesso": "Cabo Metálico"
    },
    {
        "cidade": "Natal",
        "uf": "RN",
        "latitude": -5.793567,
        "longitude": -35.198604,
        "empresa": "CLARO",
        "pf-ou-pj": "Pessoa Jurídica",
        "tecnologia": "ADSL1",
        "tipo-de-Produto": "LINHA_DEDICADA",
        "meio-de-acesso": "Cabo Metálico"
    },
    {
        "cidade": "Natal",
        "uf": "RN",
        "latitude": -5.793567,
        "longitude": -35.198604,
        "empresa": "CLARO",
        "pf-ou-pj": "Pessoa Jurídica",
        "tecnologia": "ADSL1",
        "tipo-de-Produto": "OUTROS",
        "meio-de-acesso": "Cabo Metálico"
    },
    {
        "cidade": "Natal",
        "uf": "RN",
        "latitude": -5.793567,
        "longitude": -35.198604,
        "empresa": "CLARO",
        "pf-ou-pj": "Pessoa Jurídica",
        "tecnologia": "FTTH",
        "tipo-de-Produto": "INTERNET",
        "meio-de-acesso": "Fibra"
    },
    {
        "cidade": "Natal",
        "uf": "RN",
        "latitude": -5.793567,
        "longitude": -35.198604,
        "empresa": "CLARO",
        "pf-ou-pj": "Pessoa Jurídica",
        "tecnologia": "FTTH",
        "tipo-de-Produto": "LINHA_DEDICADA",
        "meio-de-acesso": "Fibra"
    },
    {
        "cidade": "Natal",
        "uf": "RN",
        "latitude": -5.793567,
        "longitude": -35.198604,
        "empresa": "CLARO",
        "pf-ou-pj": "Pessoa Jurídica",
        "tecnologia": "FWA",
        "tipo-de-Produto": "LINHA_DEDICADA",
        "meio-de-acesso": "Rádio"
    },
    {
        "cidade": "Natal",
        "uf": "RN",
        "latitude": -5.793567,
        "longitude": -35.198604,
        "empresa": "CLARO",
        "pf-ou-pj": "Pessoa Jurídica",
        "tecnologia": "HFC",
        "tipo-de-Produto": "INTERNET",
        "meio-de-acesso": "Cabo Coaxial"
    },
    {
        "cidade": "Natal",
        "uf": "RN",
        "latitude": -5.793567,
        "longitude": -35.198604,
        "empresa": "CLARO",
        "pf-ou-pj": "Pessoa Jurídica",
        "tecnologia": "HFC",
        "tipo-de-Produto": "LINHA_DEDICADA",
        "meio-de-acesso": "Cabo Coaxial"
    },
    {
        "cidade": "Natal",
        "uf": "RN",
        "latitude": -5.793567,
        "longitude": -35.198604,
        "empresa": "CLARO",
        "pf-ou-pj": "Pessoa Jurídica",
        "tecnologia": "VSAT",
        "tipo-de-Produto": "INTERNET",
        "meio-de-acesso": "Satélite"
    },
    {
        "cidade": "Natal",
        "uf": "RN",
        "latitude": -5.793567,
        "longitude": -35.198604,
        "empresa": "CLARO",
        "pf-ou-pj": "Pessoa Jurídica",
        "tecnologia": "VSAT",
        "tipo-de-Produto": "LINHA_DEDICADA",
        "meio-de-acesso": "Satélite"
    },
    {
        "cidade": "Natal",
        "uf": "RN",
        "latitude": -5.793567,
        "longitude": -35.198604,
        "empresa": "CLARO",
        "pf-ou-pj": "Pessoa Jurídica",
        "tecnologia": "VSAT",
        "tipo-de-Produto": "OUTROS",
        "meio-de-acesso": "Satélite"
    },
    {
        "cidade": "Natal",
        "uf": "RN",
        "latitude": -5.793567,
        "longitude": -35.198604,
        "empresa": "CLARO",
        "pf-ou-pj": "Pessoa Jurídica",
        "tecnologia": "WIMAX",
        "tipo-de-Produto": "OUTROS",
        "meio-de-acesso": "Rádio"
    },
    {
        "cidade": "Nova Cruz",
        "uf": "RN",
        "latitude": -6.475115,
        "longitude": -35.428615,
        "empresa": "CLARO",
        "pf-ou-pj": "Pessoa Jurídica",
        "tecnologia": "ADSL1",
        "tipo-de-Produto": "LINHA_DEDICADA",
        "meio-de-acesso": "Cabo Metálico"
    },
    {
        "cidade": "Nova Cruz",
        "uf": "RN",
        "latitude": -6.475115,
        "longitude": -35.428615,
        "empresa": "CLARO",
        "pf-ou-pj": "Pessoa Jurídica",
        "tecnologia": "VSAT",
        "tipo-de-Produto": "INTERNET",
        "meio-de-acesso": "Satélite"
    },
    {
        "cidade": "Nova Cruz",
        "uf": "RN",
        "latitude": -6.475115,
        "longitude": -35.428615,
        "empresa": "CLARO",
        "pf-ou-pj": "Pessoa Jurídica",
        "tecnologia": "VSAT",
        "tipo-de-Produto": "LINHA_DEDICADA",
        "meio-de-acesso": "Satélite"
    },
    {
        "cidade": "Nísia Floresta",
        "uf": "RN",
        "latitude": -6.093288,
        "longitude": -35.19913,
        "empresa": "CLARO",
        "pf-ou-pj": "Pessoa Jurídica",
        "tecnologia": "VSAT",
        "tipo-de-Produto": "INTERNET",
        "meio-de-acesso": "Satélite"
    },
    {
        "cidade": "Olho-d'Água do Borges",
        "uf": "RN",
        "latitude": null,
        "longitude": null,
        "empresa": "CLARO",
        "pf-ou-pj": "Pessoa Jurídica",
        "tecnologia": "ADSL1",
        "tipo-de-Produto": "LINHA_DEDICADA",
        "meio-de-acesso": "Cabo Metálico"
    },
    {
        "cidade": "Olho-d'Água do Borges",
        "uf": "RN",
        "latitude": null,
        "longitude": null,
        "empresa": "CLARO",
        "pf-ou-pj": "Pessoa Jurídica",
        "tecnologia": "VSAT",
        "tipo-de-Produto": "LINHA_DEDICADA",
        "meio-de-acesso": "Satélite"
    },
    {
        "cidade": "Ouro Branco",
        "uf": "RN",
        "latitude": -6.6958,
        "longitude": -36.94279,
        "empresa": "CLARO",
        "pf-ou-pj": "Pessoa Jurídica",
        "tecnologia": "VSAT",
        "tipo-de-Produto": "LINHA_DEDICADA",
        "meio-de-acesso": "Satélite"
    },
    {
        "cidade": "Paraná",
        "uf": "RN",
        "latitude": -6.475645,
        "longitude": -38.305701,
        "empresa": "CLARO",
        "pf-ou-pj": "Pessoa Jurídica",
        "tecnologia": "ADSL1",
        "tipo-de-Produto": "LINHA_DEDICADA",
        "meio-de-acesso": "Cabo Metálico"
    },
    {
        "cidade": "Paraná",
        "uf": "RN",
        "latitude": -6.475645,
        "longitude": -38.305701,
        "empresa": "CLARO",
        "pf-ou-pj": "Pessoa Jurídica",
        "tecnologia": "VSAT",
        "tipo-de-Produto": "LINHA_DEDICADA",
        "meio-de-acesso": "Satélite"
    },
    {
        "cidade": "Parazinho",
        "uf": "RN",
        "latitude": -5.222758,
        "longitude": -35.839787,
        "empresa": "CLARO",
        "pf-ou-pj": "Pessoa Jurídica",
        "tecnologia": "ADSL1",
        "tipo-de-Produto": "LINHA_DEDICADA",
        "meio-de-acesso": "Cabo Metálico"
    },
    {
        "cidade": "Parazinho",
        "uf": "RN",
        "latitude": -5.222758,
        "longitude": -35.839787,
        "empresa": "CLARO",
        "pf-ou-pj": "Pessoa Jurídica",
        "tecnologia": "VSAT",
        "tipo-de-Produto": "LINHA_DEDICADA",
        "meio-de-acesso": "Satélite"
    },
    {
        "cidade": "Paraú",
        "uf": "RN",
        "latitude": null,
        "longitude": null,
        "empresa": "CLARO",
        "pf-ou-pj": "Pessoa Jurídica",
        "tecnologia": "ADSL1",
        "tipo-de-Produto": "LINHA_DEDICADA",
        "meio-de-acesso": "Cabo Metálico"
    },
    {
        "cidade": "Paraú",
        "uf": "RN",
        "latitude": null,
        "longitude": null,
        "empresa": "CLARO",
        "pf-ou-pj": "Pessoa Jurídica",
        "tecnologia": "VSAT",
        "tipo-de-Produto": "LINHA_DEDICADA",
        "meio-de-acesso": "Satélite"
    },
    {
        "cidade": "Parelhas",
        "uf": "RN",
        "latitude": -6.684908,
        "longitude": -36.656626,
        "empresa": "CLARO",
        "pf-ou-pj": "Pessoa Jurídica",
        "tecnologia": "ADSL1",
        "tipo-de-Produto": "LINHA_DEDICADA",
        "meio-de-acesso": "Cabo Metálico"
    },
    {
        "cidade": "Parelhas",
        "uf": "RN",
        "latitude": -6.684908,
        "longitude": -36.656626,
        "empresa": "CLARO",
        "pf-ou-pj": "Pessoa Jurídica",
        "tecnologia": "VSAT",
        "tipo-de-Produto": "INTERNET",
        "meio-de-acesso": "Satélite"
    },
    {
        "cidade": "Parelhas",
        "uf": "RN",
        "latitude": -6.684908,
        "longitude": -36.656626,
        "empresa": "CLARO",
        "pf-ou-pj": "Pessoa Jurídica",
        "tecnologia": "VSAT",
        "tipo-de-Produto": "LINHA_DEDICADA",
        "meio-de-acesso": "Satélite"
    },
    {
        "cidade": "Parnamirim",
        "uf": "RN",
        "latitude": -5.911156,
        "longitude": -35.271,
        "empresa": "CLARO",
        "pf-ou-pj": "Pessoa Jurídica",
        "tecnologia": "ADSL1",
        "tipo-de-Produto": "INTERNET",
        "meio-de-acesso": "Cabo Metálico"
    },
    {
        "cidade": "Parnamirim",
        "uf": "RN",
        "latitude": -5.911156,
        "longitude": -35.271,
        "empresa": "CLARO",
        "pf-ou-pj": "Pessoa Jurídica",
        "tecnologia": "ADSL1",
        "tipo-de-Produto": "LINHA_DEDICADA",
        "meio-de-acesso": "Cabo Metálico"
    },
    {
        "cidade": "Parnamirim",
        "uf": "RN",
        "latitude": -5.911156,
        "longitude": -35.271,
        "empresa": "CLARO",
        "pf-ou-pj": "Pessoa Jurídica",
        "tecnologia": "FTTH",
        "tipo-de-Produto": "INTERNET",
        "meio-de-acesso": "Fibra"
    },
    {
        "cidade": "Parnamirim",
        "uf": "RN",
        "latitude": -5.911156,
        "longitude": -35.271,
        "empresa": "CLARO",
        "pf-ou-pj": "Pessoa Jurídica",
        "tecnologia": "FTTH",
        "tipo-de-Produto": "LINHA_DEDICADA",
        "meio-de-acesso": "Fibra"
    },
    {
        "cidade": "Parnamirim",
        "uf": "RN",
        "latitude": -5.911156,
        "longitude": -35.271,
        "empresa": "CLARO",
        "pf-ou-pj": "Pessoa Jurídica",
        "tecnologia": "FWA",
        "tipo-de-Produto": "LINHA_DEDICADA",
        "meio-de-acesso": "Rádio"
    },
    {
        "cidade": "Parnamirim",
        "uf": "RN",
        "latitude": -5.911156,
        "longitude": -35.271,
        "empresa": "CLARO",
        "pf-ou-pj": "Pessoa Jurídica",
        "tecnologia": "HFC",
        "tipo-de-Produto": "INTERNET",
        "meio-de-acesso": "Cabo Coaxial"
    },
    {
        "cidade": "Parnamirim",
        "uf": "RN",
        "latitude": -5.911156,
        "longitude": -35.271,
        "empresa": "CLARO",
        "pf-ou-pj": "Pessoa Jurídica",
        "tecnologia": "HFC",
        "tipo-de-Produto": "LINHA_DEDICADA",
        "meio-de-acesso": "Cabo Coaxial"
    },
    {
        "cidade": "Parnamirim",
        "uf": "RN",
        "latitude": -5.911156,
        "longitude": -35.271,
        "empresa": "CLARO",
        "pf-ou-pj": "Pessoa Jurídica",
        "tecnologia": "VSAT",
        "tipo-de-Produto": "INTERNET",
        "meio-de-acesso": "Satélite"
    },
    {
        "cidade": "Parnamirim",
        "uf": "RN",
        "latitude": -5.911156,
        "longitude": -35.271,
        "empresa": "CLARO",
        "pf-ou-pj": "Pessoa Jurídica",
        "tecnologia": "VSAT",
        "tipo-de-Produto": "LINHA_DEDICADA",
        "meio-de-acesso": "Satélite"
    },
    {
        "cidade": "Passa e Fica",
        "uf": "RN",
        "latitude": -6.430183,
        "longitude": -35.644179,
        "empresa": "CLARO",
        "pf-ou-pj": "Pessoa Jurídica",
        "tecnologia": "ADSL1",
        "tipo-de-Produto": "LINHA_DEDICADA",
        "meio-de-acesso": "Cabo Metálico"
    },
    {
        "cidade": "Passa e Fica",
        "uf": "RN",
        "latitude": -6.430183,
        "longitude": -35.644179,
        "empresa": "CLARO",
        "pf-ou-pj": "Pessoa Jurídica",
        "tecnologia": "VSAT",
        "tipo-de-Produto": "LINHA_DEDICADA",
        "meio-de-acesso": "Satélite"
    },
    {
        "cidade": "Passagem",
        "uf": "RN",
        "latitude": -6.272684,
        "longitude": -35.370037,
        "empresa": "CLARO",
        "pf-ou-pj": "Pessoa Jurídica",
        "tecnologia": "ADSL1",
        "tipo-de-Produto": "LINHA_DEDICADA",
        "meio-de-acesso": "Cabo Metálico"
    },
    {
        "cidade": "Passagem",
        "uf": "RN",
        "latitude": -6.272684,
        "longitude": -35.370037,
        "empresa": "CLARO",
        "pf-ou-pj": "Pessoa Jurídica",
        "tecnologia": "VSAT",
        "tipo-de-Produto": "LINHA_DEDICADA",
        "meio-de-acesso": "Satélite"
    },
    {
        "cidade": "Patu",
        "uf": "RN",
        "latitude": -6.106559,
        "longitude": -37.635638,
        "empresa": "CLARO",
        "pf-ou-pj": "Pessoa Jurídica",
        "tecnologia": "ADSL1",
        "tipo-de-Produto": "LINHA_DEDICADA",
        "meio-de-acesso": "Cabo Metálico"
    },
    {
        "cidade": "Patu",
        "uf": "RN",
        "latitude": -6.106559,
        "longitude": -37.635638,
        "empresa": "CLARO",
        "pf-ou-pj": "Pessoa Jurídica",
        "tecnologia": "VSAT",
        "tipo-de-Produto": "INTERNET",
        "meio-de-acesso": "Satélite"
    },
    {
        "cidade": "Patu",
        "uf": "RN",
        "latitude": -6.106559,
        "longitude": -37.635638,
        "empresa": "CLARO",
        "pf-ou-pj": "Pessoa Jurídica",
        "tecnologia": "VSAT",
        "tipo-de-Produto": "LINHA_DEDICADA",
        "meio-de-acesso": "Satélite"
    },
    {
        "cidade": "Pau dos Ferros",
        "uf": "RN",
        "latitude": -6.104976,
        "longitude": -38.207714,
        "empresa": "CLARO",
        "pf-ou-pj": "Pessoa Jurídica",
        "tecnologia": "ADSL1",
        "tipo-de-Produto": "LINHA_DEDICADA",
        "meio-de-acesso": "Cabo Metálico"
    },
    {
        "cidade": "Pau dos Ferros",
        "uf": "RN",
        "latitude": -6.104976,
        "longitude": -38.207714,
        "empresa": "CLARO",
        "pf-ou-pj": "Pessoa Jurídica",
        "tecnologia": "FTTH",
        "tipo-de-Produto": "INTERNET",
        "meio-de-acesso": "Fibra"
    },
    {
        "cidade": "Pau dos Ferros",
        "uf": "RN",
        "latitude": -6.104976,
        "longitude": -38.207714,
        "empresa": "CLARO",
        "pf-ou-pj": "Pessoa Jurídica",
        "tecnologia": "FTTH",
        "tipo-de-Produto": "LINHA_DEDICADA",
        "meio-de-acesso": "Fibra"
    },
    {
        "cidade": "Pau dos Ferros",
        "uf": "RN",
        "latitude": -6.104976,
        "longitude": -38.207714,
        "empresa": "CLARO",
        "pf-ou-pj": "Pessoa Jurídica",
        "tecnologia": "VSAT",
        "tipo-de-Produto": "INTERNET",
        "meio-de-acesso": "Satélite"
    },
    {
        "cidade": "Pau dos Ferros",
        "uf": "RN",
        "latitude": -6.104976,
        "longitude": -38.207714,
        "empresa": "CLARO",
        "pf-ou-pj": "Pessoa Jurídica",
        "tecnologia": "VSAT",
        "tipo-de-Produto": "LINHA_DEDICADA",
        "meio-de-acesso": "Satélite"
    },
    {
        "cidade": "Pedra Grande",
        "uf": "RN",
        "latitude": -5.149882,
        "longitude": -35.876018,
        "empresa": "CLARO",
        "pf-ou-pj": "Pessoa Jurídica",
        "tecnologia": "ADSL1",
        "tipo-de-Produto": "LINHA_DEDICADA",
        "meio-de-acesso": "Cabo Metálico"
    },
    {
        "cidade": "Pedra Grande",
        "uf": "RN",
        "latitude": -5.149882,
        "longitude": -35.876018,
        "empresa": "CLARO",
        "pf-ou-pj": "Pessoa Jurídica",
        "tecnologia": "VSAT",
        "tipo-de-Produto": "LINHA_DEDICADA",
        "meio-de-acesso": "Satélite"
    },
    {
        "cidade": "Pedra Preta",
        "uf": "RN",
        "latitude": -5.573524,
        "longitude": -36.108367,
        "empresa": "CLARO",
        "pf-ou-pj": "Pessoa Jurídica",
        "tecnologia": "VSAT",
        "tipo-de-Produto": "LINHA_DEDICADA",
        "meio-de-acesso": "Satélite"
    },
    {
        "cidade": "Pedro Avelino",
        "uf": "RN",
        "latitude": -5.516099,
        "longitude": -36.386653,
        "empresa": "CLARO",
        "pf-ou-pj": "Pessoa Jurídica",
        "tecnologia": "ADSL1",
        "tipo-de-Produto": "LINHA_DEDICADA",
        "meio-de-acesso": "Cabo Metálico"
    },
    {
        "cidade": "Pedro Avelino",
        "uf": "RN",
        "latitude": -5.516099,
        "longitude": -36.386653,
        "empresa": "CLARO",
        "pf-ou-pj": "Pessoa Jurídica",
        "tecnologia": "VSAT",
        "tipo-de-Produto": "INTERNET",
        "meio-de-acesso": "Satélite"
    },
    {
        "cidade": "Pedro Avelino",
        "uf": "RN",
        "latitude": -5.516099,
        "longitude": -36.386653,
        "empresa": "CLARO",
        "pf-ou-pj": "Pessoa Jurídica",
        "tecnologia": "VSAT",
        "tipo-de-Produto": "LINHA_DEDICADA",
        "meio-de-acesso": "Satélite"
    },
    {
        "cidade": "Pedro Velho",
        "uf": "RN",
        "latitude": -6.4356,
        "longitude": -35.219539,
        "empresa": "CLARO",
        "pf-ou-pj": "Pessoa Jurídica",
        "tecnologia": "ADSL1",
        "tipo-de-Produto": "LINHA_DEDICADA",
        "meio-de-acesso": "Cabo Metálico"
    },
    {
        "cidade": "Pedro Velho",
        "uf": "RN",
        "latitude": -6.4356,
        "longitude": -35.219539,
        "empresa": "CLARO",
        "pf-ou-pj": "Pessoa Jurídica",
        "tecnologia": "VSAT",
        "tipo-de-Produto": "INTERNET",
        "meio-de-acesso": "Satélite"
    },
    {
        "cidade": "Pedro Velho",
        "uf": "RN",
        "latitude": -6.4356,
        "longitude": -35.219539,
        "empresa": "CLARO",
        "pf-ou-pj": "Pessoa Jurídica",
        "tecnologia": "VSAT",
        "tipo-de-Produto": "LINHA_DEDICADA",
        "meio-de-acesso": "Satélite"
    },
    {
        "cidade": "Pendências",
        "uf": "RN",
        "latitude": -5.2564,
        "longitude": -36.70955,
        "empresa": "CLARO",
        "pf-ou-pj": "Pessoa Jurídica",
        "tecnologia": "ADSL1",
        "tipo-de-Produto": "LINHA_DEDICADA",
        "meio-de-acesso": "Cabo Metálico"
    },
    {
        "cidade": "Pendências",
        "uf": "RN",
        "latitude": -5.2564,
        "longitude": -36.70955,
        "empresa": "CLARO",
        "pf-ou-pj": "Pessoa Jurídica",
        "tecnologia": "VSAT",
        "tipo-de-Produto": "INTERNET",
        "meio-de-acesso": "Satélite"
    },
    {
        "cidade": "Pendências",
        "uf": "RN",
        "latitude": -5.2564,
        "longitude": -36.70955,
        "empresa": "CLARO",
        "pf-ou-pj": "Pessoa Jurídica",
        "tecnologia": "VSAT",
        "tipo-de-Produto": "LINHA_DEDICADA",
        "meio-de-acesso": "Satélite"
    },
    {
        "cidade": "Pilões",
        "uf": "RN",
        "latitude": -6.263635,
        "longitude": -38.04605,
        "empresa": "CLARO",
        "pf-ou-pj": "Pessoa Jurídica",
        "tecnologia": "ADSL1",
        "tipo-de-Produto": "LINHA_DEDICADA",
        "meio-de-acesso": "Cabo Metálico"
    },
    {
        "cidade": "Pilões",
        "uf": "RN",
        "latitude": -6.263635,
        "longitude": -38.04605,
        "empresa": "CLARO",
        "pf-ou-pj": "Pessoa Jurídica",
        "tecnologia": "VSAT",
        "tipo-de-Produto": "LINHA_DEDICADA",
        "meio-de-acesso": "Satélite"
    },
    {
        "cidade": "Portalegre",
        "uf": "RN",
        "latitude": -6.02064,
        "longitude": -37.986524,
        "empresa": "CLARO",
        "pf-ou-pj": "Pessoa Jurídica",
        "tecnologia": "ADSL1",
        "tipo-de-Produto": "LINHA_DEDICADA",
        "meio-de-acesso": "Cabo Metálico"
    },
    {
        "cidade": "Portalegre",
        "uf": "RN",
        "latitude": -6.02064,
        "longitude": -37.986524,
        "empresa": "CLARO",
        "pf-ou-pj": "Pessoa Jurídica",
        "tecnologia": "VSAT",
        "tipo-de-Produto": "INTERNET",
        "meio-de-acesso": "Satélite"
    },
    {
        "cidade": "Portalegre",
        "uf": "RN",
        "latitude": -6.02064,
        "longitude": -37.986524,
        "empresa": "CLARO",
        "pf-ou-pj": "Pessoa Jurídica",
        "tecnologia": "VSAT",
        "tipo-de-Produto": "LINHA_DEDICADA",
        "meio-de-acesso": "Satélite"
    },
    {
        "cidade": "Porto do Mangue",
        "uf": "RN",
        "latitude": -5.054413,
        "longitude": -36.78871,
        "empresa": "CLARO",
        "pf-ou-pj": "Pessoa Jurídica",
        "tecnologia": "ADSL1",
        "tipo-de-Produto": "LINHA_DEDICADA",
        "meio-de-acesso": "Cabo Metálico"
    },
    {
        "cidade": "Porto do Mangue",
        "uf": "RN",
        "latitude": -5.054413,
        "longitude": -36.78871,
        "empresa": "CLARO",
        "pf-ou-pj": "Pessoa Jurídica",
        "tecnologia": "VSAT",
        "tipo-de-Produto": "LINHA_DEDICADA",
        "meio-de-acesso": "Satélite"
    },
    {
        "cidade": "Poço Branco",
        "uf": "RN",
        "latitude": -5.622326,
        "longitude": -35.663535,
        "empresa": "CLARO",
        "pf-ou-pj": "Pessoa Jurídica",
        "tecnologia": "ADSL1",
        "tipo-de-Produto": "LINHA_DEDICADA",
        "meio-de-acesso": "Cabo Metálico"
    },
    {
        "cidade": "Poço Branco",
        "uf": "RN",
        "latitude": -5.622326,
        "longitude": -35.663535,
        "empresa": "CLARO",
        "pf-ou-pj": "Pessoa Jurídica",
        "tecnologia": "VSAT",
        "tipo-de-Produto": "INTERNET",
        "meio-de-acesso": "Satélite"
    },
    {
        "cidade": "Poço Branco",
        "uf": "RN",
        "latitude": -5.622326,
        "longitude": -35.663535,
        "empresa": "CLARO",
        "pf-ou-pj": "Pessoa Jurídica",
        "tecnologia": "VSAT",
        "tipo-de-Produto": "LINHA_DEDICADA",
        "meio-de-acesso": "Satélite"
    },
    {
        "cidade": "Pureza",
        "uf": "RN",
        "latitude": -5.463933,
        "longitude": -35.555374,
        "empresa": "CLARO",
        "pf-ou-pj": "Pessoa Jurídica",
        "tecnologia": "ADSL1",
        "tipo-de-Produto": "LINHA_DEDICADA",
        "meio-de-acesso": "Cabo Metálico"
    },
    {
        "cidade": "Pureza",
        "uf": "RN",
        "latitude": -5.463933,
        "longitude": -35.555374,
        "empresa": "CLARO",
        "pf-ou-pj": "Pessoa Jurídica",
        "tecnologia": "VSAT",
        "tipo-de-Produto": "LINHA_DEDICADA",
        "meio-de-acesso": "Satélite"
    },
    {
        "cidade": "Rafael Fernandes",
        "uf": "RN",
        "latitude": -6.189871,
        "longitude": -38.221116,
        "empresa": "CLARO",
        "pf-ou-pj": "Pessoa Jurídica",
        "tecnologia": "ADSL1",
        "tipo-de-Produto": "LINHA_DEDICADA",
        "meio-de-acesso": "Cabo Metálico"
    },
    {
        "cidade": "Rafael Fernandes",
        "uf": "RN",
        "latitude": -6.189871,
        "longitude": -38.221116,
        "empresa": "CLARO",
        "pf-ou-pj": "Pessoa Jurídica",
        "tecnologia": "VSAT",
        "tipo-de-Produto": "LINHA_DEDICADA",
        "meio-de-acesso": "Satélite"
    },
    {
        "cidade": "Riacho da Cruz",
        "uf": "RN",
        "latitude": -5.926543,
        "longitude": -37.949047,
        "empresa": "CLARO",
        "pf-ou-pj": "Pessoa Jurídica",
        "tecnologia": "ADSL1",
        "tipo-de-Produto": "LINHA_DEDICADA",
        "meio-de-acesso": "Cabo Metálico"
    },
    {
        "cidade": "Riacho da Cruz",
        "uf": "RN",
        "latitude": -5.926543,
        "longitude": -37.949047,
        "empresa": "CLARO",
        "pf-ou-pj": "Pessoa Jurídica",
        "tecnologia": "VSAT",
        "tipo-de-Produto": "LINHA_DEDICADA",
        "meio-de-acesso": "Satélite"
    },
    {
        "cidade": "Riacho de Santana",
        "uf": "RN",
        "latitude": -6.251392,
        "longitude": -38.311576,
        "empresa": "CLARO",
        "pf-ou-pj": "Pessoa Jurídica",
        "tecnologia": "VSAT",
        "tipo-de-Produto": "LINHA_DEDICADA",
        "meio-de-acesso": "Satélite"
    },
    {
        "cidade": "Riachuelo",
        "uf": "RN",
        "latitude": -5.821555,
        "longitude": -35.821515,
        "empresa": "CLARO",
        "pf-ou-pj": "Pessoa Jurídica",
        "tecnologia": "ADSL1",
        "tipo-de-Produto": "LINHA_DEDICADA",
        "meio-de-acesso": "Cabo Metálico"
    },
    {
        "cidade": "Riachuelo",
        "uf": "RN",
        "latitude": -5.821555,
        "longitude": -35.821515,
        "empresa": "CLARO",
        "pf-ou-pj": "Pessoa Jurídica",
        "tecnologia": "VSAT",
        "tipo-de-Produto": "LINHA_DEDICADA",
        "meio-de-acesso": "Satélite"
    },
    {
        "cidade": "Rio do Fogo",
        "uf": "RN",
        "latitude": -5.276498,
        "longitude": -35.379437,
        "empresa": "CLARO",
        "pf-ou-pj": "Pessoa Jurídica",
        "tecnologia": "ADSL1",
        "tipo-de-Produto": "LINHA_DEDICADA",
        "meio-de-acesso": "Cabo Metálico"
    },
    {
        "cidade": "Rio do Fogo",
        "uf": "RN",
        "latitude": -5.276498,
        "longitude": -35.379437,
        "empresa": "CLARO",
        "pf-ou-pj": "Pessoa Jurídica",
        "tecnologia": "VSAT",
        "tipo-de-Produto": "INTERNET",
        "meio-de-acesso": "Satélite"
    },
    {
        "cidade": "Rio do Fogo",
        "uf": "RN",
        "latitude": -5.276498,
        "longitude": -35.379437,
        "empresa": "CLARO",
        "pf-ou-pj": "Pessoa Jurídica",
        "tecnologia": "VSAT",
        "tipo-de-Produto": "LINHA_DEDICADA",
        "meio-de-acesso": "Satélite"
    },
    {
        "cidade": "Rodolfo Fernandes",
        "uf": "RN",
        "latitude": -5.783929,
        "longitude": -38.057886,
        "empresa": "CLARO",
        "pf-ou-pj": "Pessoa Jurídica",
        "tecnologia": "ADSL1",
        "tipo-de-Produto": "LINHA_DEDICADA",
        "meio-de-acesso": "Cabo Metálico"
    },
    {
        "cidade": "Rodolfo Fernandes",
        "uf": "RN",
        "latitude": -5.783929,
        "longitude": -38.057886,
        "empresa": "CLARO",
        "pf-ou-pj": "Pessoa Jurídica",
        "tecnologia": "VSAT",
        "tipo-de-Produto": "LINHA_DEDICADA",
        "meio-de-acesso": "Satélite"
    },
    {
        "cidade": "Ruy Barbosa",
        "uf": "RN",
        "latitude": -5.887454,
        "longitude": -35.933039,
        "empresa": "CLARO",
        "pf-ou-pj": "Pessoa Jurídica",
        "tecnologia": "ADSL1",
        "tipo-de-Produto": "LINHA_DEDICADA",
        "meio-de-acesso": "Cabo Metálico"
    },
    {
        "cidade": "Ruy Barbosa",
        "uf": "RN",
        "latitude": -5.887454,
        "longitude": -35.933039,
        "empresa": "CLARO",
        "pf-ou-pj": "Pessoa Jurídica",
        "tecnologia": "VSAT",
        "tipo-de-Produto": "LINHA_DEDICADA",
        "meio-de-acesso": "Satélite"
    },
    {
        "cidade": "Santa Cruz",
        "uf": "RN",
        "latitude": -6.224752,
        "longitude": -36.019297,
        "empresa": "CLARO",
        "pf-ou-pj": "Pessoa Jurídica",
        "tecnologia": "FTTH",
        "tipo-de-Produto": "INTERNET",
        "meio-de-acesso": "Fibra"
    },
    {
        "cidade": "Santa Cruz",
        "uf": "RN",
        "latitude": -6.224752,
        "longitude": -36.019297,
        "empresa": "CLARO",
        "pf-ou-pj": "Pessoa Jurídica",
        "tecnologia": "FWA",
        "tipo-de-Produto": "LINHA_DEDICADA",
        "meio-de-acesso": "Rádio"
    },
    {
        "cidade": "Santa Cruz",
        "uf": "RN",
        "latitude": -6.224752,
        "longitude": -36.019297,
        "empresa": "CLARO",
        "pf-ou-pj": "Pessoa Jurídica",
        "tecnologia": "VSAT",
        "tipo-de-Produto": "INTERNET",
        "meio-de-acesso": "Satélite"
    },
    {
        "cidade": "Santa Cruz",
        "uf": "RN",
        "latitude": -6.224752,
        "longitude": -36.019297,
        "empresa": "CLARO",
        "pf-ou-pj": "Pessoa Jurídica",
        "tecnologia": "VSAT",
        "tipo-de-Produto": "LINHA_DEDICADA",
        "meio-de-acesso": "Satélite"
    },
    {
        "cidade": "Santa Maria",
        "uf": "RN",
        "latitude": -5.838022,
        "longitude": -35.691409,
        "empresa": "CLARO",
        "pf-ou-pj": "Pessoa Jurídica",
        "tecnologia": "ADSL1",
        "tipo-de-Produto": "LINHA_DEDICADA",
        "meio-de-acesso": "Cabo Metálico"
    },
    {
        "cidade": "Santa Maria",
        "uf": "RN",
        "latitude": -5.838022,
        "longitude": -35.691409,
        "empresa": "CLARO",
        "pf-ou-pj": "Pessoa Jurídica",
        "tecnologia": "VSAT",
        "tipo-de-Produto": "LINHA_DEDICADA",
        "meio-de-acesso": "Satélite"
    },
    {
        "cidade": "Santana do Matos",
        "uf": "RN",
        "latitude": -5.946055,
        "longitude": -36.657763,
        "empresa": "CLARO",
        "pf-ou-pj": "Pessoa Jurídica",
        "tecnologia": "ADSL1",
        "tipo-de-Produto": "LINHA_DEDICADA",
        "meio-de-acesso": "Cabo Metálico"
    },
    {
        "cidade": "Santana do Matos",
        "uf": "RN",
        "latitude": -5.946055,
        "longitude": -36.657763,
        "empresa": "CLARO",
        "pf-ou-pj": "Pessoa Jurídica",
        "tecnologia": "VSAT",
        "tipo-de-Produto": "INTERNET",
        "meio-de-acesso": "Satélite"
    },
    {
        "cidade": "Santana do Matos",
        "uf": "RN",
        "latitude": -5.946055,
        "longitude": -36.657763,
        "empresa": "CLARO",
        "pf-ou-pj": "Pessoa Jurídica",
        "tecnologia": "VSAT",
        "tipo-de-Produto": "LINHA_DEDICADA",
        "meio-de-acesso": "Satélite"
    },
    {
        "cidade": "Santana do Seridó",
        "uf": "RN",
        "latitude": -6.76643,
        "longitude": -36.731201,
        "empresa": "CLARO",
        "pf-ou-pj": "Pessoa Jurídica",
        "tecnologia": "ADSL1",
        "tipo-de-Produto": "LINHA_DEDICADA",
        "meio-de-acesso": "Cabo Metálico"
    },
    {
        "cidade": "Santana do Seridó",
        "uf": "RN",
        "latitude": -6.76643,
        "longitude": -36.731201,
        "empresa": "CLARO",
        "pf-ou-pj": "Pessoa Jurídica",
        "tecnologia": "VSAT",
        "tipo-de-Produto": "LINHA_DEDICADA",
        "meio-de-acesso": "Satélite"
    },
    {
        "cidade": "Santo Antônio",
        "uf": "RN",
        "latitude": -6.311951,
        "longitude": -35.473868,
        "empresa": "CLARO",
        "pf-ou-pj": "Pessoa Jurídica",
        "tecnologia": "ADSL1",
        "tipo-de-Produto": "LINHA_DEDICADA",
        "meio-de-acesso": "Cabo Metálico"
    },
    {
        "cidade": "Santo Antônio",
        "uf": "RN",
        "latitude": -6.311951,
        "longitude": -35.473868,
        "empresa": "CLARO",
        "pf-ou-pj": "Pessoa Jurídica",
        "tecnologia": "FTTH",
        "tipo-de-Produto": "INTERNET",
        "meio-de-acesso": "Fibra"
    },
    {
        "cidade": "Santo Antônio",
        "uf": "RN",
        "latitude": -6.311951,
        "longitude": -35.473868,
        "empresa": "CLARO",
        "pf-ou-pj": "Pessoa Jurídica",
        "tecnologia": "VSAT",
        "tipo-de-Produto": "LINHA_DEDICADA",
        "meio-de-acesso": "Satélite"
    },
    {
        "cidade": "Senador Elói de Souza",
        "uf": "RN",
        "latitude": -6.033343,
        "longitude": -35.697813,
        "empresa": "CLARO",
        "pf-ou-pj": "Pessoa Jurídica",
        "tecnologia": "ADSL1",
        "tipo-de-Produto": "LINHA_DEDICADA",
        "meio-de-acesso": "Cabo Metálico"
    },
    {
        "cidade": "Senador Elói de Souza",
        "uf": "RN",
        "latitude": -6.033343,
        "longitude": -35.697813,
        "empresa": "CLARO",
        "pf-ou-pj": "Pessoa Jurídica",
        "tecnologia": "VSAT",
        "tipo-de-Produto": "INTERNET",
        "meio-de-acesso": "Satélite"
    },
    {
        "cidade": "Senador Elói de Souza",
        "uf": "RN",
        "latitude": -6.033343,
        "longitude": -35.697813,
        "empresa": "CLARO",
        "pf-ou-pj": "Pessoa Jurídica",
        "tecnologia": "VSAT",
        "tipo-de-Produto": "LINHA_DEDICADA",
        "meio-de-acesso": "Satélite"
    },
    {
        "cidade": "Senador Georgino Avelino",
        "uf": "RN",
        "latitude": -6.157598,
        "longitude": -35.129912,
        "empresa": "CLARO",
        "pf-ou-pj": "Pessoa Jurídica",
        "tecnologia": "VSAT",
        "tipo-de-Produto": "LINHA_DEDICADA",
        "meio-de-acesso": "Satélite"
    },
    {
        "cidade": "Serra Caiada",
        "uf": "RN",
        "latitude": -6.105987,
        "longitude": -35.716327,
        "empresa": "CLARO",
        "pf-ou-pj": "Pessoa Jurídica",
        "tecnologia": "ADSL1",
        "tipo-de-Produto": "LINHA_DEDICADA",
        "meio-de-acesso": "Cabo Metálico"
    },
    {
        "cidade": "Serra Caiada",
        "uf": "RN",
        "latitude": -6.105987,
        "longitude": -35.716327,
        "empresa": "CLARO",
        "pf-ou-pj": "Pessoa Jurídica",
        "tecnologia": "VSAT",
        "tipo-de-Produto": "LINHA_DEDICADA",
        "meio-de-acesso": "Satélite"
    },
    {
        "cidade": "Serra Negra do Norte",
        "uf": "RN",
        "latitude": -6.660306,
        "longitude": -37.399601,
        "empresa": "CLARO",
        "pf-ou-pj": "Pessoa Jurídica",
        "tecnologia": "ADSL1",
        "tipo-de-Produto": "LINHA_DEDICADA",
        "meio-de-acesso": "Cabo Metálico"
    },
    {
        "cidade": "Serra Negra do Norte",
        "uf": "RN",
        "latitude": -6.660306,
        "longitude": -37.399601,
        "empresa": "CLARO",
        "pf-ou-pj": "Pessoa Jurídica",
        "tecnologia": "VSAT",
        "tipo-de-Produto": "INTERNET",
        "meio-de-acesso": "Satélite"
    },