[
    {
        "cidade": "Amapá",
        "uf": "AP",
        "latitude": 2.052669,
        "longitude": -50.795653,
        "empresa": "CLARO",
        "pf-ou-pj": "Pessoa Jurídica",
        "tecnologia": "ADSL1",
        "tipo-de-Produto": "LINHA_DEDICADA",
        "meio-de-acesso": "Cabo Metálico"
    },
    {
        "cidade": "Amapá",
        "uf": "AP",
        "latitude": 2.052669,
        "longitude": -50.795653,
        "empresa": "CLARO",
        "pf-ou-pj": "Pessoa Jurídica",
        "tecnologia": "FTTH",
        "tipo-de-Produto": "LINHA_DEDICADA",
        "meio-de-acesso": "Fibra"
    },
    {
        "cidade": "Amapá",
        "uf": "AP",
        "latitude": 2.052669,
        "longitude": -50.795653,
        "empresa": "CLARO",
        "pf-ou-pj": "Pessoa Jurídica",
        "tecnologia": "VSAT",
        "tipo-de-Produto": "LINHA_DEDICADA",
        "meio-de-acesso": "Satélite"
    },
    {
        "cidade": "Calçoene",
        "uf": "AP",
        "latitude": 2.504747,
        "longitude": -50.951233,
        "empresa": "CLARO",
        "pf-ou-pj": "Pessoa Jurídica",
        "tecnologia": "ADSL1",
        "tipo-de-Produto": "LINHA_DEDICADA",
        "meio-de-acesso": "Cabo Metálico"
    },
    {
        "cidade": "Calçoene",
        "uf": "AP",
        "latitude": 2.504747,
        "longitude": -50.951233,
        "empresa": "CLARO",
        "pf-ou-pj": "Pessoa Jurídica",
        "tecnologia": "VSAT",
        "tipo-de-Produto": "LINHA_DEDICADA",
        "meio-de-acesso": "Satélite"
    },
    {
        "cidade": "Cutias",
        "uf": "AP",
        "latitude": 0.987565,
        "longitude": -50.799169,
        "empresa": "CLARO",
        "pf-ou-pj": "Pessoa Jurídica",
        "tecnologia": "VSAT",
        "tipo-de-Produto": "LINHA_DEDICADA",
        "meio-de-acesso": "Satélite"
    },
    {
        "cidade": "Ferreira Gomes",
        "uf": "AP",
        "latitude": 0.857256,
        "longitude": -51.179523,
        "empresa": "CLARO",
        "pf-ou-pj": "Pessoa Jurídica",
        "tecnologia": "ADSL1",
        "tipo-de-Produto": "LINHA_DEDICADA",
        "meio-de-acesso": "Cabo Metálico"
    },
    {
        "cidade": "Ferreira Gomes",
        "uf": "AP",
        "latitude": 0.857256,
        "longitude": -51.179523,
        "empresa": "CLARO",
        "pf-ou-pj": "Pessoa Jurídica",
        "tecnologia": "VSAT",
        "tipo-de-Produto": "LINHA_DEDICADA",
        "meio-de-acesso": "Satélite"
    },
    {
        "cidade": "Itaubal",
        "uf": "AP",
        "latitude": 0.596137,
        "longitude": -50.670828,
        "empresa": "CLARO",
        "pf-ou-pj": "Pessoa Jurídica",
        "tecnologia": "ADSL1",
        "tipo-de-Produto": "LINHA_DEDICADA",
        "meio-de-acesso": "Cabo Metálico"
    },
    {
        "cidade": "Itaubal",
        "uf": "AP",
        "latitude": 0.596137,
        "longitude": -50.670828,
        "empresa": "CLARO",
        "pf-ou-pj": "Pessoa Jurídica",
        "tecnologia": "VSAT",
        "tipo-de-Produto": "LINHA_DEDICADA",
        "meio-de-acesso": "Satélite"
    },
    {
        "cidade": "Laranjal do Jari",
        "uf": "AP",
        "latitude": -0.804911,
        "longitude": -52.452962,
        "empresa": "CLARO",
        "pf-ou-pj": "Pessoa Jurídica",
        "tecnologia": "FTTH",
        "tipo-de-Produto": "LINHA_DEDICADA",
        "meio-de-acesso": "Fibra"
    },
    {
        "cidade": "Laranjal do Jari",
        "uf": "AP",
        "latitude": -0.804911,
        "longitude": -52.452962,
        "empresa": "CLARO",
        "pf-ou-pj": "Pessoa Jurídica",
        "tecnologia": "VSAT",
        "tipo-de-Produto": "INTERNET",
        "meio-de-acesso": "Satélite"
    },
    {
        "cidade": "Laranjal do Jari",
        "uf": "AP",
        "latitude": -0.804911,
        "longitude": -52.452962,
        "empresa": "CLARO",
        "pf-ou-pj": "Pessoa Jurídica",
        "tecnologia": "VSAT",
        "tipo-de-Produto": "LINHA_DEDICADA",
        "meio-de-acesso": "Satélite"
    },
    {
        "cidade": "Macapá",
        "uf": "AP",
        "latitude": 0.034934,
        "longitude": -51.069395,
        "empresa": "CLARO",
        "pf-ou-pj": "Pessoa Jurídica",
        "tecnologia": "ADSL1",
        "tipo-de-Produto": "INTERNET",
        "meio-de-acesso": "Cabo Metálico"
    },
    {
        "cidade": "Macapá",
        "uf": "AP",
        "latitude": 0.034934,
        "longitude": -51.069395,
        "empresa": "CLARO",
        "pf-ou-pj": "Pessoa Jurídica",
        "tecnologia": "ADSL1",
        "tipo-de-Produto": "LINHA_DEDICADA",
        "meio-de-acesso": "Cabo Metálico"
    },
    {
        "cidade": "Macapá",
        "uf": "AP",
        "latitude": 0.034934,
        "longitude": -51.069395,
        "empresa": "CLARO",
        "pf-ou-pj": "Pessoa Jurídica",
        "tecnologia": "ADSL1",
        "tipo-de-Produto": "OUTROS",
        "meio-de-acesso": "Cabo Metálico"
    },
    {
        "cidade": "Macapá",
        "uf": "AP",
        "latitude": 0.034934,
        "longitude": -51.069395,
        "empresa": "CLARO",
        "pf-ou-pj": "Pessoa Jurídica",
        "tecnologia": "FTTH",
        "tipo-de-Produto": "INTERNET",
        "meio-de-acesso": "Fibra"
    },
    {
        "cidade": "Macapá",
        "uf": "AP",
        "latitude": 0.034934,
        "longitude": -51.069395,
        "empresa": "CLARO",
        "pf-ou-pj": "Pessoa Jurídica",
        "tecnologia": "FTTH",
        "tipo-de-Produto": "LINHA_DEDICADA",
        "meio-de-acesso": "Fibra"
    },
    {
        "cidade": "Macapá",
        "uf": "AP",
        "latitude": 0.034934,
        "longitude": -51.069395,
        "empresa": "CLARO",
        "pf-ou-pj": "Pessoa Jurídica",
        "tecnologia": "FWA",
        "tipo-de-Produto": "LINHA_DEDICADA",
        "meio-de-acesso": "Rádio"
    },
    {
        "cidade": "Macapá",
        "uf": "AP",
        "latitude": 0.034934,
        "longitude": -51.069395,
        "empresa": "CLARO",
        "pf-ou-pj": "Pessoa Jurídica",
        "tecnologia": "HFC",
        "tipo-de-Produto": "INTERNET",
        "meio-de-acesso": "Cabo Coaxial"
    },
    {
        "cidade": "Macapá",
        "uf": "AP",
        "latitude": 0.034934,
        "longitude": -51.069395,
        "empresa": "CLARO",
        "pf-ou-pj": "Pessoa Jurídica",
        "tecnologia": "VSAT",
        "tipo-de-Produto": "INTERNET",
        "meio-de-acesso": "Satélite"
    },
    {
        "cidade": "Macapá",
        "uf": "AP",
        "latitude": 0.034934,
        "longitude": -51.069395,
        "empresa": "CLARO",
        "pf-ou-pj": "Pessoa Jurídica",
        "tecnologia": "VSAT",
        "tipo-de-Produto": "LINHA_DEDICADA",
        "meio-de-acesso": "Satélite"
    },
    {
        "cidade": "Macapá",
        "uf": "AP",
        "latitude": 0.034934,
        "longitude": -51.069395,
        "empresa": "CLARO",
        "pf-ou-pj": "Pessoa Jurídica",
        "tecnologia": "WIMAX",
        "tipo-de-Produto": "OUTROS",
        "meio-de-acesso": "Rádio"
    },
    {
        "cidade": "Mazagão",
        "uf": "AP",
        "latitude": -0.11336,
        "longitude": -51.28913,
        "empresa": "CLARO",
        "pf-ou-pj": "Pessoa Jurídica",
        "tecnologia": "ADSL1",
        "tipo-de-Produto": "LINHA_DEDICADA",
        "meio-de-acesso": "Cabo Metálico"
    },
    {
        "cidade": "Mazagão",
        "uf": "AP",
        "latitude": -0.11336,
        "longitude": -51.28913,
        "empresa": "CLARO",
        "pf-ou-pj": "Pessoa Jurídica",
        "tecnologia": "VSAT",
        "tipo-de-Produto": "LINHA_DEDICADA",
        "meio-de-acesso": "Satélite"
    },
    {
        "cidade": "Oiapoque",
        "uf": "AP",
        "latitude": 3.84074,
        "longitude": -51.833123,
        "empresa": "CLARO",
        "pf-ou-pj": "Pessoa Jurídica",
        "tecnologia": "ADSL1",
        "tipo-de-Produto": "LINHA_DEDICADA",
        "meio-de-acesso": "Cabo Metálico"
    },
    {
        "cidade": "Oiapoque",
        "uf": "AP",
        "latitude": 3.84074,
        "longitude": -51.833123,
        "empresa": "CLARO",
        "pf-ou-pj": "Pessoa Jurídica",
        "tecnologia": "VSAT",
        "tipo-de-Produto": "LINHA_DEDICADA",
        "meio-de-acesso": "Satélite"
    },
    {
        "cidade": "Pedra Branca do Amapari",
        "uf": "AP",
        "latitude": null,
        "longitude": null,
        "empresa": "CLARO",
        "pf-ou-pj": "Pessoa Jurídica",
        "tecnologia": "ADSL1",
        "tipo-de-Produto": "LINHA_DEDICADA",
        "meio-de-acesso": "Cabo Metálico"
    },
    {
        "cidade": "Pedra Branca do Amapari",
        "uf": "AP",
        "latitude": null,
        "longitude": null,
        "empresa": "CLARO",
        "pf-ou-pj": "Pessoa Jurídica",
        "tecnologia": "FWA",
        "tipo-de-Produto": "LINHA_DEDICADA",
        "meio-de-acesso": "Rádio"
    },
    {
        "cidade": "Pedra Branca do Amapari",
        "uf": "AP",
        "latitude": null,
        "longitude": null,
        "empresa": "CLARO",
        "pf-ou-pj": "Pessoa Jurídica",
        "tecnologia": "VSAT",
        "tipo-de-Produto": "LINHA_DEDICADA",
        "meio-de-acesso": "Satélite"
    },
    {
        "cidade": "Porto Grande",
        "uf": "AP",
        "latitude": 0.71243,
        "longitude": -51.415499,
        "empresa": "CLARO",
        "pf-ou-pj": "Pessoa Jurídica",
        "tecnologia": "ADSL1",
        "tipo-de-Produto": "LINHA_DEDICADA",
        "meio-de-acesso": "Cabo Metálico"
    },
    {
        "cidade": "Porto Grande",
        "uf": "AP",
        "latitude": 0.71243,
        "longitude": -51.415499,
        "empresa": "CLARO",
        "pf-ou-pj": "Pessoa Jurídica",
        "tecnologia": "FWA",
        "tipo-de-Produto": "LINHA_DEDICADA",
        "meio-de-acesso": "Rádio"
    },
    {
        "cidade": "Porto Grande",
        "uf": "AP",
        "latitude": 0.71243,
        "longitude": -51.415499,
        "empresa": "CLARO",
        "pf-ou-pj": "Pessoa Jurídica",
        "tecnologia": "VSAT",
        "tipo-de-Produto": "LINHA_DEDICADA",
        "meio-de-acesso": "Satélite"
    },
    {
        "cidade": "Pracuúba",
        "uf": "AP",
        "latitude": 1.745427,
        "longitude": -50.789248,
        "empresa": "CLARO",
        "pf-ou-pj": "Pessoa Jurídica",
        "tecnologia": "ADSL1",
        "tipo-de-Produto": "LINHA_DEDICADA",
        "meio-de-acesso": "Cabo Metálico"
    },
    {
        "cidade": "Pracuúba",
        "uf": "AP",
        "latitude": 1.745427,
        "longitude": -50.789248,
        "empresa": "CLARO",
        "pf-ou-pj": "Pessoa Jurídica",
        "tecnologia": "VSAT",
        "tipo-de-Produto": "LINHA_DEDICADA",
        "meio-de-acesso": "Satélite"
    },
    {
        "cidade": "Santana",
        "uf": "AP",
        "latitude": -0.045434,
        "longitude": -51.172924,
        "empresa": "CLARO",
        "pf-ou-pj": "Pessoa Jurídica",
        "tecnologia": "ADSL1",
        "tipo-de-Produto": "INTERNET",
        "meio-de-acesso": "Cabo Metálico"
    },
    {
        "cidade": "Santana",
        "uf": "AP",
        "latitude": -0.045434,
        "longitude": -51.172924,
        "empresa": "CLARO",
        "pf-ou-pj": "Pessoa Jurídica",
        "tecnologia": "ADSL1",
        "tipo-de-Produto": "LINHA_DEDICADA",
        "meio-de-acesso": "Cabo Metálico"
    },
    {
        "cidade": "Santana",
        "uf": "AP",
        "latitude": -0.045434,
        "longitude": -51.172924,
        "empresa": "CLARO",
        "pf-ou-pj": "Pessoa Jurídica",
        "tecnologia": "FTTH",
        "tipo-de-Produto": "INTERNET",
        "meio-de-acesso": "Fibra"
    },
    {
        "cidade": "Santana",
        "uf": "AP",
        "latitude": -0.045434,
        "longitude": -51.172924,
        "empresa": "CLARO",
        "pf-ou-pj": "Pessoa Jurídica",
        "tecnologia": "FTTH",
        "tipo-de-Produto": "LINHA_DEDICADA",
        "meio-de-acesso": "Fibra"
    },
    {
        "cidade": "Santana",
        "uf": "AP",
        "latitude": -0.045434,
        "longitude": -51.172924,
        "empresa": "CLARO",
        "pf-ou-pj": "Pessoa Jurídica",
        "tecnologia": "VSAT",
        "tipo-de-Produto": "LINHA_DEDICADA",
        "meio-de-acesso": "Satélite"
    },
    {
        "cidade": "Serra do Navio",
        "uf": "AP",
        "latitude": 0.901357,
        "longitude": -52.003636,
        "empresa": "CLARO",
        "pf-ou-pj": "Pessoa Jurídica",
        "tecnologia": "ADSL1",
        "tipo-de-Produto": "LINHA_DEDICADA",
        "meio-de-acesso": "Cabo Metálico"
    },
    {
        "cidade": "Serra do Navio",
        "uf": "AP",
        "latitude": 0.901357,
        "longitude": -52.003636,
        "empresa": "CLARO",
        "pf-ou-pj": "Pessoa Jurídica",
        "tecnologia": "VSAT",
        "tipo-de-Produto": "LINHA_DEDICADA",
        "meio-de-acesso": "Satélite"
    },
    {
        "cidade": "Tartarugalzinho",
        "uf": "AP",
        "latitude": 1.506519,
        "longitude": -50.90874,
        "empresa": "CLARO",
        "pf-ou-pj": "Pessoa Jurídica",
        "tecnologia": "ADSL1",
        "tipo-de-Produto": "LINHA_DEDICADA",
        "meio-de-acesso": "Cabo Metálico"
    },
    {
        "cidade": "Tartarugalzinho",
        "uf": "AP",
        "latitude": 1.506519,
        "longitude": -50.90874,
        "empresa": "CLARO",
        "pf-ou-pj": "Pessoa Jurídica",
        "tecnologia": "VSAT",
        "tipo-de-Produto": "LINHA_DEDICADA",
        "meio-de-acesso": "Satélite"
    },
    {
        "cidade": "Vitória do Jari",
        "uf": "AP",
        "latitude": -0.938,
        "longitude": -52.424001,
        "empresa": "CLARO",
        "pf-ou-pj": "Pessoa Jurídica",
        "tecnologia": "ADSL1",
        "tipo-de-Produto": "LINHA_DEDICADA",
        "meio-de-acesso": "Cabo Metálico"
    },
    {
        "cidade": "Vitória do Jari",
        "uf": "AP",
        "latitude": -0.938,
        "longitude": -52.424001,
        "empresa": "CLARO",
        "pf-ou-pj": "Pessoa Jurídica",
        "tecnologia": "VSAT",
        "tipo-de-Produto": "INTERNET",
        "meio-de-acesso": "Satélite"
    },
    {
        "cidade": "Vitória do Jari",
        "uf": "AP",
        "latitude": -0.938,
        "longitude": -52.424001,
        "empresa": "CLARO",
        "pf-ou-pj": "Pessoa Jurídica",
        "tecnologia": "VSAT",
        "tipo-de-Produto": "LINHA_DEDICADA",
        "meio-de-acesso": "Satélite"
    }
]