[
    {
        "cidade": "Caruaru",
        "uf": "PE",
        "latitude": -8.284547,
        "longitude": -35.969863,
        "empresa": "CLARO",
        "pf-ou-pj": "Pessoa Física",
        "tecnologia": "FTTH",
        "tipo-de-Produto": "INTERNET",
        "meio-de-acesso": "Fibra"
    },
    {
        "cidade": "Caruaru",
        "uf": "PE",
        "latitude": -8.284547,
        "longitude": -35.969863,
        "empresa": "CLARO",
        "pf-ou-pj": "Pessoa Física",
        "tecnologia": "HFC",
        "tipo-de-Produto": "INTERNET",
        "meio-de-acesso": "Cabo Coaxial"
    },
    {
        "cidade": "Jaboatão dos Guararapes",
        "uf": "PE",
        "latitude": -8.112982,
        "longitude": -35.014959,
        "empresa": "CLARO",
        "pf-ou-pj": "Pessoa Física",
        "tecnologia": "FTTH",
        "tipo-de-Produto": "INTERNET",
        "meio-de-acesso": "Fibra"
    },
    {
        "cidade": "Jaboatão dos Guararapes",
        "uf": "PE",
        "latitude": -8.112982,
        "longitude": -35.014959,
        "empresa": "CLARO",
        "pf-ou-pj": "Pessoa Física",
        "tecnologia": "HFC",
        "tipo-de-Produto": "INTERNET",
        "meio-de-acesso": "Cabo Coaxial"
    },
    {
        "cidade": "Olinda",
        "uf": "PE",
        "latitude": -8.010166,
        "longitude": -34.854504,
        "empresa": "CLARO",
        "pf-ou-pj": "Pessoa Física",
        "tecnologia": "FTTH",
        "tipo-de-Produto": "INTERNET",
        "meio-de-acesso": "Fibra"
    },
    {
        "cidade": "Olinda",
        "uf": "PE",
        "latitude": -8.010166,
        "longitude": -34.854504,
        "empresa": "CLARO",
        "pf-ou-pj": "Pessoa Física",
        "tecnologia": "HFC",
        "tipo-de-Produto": "INTERNET",
        "meio-de-acesso": "Cabo Coaxial"
    },
    {
        "cidade": "Paulista",
        "uf": "PE",
        "latitude": -7.934007,
        "longitude": -34.868407,
        "empresa": "CLARO",
        "pf-ou-pj": "Pessoa Física",
        "tecnologia": "FTTH",
        "tipo-de-Produto": "INTERNET",
        "meio-de-acesso": "Fibra"
    },
    {
        "cidade": "Paulista",
        "uf": "PE",
        "latitude": -7.934007,
        "longitude": -34.868407,
        "empresa": "CLARO",
        "pf-ou-pj": "Pessoa Física",
        "tecnologia": "HFC",
        "tipo-de-Produto": "INTERNET",
        "meio-de-acesso": "Cabo Coaxial"
    },
    {
        "cidade": "Petrolina",
        "uf": "PE",
        "latitude": -9.388662,
        "longitude": -40.502731,
        "empresa": "CLARO",
        "pf-ou-pj": "Pessoa Física",
        "tecnologia": "FTTH",
        "tipo-de-Produto": "INTERNET",
        "meio-de-acesso": "Fibra"
    },
    {
        "cidade": "Recife",
        "uf": "PE",
        "latitude": -8.046658,
        "longitude": -34.877065,
        "empresa": "CLARO",
        "pf-ou-pj": "Pessoa Física",
        "tecnologia": "FTTH",
        "tipo-de-Produto": "INTERNET",
        "meio-de-acesso": "Fibra"
    },
    {
        "cidade": "Recife",
        "uf": "PE",
        "latitude": -8.046658,
        "longitude": -34.877065,
        "empresa": "CLARO",
        "pf-ou-pj": "Pessoa Física",
        "tecnologia": "HFC",
        "tipo-de-Produto": "INTERNET",
        "meio-de-acesso": "Cabo Coaxial"
    }
]