[
    {
        "cidade": "Almirante Tamandaré",
        "uf": "PR",
        "latitude": -25.318819,
        "longitude": -49.303733,
        "empresa": "CLARO",
        "pf-ou-pj": "Pessoa Física",
        "tecnologia": "HFC",
        "tipo-de-Produto": "INTERNET",
        "meio-de-acesso": "Cabo Coaxial"
    },
    {
        "cidade": "Apucarana",
        "uf": "PR",
        "latitude": -23.549961,
        "longitude": -51.463486,
        "empresa": "CLARO",
        "pf-ou-pj": "Pessoa Física",
        "tecnologia": "FTTH",
        "tipo-de-Produto": "INTERNET",
        "meio-de-acesso": "Fibra"
    },
    {
        "cidade": "Arapongas",
        "uf": "PR",
        "latitude": -23.415296,
        "longitude": -51.42592,
        "empresa": "CLARO",
        "pf-ou-pj": "Pessoa Física",
        "tecnologia": "FTTH",
        "tipo-de-Produto": "INTERNET",
        "meio-de-acesso": "Fibra"
    },
    {
        "cidade": "Arapongas",
        "uf": "PR",
        "latitude": -23.415296,
        "longitude": -51.42592,
        "empresa": "CLARO",
        "pf-ou-pj": "Pessoa Física",
        "tecnologia": "HFC",
        "tipo-de-Produto": "INTERNET",
        "meio-de-acesso": "Cabo Coaxial"
    },
    {
        "cidade": "Araucária",
        "uf": "PR",
        "latitude": -25.585939,
        "longitude": -49.404748,
        "empresa": "CLARO",
        "pf-ou-pj": "Pessoa Física",
        "tecnologia": "HFC",
        "tipo-de-Produto": "INTERNET",
        "meio-de-acesso": "Cabo Coaxial"
    },
    {
        "cidade": "Cambé",
        "uf": "PR",
        "latitude": -23.276575,
        "longitude": -51.279832,
        "empresa": "CLARO",
        "pf-ou-pj": "Pessoa Física",
        "tecnologia": "FTTH",
        "tipo-de-Produto": "INTERNET",
        "meio-de-acesso": "Fibra"
    },
    {
        "cidade": "Campo Largo",
        "uf": "PR",
        "latitude": -25.452535,
        "longitude": -49.529026,
        "empresa": "CLARO",
        "pf-ou-pj": "Pessoa Física",
        "tecnologia": "FTTH",
        "tipo-de-Produto": "INTERNET",
        "meio-de-acesso": "Fibra"
    },
    {
        "cidade": "Campo Largo",
        "uf": "PR",
        "latitude": -25.452535,
        "longitude": -49.529026,
        "empresa": "CLARO",
        "pf-ou-pj": "Pessoa Física",
        "tecnologia": "HFC",
        "tipo-de-Produto": "INTERNET",
        "meio-de-acesso": "Cabo Coaxial"
    },
    {
        "cidade": "Cascavel",
        "uf": "PR",
        "latitude": -24.957301,
        "longitude": -53.459005,
        "empresa": "CLARO",
        "pf-ou-pj": "Pessoa Física",
        "tecnologia": "HFC",
        "tipo-de-Produto": "INTERNET",
        "meio-de-acesso": "Cabo Coaxial"
    },
    {
        "cidade": "Cianorte",
        "uf": "PR",
        "latitude": -23.659859,
        "longitude": -52.605444,
        "empresa": "CLARO",
        "pf-ou-pj": "Pessoa Física",
        "tecnologia": "HFC",
        "tipo-de-Produto": "INTERNET",
        "meio-de-acesso": "Cabo Coaxial"
    },
    {
        "cidade": "Colombo",
        "uf": "PR",
        "latitude": -25.292487,
        "longitude": -49.22616,
        "empresa": "CLARO",
        "pf-ou-pj": "Pessoa Física",
        "tecnologia": "HFC",
        "tipo-de-Produto": "INTERNET",
        "meio-de-acesso": "Cabo Coaxial"
    },
    {
        "cidade": "Curitiba",
        "uf": "PR",
        "latitude": -25.419547,
        "longitude": -49.264622,
        "empresa": "CLARO",
        "pf-ou-pj": "Pessoa Física",
        "tecnologia": "FTTH",
        "tipo-de-Produto": "INTERNET",
        "meio-de-acesso": "Fibra"
    },
    {
        "cidade": "Curitiba",
        "uf": "PR",
        "latitude": -25.419547,
        "longitude": -49.264622,
        "empresa": "CLARO",
        "pf-ou-pj": "Pessoa Física",
        "tecnologia": "HFC",
        "tipo-de-Produto": "INTERNET",
        "meio-de-acesso": "Cabo Coaxial"
    },
    {
        "cidade": "Foz do Iguaçu",
        "uf": "PR",
        "latitude": -25.542748,
        "longitude": -54.582689,
        "empresa": "CLARO",
        "pf-ou-pj": "Pessoa Física",
        "tecnologia": "FTTH",
        "tipo-de-Produto": "INTERNET",
        "meio-de-acesso": "Fibra"
    },
    {
        "cidade": "Guarapuava",
        "uf": "PR",
        "latitude": -25.390237,
        "longitude": -51.462317,
        "empresa": "CLARO",
        "pf-ou-pj": "Pessoa Física",
        "tecnologia": "FTTH",
        "tipo-de-Produto": "INTERNET",
        "meio-de-acesso": "Fibra"
    },
    {
        "cidade": "Guarapuava",
        "uf": "PR",
        "latitude": -25.390237,
        "longitude": -51.462317,
        "empresa": "CLARO",
        "pf-ou-pj": "Pessoa Física",
        "tecnologia": "HFC",
        "tipo-de-Produto": "INTERNET",
        "meio-de-acesso": "Cabo Coaxial"
    },
    {
        "cidade": "Guaratuba",
        "uf": "PR",
        "latitude": -25.881672,
        "longitude": -48.575223,
        "empresa": "CLARO",
        "pf-ou-pj": "Pessoa Física",
        "tecnologia": "FTTH",
        "tipo-de-Produto": "INTERNET",
        "meio-de-acesso": "Fibra"
    },
    {
        "cidade": "Ibiporã",
        "uf": "PR",
        "latitude": -23.265941,
        "longitude": -51.052243,
        "empresa": "CLARO",
        "pf-ou-pj": "Pessoa Física",
        "tecnologia": "FTTH",
        "tipo-de-Produto": "INTERNET",
        "meio-de-acesso": "Fibra"
    },
    {
        "cidade": "Londrina",
        "uf": "PR",
        "latitude": -23.303975,
        "longitude": -51.1691,
        "empresa": "CLARO",
        "pf-ou-pj": "Pessoa Física",
        "tecnologia": "FTTH",
        "tipo-de-Produto": "INTERNET",
        "meio-de-acesso": "Fibra"
    },
    {
        "cidade": "Londrina",
        "uf": "PR",
        "latitude": -23.303975,
        "longitude": -51.1691,
        "empresa": "CLARO",
        "pf-ou-pj": "Pessoa Física",
        "tecnologia": "HFC",
        "tipo-de-Produto": "INTERNET",
        "meio-de-acesso": "Cabo Coaxial"
    },
    {
        "cidade": "Marechal Cândido Rondon",
        "uf": "PR",
        "latitude": -24.557891,
        "longitude": -54.056115,
        "empresa": "CLARO",
        "pf-ou-pj": "Pessoa Física",
        "tecnologia": "FTTH",
        "tipo-de-Produto": "INTERNET",
        "meio-de-acesso": "Fibra"
    },
    {
        "cidade": "Maringá",
        "uf": "PR",
        "latitude": -23.420545,
        "longitude": -51.933298,
        "empresa": "CLARO",
        "pf-ou-pj": "Pessoa Física",
        "tecnologia": "FTTH",
        "tipo-de-Produto": "INTERNET",
        "meio-de-acesso": "Fibra"
    },
    {
        "cidade": "Maringá",
        "uf": "PR",
        "latitude": -23.420545,
        "longitude": -51.933298,
        "empresa": "CLARO",
        "pf-ou-pj": "Pessoa Física",
        "tecnologia": "HFC",
        "tipo-de-Produto": "INTERNET",
        "meio-de-acesso": "Cabo Coaxial"
    },
    {
        "cidade": "Medianeira",
        "uf": "PR",
        "latitude": -25.297665,
        "longitude": -54.094308,
        "empresa": "CLARO",
        "pf-ou-pj": "Pessoa Física",
        "tecnologia": "FTTH",
        "tipo-de-Produto": "INTERNET",
        "meio-de-acesso": "Fibra"
    },
    {
        "cidade": "Paiçandu",
        "uf": "PR",
        "latitude": -23.455534,
        "longitude": -52.046013,
        "empresa": "CLARO",
        "pf-ou-pj": "Pessoa Física",
        "tecnologia": "FTTH",
        "tipo-de-Produto": "INTERNET",
        "meio-de-acesso": "Fibra"
    },
    {
        "cidade": "Palmas",
        "uf": "PR",
        "latitude": -26.483868,
        "longitude": -51.988812,
        "empresa": "CLARO",
        "pf-ou-pj": "Pessoa Física",
        "tecnologia": "FTTH",
        "tipo-de-Produto": "INTERNET",
        "meio-de-acesso": "Fibra"
    },
    {
        "cidade": "Paranaguá",
        "uf": "PR",
        "latitude": -25.516078,
        "longitude": -48.522528,
        "empresa": "CLARO",
        "pf-ou-pj": "Pessoa Física",
        "tecnologia": "FTTH",
        "tipo-de-Produto": "INTERNET",
        "meio-de-acesso": "Fibra"
    },
    {
        "cidade": "Pinhais",
        "uf": "PR",
        "latitude": -25.442949,
        "longitude": -49.19267,
        "empresa": "CLARO",
        "pf-ou-pj": "Pessoa Física",
        "tecnologia": "HFC",
        "tipo-de-Produto": "INTERNET",
        "meio-de-acesso": "Cabo Coaxial"
    },
    {
        "cidade": "Piraquara",
        "uf": "PR",
        "latitude": -25.442171,
        "longitude": -49.062411,
        "empresa": "CLARO",
        "pf-ou-pj": "Pessoa Física",
        "tecnologia": "FTTH",
        "tipo-de-Produto": "INTERNET",
        "meio-de-acesso": "Fibra"
    },
    {
        "cidade": "Ponta Grossa",
        "uf": "PR",
        "latitude": -25.091622,
        "longitude": -50.166787,
        "empresa": "CLARO",
        "pf-ou-pj": "Pessoa Física",
        "tecnologia": "FTTH",
        "tipo-de-Produto": "INTERNET",
        "meio-de-acesso": "Fibra"
    },
    {
        "cidade": "Ponta Grossa",
        "uf": "PR",
        "latitude": -25.091622,
        "longitude": -50.166787,
        "empresa": "CLARO",
        "pf-ou-pj": "Pessoa Física",
        "tecnologia": "HFC",
        "tipo-de-Produto": "INTERNET",
        "meio-de-acesso": "Cabo Coaxial"
    },
    {
        "cidade": "Quatro Barras",
        "uf": "PR",
        "latitude": -25.367317,
        "longitude": -49.076306,
        "empresa": "CLARO",
        "pf-ou-pj": "Pessoa Física",
        "tecnologia": "FTTH",
        "tipo-de-Produto": "INTERNET",
        "meio-de-acesso": "Fibra"
    },
    {
        "cidade": "Rolândia",
        "uf": "PR",
        "latitude": -23.31012,
        "longitude": -51.365928,
        "empresa": "CLARO",
        "pf-ou-pj": "Pessoa Física",
        "tecnologia": "FTTH",
        "tipo-de-Produto": "INTERNET",
        "meio-de-acesso": "Fibra"
    },
    {
        "cidade": "São José dos Pinhais",
        "uf": "PR",
        "latitude": -25.531343,
        "longitude": -49.203097,
        "empresa": "CLARO",
        "pf-ou-pj": "Pessoa Física",
        "tecnologia": "FTTH",
        "tipo-de-Produto": "INTERNET",
        "meio-de-acesso": "Fibra"
    },
    {
        "cidade": "São José dos Pinhais",
        "uf": "PR",
        "latitude": -25.531343,
        "longitude": -49.203097,
        "empresa": "CLARO",
        "pf-ou-pj": "Pessoa Física",
        "tecnologia": "HFC",
        "tipo-de-Produto": "INTERNET",
        "meio-de-acesso": "Cabo Coaxial"
    },
    {
        "cidade": "Telêmaco Borba",
        "uf": "PR",
        "latitude": -24.32452,
        "longitude": -50.617585,
        "empresa": "CLARO",
        "pf-ou-pj": "Pessoa Física",
        "tecnologia": "FTTH",
        "tipo-de-Produto": "INTERNET",
        "meio-de-acesso": "Fibra"
    },
    {
        "cidade": "União da Vitória",
        "uf": "PR",
        "latitude": -26.227319,
        "longitude": -51.087313,
        "empresa": "CLARO",
        "pf-ou-pj": "Pessoa Física",
        "tecnologia": "FTTH",
        "tipo-de-Produto": "INTERNET",
        "meio-de-acesso": "Fibra"
    }
]