[
    {
        "cidade": "Alegrete",
        "uf": "RS",
        "latitude": -29.790166,
        "longitude": -55.794862,
        "empresa": "CLARO",
        "pf-ou-pj": "Pessoa Física",
        "tecnologia": "FTTH",
        "tipo-de-Produto": "INTERNET",
        "meio-de-acesso": "Fibra"
    },
    {
        "cidade": "Alvorada",
        "uf": "RS",
        "latitude": -29.9914,
        "longitude": -51.080857,
        "empresa": "CLARO",
        "pf-ou-pj": "Pessoa Física",
        "tecnologia": "FTTH",
        "tipo-de-Produto": "INTERNET",
        "meio-de-acesso": "Fibra"
    },
    {
        "cidade": "Alvorada",
        "uf": "RS",
        "latitude": -29.9914,
        "longitude": -51.080857,
        "empresa": "CLARO",
        "pf-ou-pj": "Pessoa Física",
        "tecnologia": "HFC",
        "tipo-de-Produto": "INTERNET",
        "meio-de-acesso": "Cabo Coaxial"
    },
    {
        "cidade": "Arroio do Meio",
        "uf": "RS",
        "latitude": -29.401353,
        "longitude": -51.955735,
        "empresa": "CLARO",
        "pf-ou-pj": "Pessoa Física",
        "tecnologia": "FTTH",
        "tipo-de-Produto": "INTERNET",
        "meio-de-acesso": "Fibra"
    },
    {
        "cidade": "Bagé",
        "uf": "RS",
        "latitude": -31.32965,
        "longitude": -54.09992,
        "empresa": "CLARO",
        "pf-ou-pj": "Pessoa Física",
        "tecnologia": "FTTH",
        "tipo-de-Produto": "INTERNET",
        "meio-de-acesso": "Fibra"
    },
    {
        "cidade": "Bagé",
        "uf": "RS",
        "latitude": -31.32965,
        "longitude": -54.09992,
        "empresa": "CLARO",
        "pf-ou-pj": "Pessoa Física",
        "tecnologia": "HFC",
        "tipo-de-Produto": "INTERNET",
        "meio-de-acesso": "Cabo Coaxial"
    },
    {
        "cidade": "Bento Gonçalves",
        "uf": "RS",
        "latitude": -29.166212,
        "longitude": -51.516476,
        "empresa": "CLARO",
        "pf-ou-pj": "Pessoa Física",
        "tecnologia": "FTTH",
        "tipo-de-Produto": "INTERNET",
        "meio-de-acesso": "Fibra"
    },
    {
        "cidade": "Bento Gonçalves",
        "uf": "RS",
        "latitude": -29.166212,
        "longitude": -51.516476,
        "empresa": "CLARO",
        "pf-ou-pj": "Pessoa Física",
        "tecnologia": "HFC",
        "tipo-de-Produto": "INTERNET",
        "meio-de-acesso": "Cabo Coaxial"
    },
    {
        "cidade": "Cachoeira do Sul",
        "uf": "RS",
        "latitude": -30.032988,
        "longitude": -52.892756,
        "empresa": "CLARO",
        "pf-ou-pj": "Pessoa Física",
        "tecnologia": "FTTH",
        "tipo-de-Produto": "INTERNET",
        "meio-de-acesso": "Fibra"
    },
    {
        "cidade": "Cachoeirinha",
        "uf": "RS",
        "latitude": -29.947222,
        "longitude": -51.101606,
        "empresa": "CLARO",
        "pf-ou-pj": "Pessoa Física",
        "tecnologia": "FTTH",
        "tipo-de-Produto": "INTERNET",
        "meio-de-acesso": "Fibra"
    },
    {
        "cidade": "Cachoeirinha",
        "uf": "RS",
        "latitude": -29.947222,
        "longitude": -51.101606,
        "empresa": "CLARO",
        "pf-ou-pj": "Pessoa Física",
        "tecnologia": "HFC",
        "tipo-de-Produto": "INTERNET",
        "meio-de-acesso": "Cabo Coaxial"
    },
    {
        "cidade": "Camaquã",
        "uf": "RS",
        "latitude": -30.848897,
        "longitude": -51.80431,
        "empresa": "CLARO",
        "pf-ou-pj": "Pessoa Física",
        "tecnologia": "FTTH",
        "tipo-de-Produto": "INTERNET",
        "meio-de-acesso": "Fibra"
    },
    {
        "cidade": "Campo Bom",
        "uf": "RS",
        "latitude": -29.674694,
        "longitude": -51.060601,
        "empresa": "CLARO",
        "pf-ou-pj": "Pessoa Física",
        "tecnologia": "FTTH",
        "tipo-de-Produto": "INTERNET",
        "meio-de-acesso": "Fibra"
    },
    {
        "cidade": "Campo Bom",
        "uf": "RS",
        "latitude": -29.674694,
        "longitude": -51.060601,
        "empresa": "CLARO",
        "pf-ou-pj": "Pessoa Física",
        "tecnologia": "HFC",
        "tipo-de-Produto": "INTERNET",
        "meio-de-acesso": "Cabo Coaxial"
    },
    {
        "cidade": "Canela",
        "uf": "RS",
        "latitude": -29.355993,
        "longitude": -50.811921,
        "empresa": "CLARO",
        "pf-ou-pj": "Pessoa Física",
        "tecnologia": "FTTH",
        "tipo-de-Produto": "INTERNET",
        "meio-de-acesso": "Fibra"
    },
    {
        "cidade": "Canoas",
        "uf": "RS",
        "latitude": -29.912758,
        "longitude": -51.185681,
        "empresa": "CLARO",
        "pf-ou-pj": "Pessoa Física",
        "tecnologia": "FTTH",
        "tipo-de-Produto": "INTERNET",
        "meio-de-acesso": "Fibra"
    },
    {
        "cidade": "Canoas",
        "uf": "RS",
        "latitude": -29.912758,
        "longitude": -51.185681,
        "empresa": "CLARO",
        "pf-ou-pj": "Pessoa Física",
        "tecnologia": "HFC",
        "tipo-de-Produto": "INTERNET",
        "meio-de-acesso": "Cabo Coaxial"
    },
    {
        "cidade": "Capão da Canoa",
        "uf": "RS",
        "latitude": -29.764242,
        "longitude": -50.028243,
        "empresa": "CLARO",
        "pf-ou-pj": "Pessoa Física",
        "tecnologia": "FTTH",
        "tipo-de-Produto": "INTERNET",
        "meio-de-acesso": "Fibra"
    },
    {
        "cidade": "Capão da Canoa",
        "uf": "RS",
        "latitude": -29.764242,
        "longitude": -50.028243,
        "empresa": "CLARO",
        "pf-ou-pj": "Pessoa Física",
        "tecnologia": "HFC",
        "tipo-de-Produto": "INTERNET",
        "meio-de-acesso": "Cabo Coaxial"
    },
    {
        "cidade": "Carazinho",
        "uf": "RS",
        "latitude": -28.295844,
        "longitude": -52.79326,
        "empresa": "CLARO",
        "pf-ou-pj": "Pessoa Física",
        "tecnologia": "FTTH",
        "tipo-de-Produto": "INTERNET",
        "meio-de-acesso": "Fibra"
    },
    {
        "cidade": "Carlos Barbosa",
        "uf": "RS",
        "latitude": -29.296949,
        "longitude": -51.502847,
        "empresa": "CLARO",
        "pf-ou-pj": "Pessoa Física",
        "tecnologia": "FTTH",
        "tipo-de-Produto": "INTERNET",
        "meio-de-acesso": "Fibra"
    },
    {
        "cidade": "Caxias do Sul",
        "uf": "RS",
        "latitude": -29.162905,
        "longitude": -51.179161,
        "empresa": "CLARO",
        "pf-ou-pj": "Pessoa Física",
        "tecnologia": "FTTH",
        "tipo-de-Produto": "INTERNET",
        "meio-de-acesso": "Fibra"
    },
    {
        "cidade": "Caxias do Sul",
        "uf": "RS",
        "latitude": -29.162905,
        "longitude": -51.179161,
        "empresa": "CLARO",
        "pf-ou-pj": "Pessoa Física",
        "tecnologia": "HFC",
        "tipo-de-Produto": "INTERNET",
        "meio-de-acesso": "Cabo Coaxial"
    },
    {
        "cidade": "Charqueadas",
        "uf": "RS",
        "latitude": -29.962478,
        "longitude": -51.628872,
        "empresa": "CLARO",
        "pf-ou-pj": "Pessoa Física",
        "tecnologia": "FTTH",
        "tipo-de-Produto": "INTERNET",
        "meio-de-acesso": "Fibra"
    },
    {
        "cidade": "Cruz Alta",
        "uf": "RS",
        "latitude": -28.645001,
        "longitude": -53.604831,
        "empresa": "CLARO",
        "pf-ou-pj": "Pessoa Física",
        "tecnologia": "FTTH",
        "tipo-de-Produto": "INTERNET",
        "meio-de-acesso": "Fibra"
    },
    {
        "cidade": "Cruz Alta",
        "uf": "RS",
        "latitude": -28.645001,
        "longitude": -53.604831,
        "empresa": "CLARO",
        "pf-ou-pj": "Pessoa Física",
        "tecnologia": "HFC",
        "tipo-de-Produto": "INTERNET",
        "meio-de-acesso": "Cabo Coaxial"
    },
    {
        "cidade": "Dois Irmãos",
        "uf": "RS",
        "latitude": -29.58356,
        "longitude": -51.089776,
        "empresa": "CLARO",
        "pf-ou-pj": "Pessoa Física",
        "tecnologia": "FTTH",
        "tipo-de-Produto": "INTERNET",
        "meio-de-acesso": "Fibra"
    },
    {
        "cidade": "Eldorado do Sul",
        "uf": "RS",
        "latitude": -30.084676,
        "longitude": -51.618702,
        "empresa": "CLARO",
        "pf-ou-pj": "Pessoa Física",
        "tecnologia": "FTTH",
        "tipo-de-Produto": "INTERNET",
        "meio-de-acesso": "Fibra"
    },
    {
        "cidade": "Encantado",
        "uf": "RS",
        "latitude": -29.235141,
        "longitude": -51.870282,
        "empresa": "CLARO",
        "pf-ou-pj": "Pessoa Física",
        "tecnologia": "FTTH",
        "tipo-de-Produto": "INTERNET",
        "meio-de-acesso": "Fibra"
    },
    {
        "cidade": "Erechim",
        "uf": "RS",
        "latitude": -27.63638,
        "longitude": -52.26969,
        "empresa": "CLARO",
        "pf-ou-pj": "Pessoa Física",
        "tecnologia": "FTTH",
        "tipo-de-Produto": "INTERNET",
        "meio-de-acesso": "Fibra"
    },
    {
        "cidade": "Erechim",
        "uf": "RS",
        "latitude": -27.63638,
        "longitude": -52.26969,
        "empresa": "CLARO",
        "pf-ou-pj": "Pessoa Física",
        "tecnologia": "HFC",
        "tipo-de-Produto": "INTERNET",
        "meio-de-acesso": "Cabo Coaxial"
    },
    {
        "cidade": "Esteio",
        "uf": "RS",
        "latitude": -29.851963,
        "longitude": -51.184065,
        "empresa": "CLARO",
        "pf-ou-pj": "Pessoa Física",
        "tecnologia": "FTTH",
        "tipo-de-Produto": "INTERNET",
        "meio-de-acesso": "Fibra"
    },
    {
        "cidade": "Esteio",
        "uf": "RS",
        "latitude": -29.851963,
        "longitude": -51.184065,
        "empresa": "CLARO",
        "pf-ou-pj": "Pessoa Física",
        "tecnologia": "HFC",
        "tipo-de-Produto": "INTERNET",
        "meio-de-acesso": "Cabo Coaxial"
    },
    {
        "cidade": "Estrela",
        "uf": "RS",
        "latitude": -29.500207,
        "longitude": -51.949508,
        "empresa": "CLARO",
        "pf-ou-pj": "Pessoa Física",
        "tecnologia": "FTTH",
        "tipo-de-Produto": "INTERNET",
        "meio-de-acesso": "Fibra"
    },
    {
        "cidade": "Estância Velha",
        "uf": "RS",
        "latitude": -29.65354,
        "longitude": -51.184339,
        "empresa": "CLARO",
        "pf-ou-pj": "Pessoa Física",
        "tecnologia": "HFC",
        "tipo-de-Produto": "INTERNET",
        "meio-de-acesso": "Cabo Coaxial"
    },
    {
        "cidade": "Farroupilha",
        "uf": "RS",
        "latitude": -29.222689,
        "longitude": -51.341853,
        "empresa": "CLARO",
        "pf-ou-pj": "Pessoa Física",
        "tecnologia": "FTTH",
        "tipo-de-Produto": "INTERNET",
        "meio-de-acesso": "Fibra"
    },
    {
        "cidade": "Farroupilha",
        "uf": "RS",
        "latitude": -29.222689,
        "longitude": -51.341853,
        "empresa": "CLARO",
        "pf-ou-pj": "Pessoa Física",
        "tecnologia": "HFC",
        "tipo-de-Produto": "INTERNET",
        "meio-de-acesso": "Cabo Coaxial"
    },
    {
        "cidade": "Frederico Westphalen",
        "uf": "RS",
        "latitude": -27.358644,
        "longitude": -53.395824,
        "empresa": "CLARO",
        "pf-ou-pj": "Pessoa Física",
        "tecnologia": "FTTH",
        "tipo-de-Produto": "INTERNET",
        "meio-de-acesso": "Fibra"
    },
    {
        "cidade": "Garibaldi",
        "uf": "RS",
        "latitude": -29.258979,
        "longitude": -51.535179,
        "empresa": "CLARO",
        "pf-ou-pj": "Pessoa Física",
        "tecnologia": "FTTH",
        "tipo-de-Produto": "INTERNET",
        "meio-de-acesso": "Fibra"
    },
    {
        "cidade": "Gramado",
        "uf": "RS",
        "latitude": -29.373351,
        "longitude": -50.876164,
        "empresa": "CLARO",
        "pf-ou-pj": "Pessoa Física",
        "tecnologia": "FTTH",
        "tipo-de-Produto": "INTERNET",
        "meio-de-acesso": "Fibra"
    },
    {
        "cidade": "Gravataí",
        "uf": "RS",
        "latitude": -29.941319,
        "longitude": -50.986891,
        "empresa": "CLARO",
        "pf-ou-pj": "Pessoa Física",
        "tecnologia": "FTTH",
        "tipo-de-Produto": "INTERNET",
        "meio-de-acesso": "Fibra"
    },
    {
        "cidade": "Gravataí",
        "uf": "RS",
        "latitude": -29.941319,
        "longitude": -50.986891,
        "empresa": "CLARO",
        "pf-ou-pj": "Pessoa Física",
        "tecnologia": "HFC",
        "tipo-de-Produto": "INTERNET",
        "meio-de-acesso": "Cabo Coaxial"
    },
    {
        "cidade": "Guaíba",
        "uf": "RS",
        "latitude": -30.108592,
        "longitude": -51.323314,
        "empresa": "CLARO",
        "pf-ou-pj": "Pessoa Física",
        "tecnologia": "FTTH",
        "tipo-de-Produto": "INTERNET",
        "meio-de-acesso": "Fibra"
    },
    {
        "cidade": "Igrejinha",
        "uf": "RS",
        "latitude": -29.569318,
        "longitude": -50.791894,
        "empresa": "CLARO",
        "pf-ou-pj": "Pessoa Física",
        "tecnologia": "FTTH",
        "tipo-de-Produto": "INTERNET",
        "meio-de-acesso": "Fibra"
    },
    {
        "cidade": "Imbé",
        "uf": "RS",
        "latitude": -29.975269,
        "longitude": -50.128068,
        "empresa": "CLARO",
        "pf-ou-pj": "Pessoa Física",
        "tecnologia": "FTTH",
        "tipo-de-Produto": "INTERNET",
        "meio-de-acesso": "Fibra"
    },
    {
        "cidade": "Itaqui",
        "uf": "RS",
        "latitude": -29.131051,
        "longitude": -56.551478,
        "empresa": "CLARO",
        "pf-ou-pj": "Pessoa Física",
        "tecnologia": "FTTH",
        "tipo-de-Produto": "INTERNET",
        "meio-de-acesso": "Fibra"
    },
    {
        "cidade": "Ivoti",
        "uf": "RS",
        "latitude": -29.599463,
        "longitude": -51.153326,
        "empresa": "CLARO",
        "pf-ou-pj": "Pessoa Física",
        "tecnologia": "FTTH",
        "tipo-de-Produto": "INTERNET",
        "meio-de-acesso": "Fibra"
    },
    {
        "cidade": "Lajeado",
        "uf": "RS",
        "latitude": -29.459086,
        "longitude": -51.964427,
        "empresa": "CLARO",
        "pf-ou-pj": "Pessoa Física",
        "tecnologia": "FTTH",
        "tipo-de-Produto": "INTERNET",
        "meio-de-acesso": "Fibra"
    },
    {
        "cidade": "Lajeado",
        "uf": "RS",
        "latitude": -29.459086,
        "longitude": -51.964427,
        "empresa": "CLARO",
        "pf-ou-pj": "Pessoa Física",
        "tecnologia": "HFC",
        "tipo-de-Produto": "INTERNET",
        "meio-de-acesso": "Cabo Coaxial"
    },
    {
        "cidade": "Marau",
        "uf": "RS",
        "latitude": -28.449754,
        "longitude": -52.198625,
        "empresa": "CLARO",
        "pf-ou-pj": "Pessoa Física",
        "tecnologia": "FTTH",
        "tipo-de-Produto": "INTERNET",
        "meio-de-acesso": "Fibra"
    },
    {
        "cidade": "Montenegro",
        "uf": "RS",
        "latitude": -29.682414,
        "longitude": -51.467903,
        "empresa": "CLARO",
        "pf-ou-pj": "Pessoa Física",
        "tecnologia": "FTTH",
        "tipo-de-Produto": "INTERNET",
        "meio-de-acesso": "Fibra"
    },
    {
        "cidade": "Nova Petrópolis",
        "uf": "RS",
        "latitude": -29.374112,
        "longitude": -51.113552,
        "empresa": "CLARO",
        "pf-ou-pj": "Pessoa Física",
        "tecnologia": "FTTH",
        "tipo-de-Produto": "INTERNET",
        "meio-de-acesso": "Fibra"
    },
    {
        "cidade": "Novo Hamburgo",
        "uf": "RS",
        "latitude": -29.687548,
        "longitude": -51.132828,
        "empresa": "CLARO",
        "pf-ou-pj": "Pessoa Física",
        "tecnologia": "FTTH",
        "tipo-de-Produto": "INTERNET",
        "meio-de-acesso": "Fibra"
    },
    {
        "cidade": "Novo Hamburgo",
        "uf": "RS",
        "latitude": -29.687548,
        "longitude": -51.132828,
        "empresa": "CLARO",
        "pf-ou-pj": "Pessoa Física",
        "tecnologia": "HFC",
        "tipo-de-Produto": "INTERNET",
        "meio-de-acesso": "Cabo Coaxial"
    },
    {
        "cidade": "Osório",
        "uf": "RS",
        "latitude": -29.888089,
        "longitude": -50.266713,
        "empresa": "CLARO",
        "pf-ou-pj": "Pessoa Física",
        "tecnologia": "FTTH",
        "tipo-de-Produto": "INTERNET",
        "meio-de-acesso": "Fibra"
    },
    {
        "cidade": "Palmeira das Missões",
        "uf": "RS",
        "latitude": -27.900652,
        "longitude": -53.313378,
        "empresa": "CLARO",
        "pf-ou-pj": "Pessoa Física",
        "tecnologia": "FTTH",
        "tipo-de-Produto": "INTERNET",
        "meio-de-acesso": "Fibra"
    },
    {
        "cidade": "Panambi",
        "uf": "RS",
        "latitude": -28.283328,
        "longitude": -53.502261,
        "empresa": "CLARO",
        "pf-ou-pj": "Pessoa Física",
        "tecnologia": "FTTH",
        "tipo-de-Produto": "INTERNET",
        "meio-de-acesso": "Fibra"
    },
    {
        "cidade": "Parobé",
        "uf": "RS",
        "latitude": -29.624257,
        "longitude": -50.83118,
        "empresa": "CLARO",
        "pf-ou-pj": "Pessoa Física",
        "tecnologia": "FTTH",
        "tipo-de-Produto": "INTERNET",
        "meio-de-acesso": "Fibra"
    },
    {
        "cidade": "Passo Fundo",
        "uf": "RS",
        "latitude": -28.257564,
        "longitude": -52.409112,
        "empresa": "CLARO",
        "pf-ou-pj": "Pessoa Física",
        "tecnologia": "FTTH",
        "tipo-de-Produto": "INTERNET",
        "meio-de-acesso": "Fibra"
    },
    {
        "cidade": "Passo Fundo",
        "uf": "RS",
        "latitude": -28.257564,
        "longitude": -52.409112,
        "empresa": "CLARO",
        "pf-ou-pj": "Pessoa Física",
        "tecnologia": "HFC",
        "tipo-de-Produto": "INTERNET",
        "meio-de-acesso": "Cabo Coaxial"
    },
    {
        "cidade": "Pelotas",
        "uf": "RS",
        "latitude": -31.764898,
        "longitude": -52.337058,
        "empresa": "CLARO",
        "pf-ou-pj": "Pessoa Física",
        "tecnologia": "FTTH",
        "tipo-de-Produto": "INTERNET",
        "meio-de-acesso": "Fibra"
    },
    {
        "cidade": "Pelotas",
        "uf": "RS",
        "latitude": -31.764898,
        "longitude": -52.337058,
        "empresa": "CLARO",
        "pf-ou-pj": "Pessoa Física",
        "tecnologia": "HFC",
        "tipo-de-Produto": "INTERNET",
        "meio-de-acesso": "Cabo Coaxial"
    },
    {
        "cidade": "Porto Alegre",
        "uf": "RS",
        "latitude": -30.031771,
        "longitude": -51.206533,
        "empresa": "CLARO",
        "pf-ou-pj": "Pessoa Física",
        "tecnologia": "FTTH",
        "tipo-de-Produto": "INTERNET",
        "meio-de-acesso": "Fibra"
    },
    {
        "cidade": "Porto Alegre",
        "uf": "RS",
        "latitude": -30.031771,
        "longitude": -51.206533,
        "empresa": "CLARO",
        "pf-ou-pj": "Pessoa Física",
        "tecnologia": "HFC",
        "tipo-de-Produto": "INTERNET",
        "meio-de-acesso": "Cabo Coaxial"
    },
    {
        "cidade": "Rio Grande",
        "uf": "RS",
        "latitude": -32.034875,
        "longitude": -52.10705,
        "empresa": "CLARO",
        "pf-ou-pj": "Pessoa Física",
        "tecnologia": "FTTH",
        "tipo-de-Produto": "INTERNET",
        "meio-de-acesso": "Fibra"
    },
    {
        "cidade": "Rio Grande",
        "uf": "RS",
        "latitude": -32.034875,
        "longitude": -52.10705,
        "empresa": "CLARO",
        "pf-ou-pj": "Pessoa Física",
        "tecnologia": "HFC",
        "tipo-de-Produto": "INTERNET",
        "meio-de-acesso": "Cabo Coaxial"
    },
    {
        "cidade": "Rio Pardo",
        "uf": "RS",
        "latitude": -29.98803,
        "longitude": -52.37113,
        "empresa": "CLARO",
        "pf-ou-pj": "Pessoa Física",
        "tecnologia": "FTTH",
        "tipo-de-Produto": "INTERNET",
        "meio-de-acesso": "Fibra"
    },
    {
        "cidade": "Rosário do Sul",
        "uf": "RS",
        "latitude": -30.251483,
        "longitude": -54.922106,
        "empresa": "CLARO",
        "pf-ou-pj": "Pessoa Física",
        "tecnologia": "FTTH",
        "tipo-de-Produto": "INTERNET",
        "meio-de-acesso": "Fibra"
    },
    {
        "cidade": "Sant'Ana do Livramento",
        "uf": "RS",
        "latitude": null,
        "longitude": null,
        "empresa": "CLARO",
        "pf-ou-pj": "Pessoa Física",
        "tecnologia": "FTTH",
        "tipo-de-Produto": "INTERNET",
        "meio-de-acesso": "Fibra"
    },
    {
        "cidade": "Santa Cruz do Sul",
        "uf": "RS",
        "latitude": -29.722021,
        "longitude": -52.434318,
        "empresa": "CLARO",
        "pf-ou-pj": "Pessoa Física",
        "tecnologia": "FTTH",
        "tipo-de-Produto": "INTERNET",
        "meio-de-acesso": "Fibra"
    },
    {
        "cidade": "Santa Cruz do Sul",
        "uf": "RS",
        "latitude": -29.722021,
        "longitude": -52.434318,
        "empresa": "CLARO",
        "pf-ou-pj": "Pessoa Física",
        "tecnologia": "HFC",
        "tipo-de-Produto": "INTERNET",
        "meio-de-acesso": "Cabo Coaxial"
    },
    {
        "cidade": "Santa Maria",
        "uf": "RS",
        "latitude": -29.686817,
        "longitude": -53.814946,
        "empresa": "CLARO",
        "pf-ou-pj": "Pessoa Física",
        "tecnologia": "FTTH",
        "tipo-de-Produto": "INTERNET",
        "meio-de-acesso": "Fibra"
    },
    {
        "cidade": "Santa Maria",
        "uf": "RS",
        "latitude": -29.686817,
        "longitude": -53.814946,
        "empresa": "CLARO",
        "pf-ou-pj": "Pessoa Física",
        "tecnologia": "HFC",
        "tipo-de-Produto": "INTERNET",
        "meio-de-acesso": "Cabo Coaxial"
    },
    {
        "cidade": "Santa Rosa",
        "uf": "RS",
        "latitude": -27.8702,
        "longitude": -54.479629,
        "empresa": "CLARO",
        "pf-ou-pj": "Pessoa Física",
        "tecnologia": "FTTH",
        "tipo-de-Produto": "INTERNET",
        "meio-de-acesso": "Fibra"
    },
    {
        "cidade": "Santo Ângelo",
        "uf": "RS",
        "latitude": -28.300128,
        "longitude": -54.266781,
        "empresa": "CLARO",
        "pf-ou-pj": "Pessoa Física",
        "tecnologia": "FTTH",
        "tipo-de-Produto": "INTERNET",
        "meio-de-acesso": "Fibra"
    },
    {
        "cidade": "Sapiranga",
        "uf": "RS",
        "latitude": -29.634885,
        "longitude": -51.006446,
        "empresa": "CLARO",
        "pf-ou-pj": "Pessoa Física",
        "tecnologia": "HFC",
        "tipo-de-Produto": "INTERNET",
        "meio-de-acesso": "Cabo Coaxial"
    },
    {
        "cidade": "Sapucaia do Sul",
        "uf": "RS",
        "latitude": -29.827575,
        "longitude": -51.144975,
        "empresa": "CLARO",
        "pf-ou-pj": "Pessoa Física",
        "tecnologia": "FTTH",
        "tipo-de-Produto": "INTERNET",
        "meio-de-acesso": "Fibra"
    },
    {
        "cidade": "Sapucaia do Sul",
        "uf": "RS",
        "latitude": -29.827575,
        "longitude": -51.144975,
        "empresa": "CLARO",
        "pf-ou-pj": "Pessoa Física",
        "tecnologia": "HFC",
        "tipo-de-Produto": "INTERNET",
        "meio-de-acesso": "Cabo Coaxial"
    },
    {
        "cidade": "São Borja",
        "uf": "RS",
        "latitude": -28.657828,
        "longitude": -56.003603,
        "empresa": "CLARO",
        "pf-ou-pj": "Pessoa Física",
        "tecnologia": "FTTH",
        "tipo-de-Produto": "INTERNET",
        "meio-de-acesso": "Fibra"
    },
    {
        "cidade": "São Gabriel",
        "uf": "RS",
        "latitude": -30.333688,
        "longitude": -54.321657,
        "empresa": "CLARO",
        "pf-ou-pj": "Pessoa Física",
        "tecnologia": "FTTH",
        "tipo-de-Produto": "INTERNET",
        "meio-de-acesso": "Fibra"
    },
    {
        "cidade": "São Leopoldo",
        "uf": "RS",
        "latitude": -29.754494,
        "longitude": -51.149773,
        "empresa": "CLARO",
        "pf-ou-pj": "Pessoa Física",
        "tecnologia": "FTTH",
        "tipo-de-Produto": "INTERNET",
        "meio-de-acesso": "Fibra"
    },
    {
        "cidade": "São Leopoldo",
        "uf": "RS",
        "latitude": -29.754494,
        "longitude": -51.149773,
        "empresa": "CLARO",
        "pf-ou-pj": "Pessoa Física",
        "tecnologia": "HFC",
        "tipo-de-Produto": "INTERNET",
        "meio-de-acesso": "Cabo Coaxial"
    },
    {
        "cidade": "São Lourenço do Sul",
        "uf": "RS",
        "latitude": -31.356374,
        "longitude": -51.971531,
        "empresa": "CLARO",
        "pf-ou-pj": "Pessoa Física",
        "tecnologia": "FTTH",
        "tipo-de-Produto": "INTERNET",
        "meio-de-acesso": "Fibra"
    },
    {
        "cidade": "São Luiz Gonzaga",
        "uf": "RS",
        "latitude": -28.412032,
        "longitude": -54.955942,
        "empresa": "CLARO",
        "pf-ou-pj": "Pessoa Física",
        "tecnologia": "FTTH",
        "tipo-de-Produto": "INTERNET",
        "meio-de-acesso": "Fibra"
    },
    {
        "cidade": "Taquara",
        "uf": "RS",
        "latitude": -29.650471,
        "longitude": -50.775278,
        "empresa": "CLARO",
        "pf-ou-pj": "Pessoa Física",
        "tecnologia": "FTTH",
        "tipo-de-Produto": "INTERNET",
        "meio-de-acesso": "Fibra"
    },
    {
        "cidade": "Teutônia",
        "uf": "RS",
        "latitude": -29.448205,
        "longitude": -51.804375,
        "empresa": "CLARO",
        "pf-ou-pj": "Pessoa Física",
        "tecnologia": "FTTH",
        "tipo-de-Produto": "INTERNET",
        "meio-de-acesso": "Fibra"
    },
    {
        "cidade": "Torres",
        "uf": "RS",
        "latitude": -29.333438,
        "longitude": -49.733289,
        "empresa": "CLARO",
        "pf-ou-pj": "Pessoa Física",
        "tecnologia": "FTTH",
        "tipo-de-Produto": "INTERNET",
        "meio-de-acesso": "Fibra"
    },
    {
        "cidade": "Tramandaí",
        "uf": "RS",
        "latitude": -29.98414,
        "longitude": -50.132187,
        "empresa": "CLARO",
        "pf-ou-pj": "Pessoa Física",
        "tecnologia": "FTTH",
        "tipo-de-Produto": "INTERNET",
        "meio-de-acesso": "Fibra"
    },
    {
        "cidade": "Três Coroas",
        "uf": "RS",
        "latitude": -29.513719,
        "longitude": -50.773869,
        "empresa": "CLARO",
        "pf-ou-pj": "Pessoa Física",
        "tecnologia": "FTTH",
        "tipo-de-Produto": "INTERNET",
        "meio-de-acesso": "Fibra"
    },
    {
        "cidade": "Uruguaiana",
        "uf": "RS",
        "latitude": -29.761436,
        "longitude": -57.085287,
        "empresa": "CLARO",
        "pf-ou-pj": "Pessoa Física",
        "tecnologia": "HFC",
        "tipo-de-Produto": "INTERNET",
        "meio-de-acesso": "Cabo Coaxial"
    },
    {
        "cidade": "Vacaria",
        "uf": "RS",
        "latitude": -28.507868,
        "longitude": -50.941791,
        "empresa": "CLARO",
        "pf-ou-pj": "Pessoa Física",
        "tecnologia": "FTTH",
        "tipo-de-Produto": "INTERNET",
        "meio-de-acesso": "Fibra"
    },
    {
        "cidade": "Venâncio Aires",
        "uf": "RS",
        "latitude": -29.614306,
        "longitude": -52.193159,
        "empresa": "CLARO",
        "pf-ou-pj": "Pessoa Física",
        "tecnologia": "FTTH",
        "tipo-de-Produto": "INTERNET",
        "meio-de-acesso": "Fibra"
    },
    {
        "cidade": "Vera Cruz",
        "uf": "RS",
        "latitude": -29.718435,
        "longitude": -52.515176,
        "empresa": "CLARO",
        "pf-ou-pj": "Pessoa Física",
        "tecnologia": "FTTH",
        "tipo-de-Produto": "INTERNET",
        "meio-de-acesso": "Fibra"
    },
    {
        "cidade": "Veranópolis",
        "uf": "RS",
        "latitude": -28.931197,
        "longitude": -51.551614,
        "empresa": "CLARO",
        "pf-ou-pj": "Pessoa Física",
        "tecnologia": "FTTH",
        "tipo-de-Produto": "INTERNET",
        "meio-de-acesso": "Fibra"
    },
    {
        "cidade": "Viamão",
        "uf": "RS",
        "latitude": -30.081899,
        "longitude": -51.019435,
        "empresa": "CLARO",
        "pf-ou-pj": "Pessoa Física",
        "tecnologia": "FTTH",
        "tipo-de-Produto": "INTERNET",
        "meio-de-acesso": "Fibra"
    },
    {
        "cidade": "Viamão",
        "uf": "RS",
        "latitude": -30.081899,
        "longitude": -51.019435,
        "empresa": "CLARO",
        "pf-ou-pj": "Pessoa Física",
        "tecnologia": "HFC",
        "tipo-de-Produto": "INTERNET",
        "meio-de-acesso": "Cabo Coaxial"
    }
]