[
    {
        "cidade": "Alta Floresta D'Oeste",
        "uf": "RO",
        "latitude": null,
        "longitude": null,
        "empresa": "CLARO",
        "pf-ou-pj": "Pessoa Jurídica",
        "tecnologia": "ADSL1",
        "tipo-de-Produto": "INTERNET",
        "meio-de-acesso": "Cabo Metálico"
    },
    {
        "cidade": "Alta Floresta D'Oeste",
        "uf": "RO",
        "latitude": null,
        "longitude": null,
        "empresa": "CLARO",
        "pf-ou-pj": "Pessoa Jurídica",
        "tecnologia": "ADSL1",
        "tipo-de-Produto": "OUTROS",
        "meio-de-acesso": "Cabo Metálico"
    },
    {
        "cidade": "Alta Floresta D'Oeste",
        "uf": "RO",
        "latitude": null,
        "longitude": null,
        "empresa": "CLARO",
        "pf-ou-pj": "Pessoa Jurídica",
        "tecnologia": "FTTH",
        "tipo-de-Produto": "LINHA_DEDICADA",
        "meio-de-acesso": "Fibra"
    },
    {
        "cidade": "Alta Floresta D'Oeste",
        "uf": "RO",
        "latitude": null,
        "longitude": null,
        "empresa": "CLARO",
        "pf-ou-pj": "Pessoa Jurídica",
        "tecnologia": "VSAT",
        "tipo-de-Produto": "LINHA_DEDICADA",
        "meio-de-acesso": "Satélite"
    },
    {
        "cidade": "Alto Alegre dos Parecis",
        "uf": "RO",
        "latitude": -12.131955,
        "longitude": -61.834979,
        "empresa": "CLARO",
        "pf-ou-pj": "Pessoa Jurídica",
        "tecnologia": "FTTH",
        "tipo-de-Produto": "INTERNET",
        "meio-de-acesso": "Fibra"
    },
    {
        "cidade": "Alto Alegre dos Parecis",
        "uf": "RO",
        "latitude": -12.131955,
        "longitude": -61.834979,
        "empresa": "CLARO",
        "pf-ou-pj": "Pessoa Jurídica",
        "tecnologia": "VSAT",
        "tipo-de-Produto": "LINHA_DEDICADA",
        "meio-de-acesso": "Satélite"
    },
    {
        "cidade": "Alto Paraíso",
        "uf": "RO",
        "latitude": -9.714294,
        "longitude": -63.318834,
        "empresa": "CLARO",
        "pf-ou-pj": "Pessoa Jurídica",
        "tecnologia": "ADSL1",
        "tipo-de-Produto": "LINHA_DEDICADA",
        "meio-de-acesso": "Cabo Metálico"
    },
    {
        "cidade": "Alto Paraíso",
        "uf": "RO",
        "latitude": -9.714294,
        "longitude": -63.318834,
        "empresa": "CLARO",
        "pf-ou-pj": "Pessoa Jurídica",
        "tecnologia": "FTTH",
        "tipo-de-Produto": "INTERNET",
        "meio-de-acesso": "Fibra"
    },
    {
        "cidade": "Alto Paraíso",
        "uf": "RO",
        "latitude": -9.714294,
        "longitude": -63.318834,
        "empresa": "CLARO",
        "pf-ou-pj": "Pessoa Jurídica",
        "tecnologia": "FTTH",
        "tipo-de-Produto": "LINHA_DEDICADA",
        "meio-de-acesso": "Fibra"
    },
    {
        "cidade": "Alto Paraíso",
        "uf": "RO",
        "latitude": -9.714294,
        "longitude": -63.318834,
        "empresa": "CLARO",
        "pf-ou-pj": "Pessoa Jurídica",
        "tecnologia": "VSAT",
        "tipo-de-Produto": "LINHA_DEDICADA",
        "meio-de-acesso": "Satélite"
    },
    {
        "cidade": "Alvorada D'Oeste",
        "uf": "RO",
        "latitude": null,
        "longitude": null,
        "empresa": "CLARO",
        "pf-ou-pj": "Pessoa Jurídica",
        "tecnologia": "ADSL1",
        "tipo-de-Produto": "LINHA_DEDICADA",
        "meio-de-acesso": "Cabo Metálico"
    },
    {
        "cidade": "Alvorada D'Oeste",
        "uf": "RO",
        "latitude": null,
        "longitude": null,
        "empresa": "CLARO",
        "pf-ou-pj": "Pessoa Jurídica",
        "tecnologia": "FTTH",
        "tipo-de-Produto": "INTERNET",
        "meio-de-acesso": "Fibra"
    },
    {
        "cidade": "Alvorada D'Oeste",
        "uf": "RO",
        "latitude": null,
        "longitude": null,
        "empresa": "CLARO",
        "pf-ou-pj": "Pessoa Jurídica",
        "tecnologia": "FTTH",
        "tipo-de-Produto": "LINHA_DEDICADA",
        "meio-de-acesso": "Fibra"
    },
    {
        "cidade": "Alvorada D'Oeste",
        "uf": "RO",
        "latitude": null,
        "longitude": null,
        "empresa": "CLARO",
        "pf-ou-pj": "Pessoa Jurídica",
        "tecnologia": "VSAT",
        "tipo-de-Produto": "LINHA_DEDICADA",
        "meio-de-acesso": "Satélite"
    },
    {
        "cidade": "Ariquemes",
        "uf": "RO",
        "latitude": -9.905711,
        "longitude": -63.032516,
        "empresa": "CLARO",
        "pf-ou-pj": "Pessoa Jurídica",
        "tecnologia": "ADSL1",
        "tipo-de-Produto": "LINHA_DEDICADA",
        "meio-de-acesso": "Cabo Metálico"
    },
    {
        "cidade": "Ariquemes",
        "uf": "RO",
        "latitude": -9.905711,
        "longitude": -63.032516,
        "empresa": "CLARO",
        "pf-ou-pj": "Pessoa Jurídica",
        "tecnologia": "ADSL1",
        "tipo-de-Produto": "OUTROS",
        "meio-de-acesso": "Cabo Metálico"
    },
    {
        "cidade": "Ariquemes",
        "uf": "RO",
        "latitude": -9.905711,
        "longitude": -63.032516,
        "empresa": "CLARO",
        "pf-ou-pj": "Pessoa Jurídica",
        "tecnologia": "FTTH",
        "tipo-de-Produto": "INTERNET",
        "meio-de-acesso": "Fibra"
    },
    {
        "cidade": "Ariquemes",
        "uf": "RO",
        "latitude": -9.905711,
        "longitude": -63.032516,
        "empresa": "CLARO",
        "pf-ou-pj": "Pessoa Jurídica",
        "tecnologia": "FTTH",
        "tipo-de-Produto": "LINHA_DEDICADA",
        "meio-de-acesso": "Fibra"
    },
    {
        "cidade": "Ariquemes",
        "uf": "RO",
        "latitude": -9.905711,
        "longitude": -63.032516,
        "empresa": "CLARO",
        "pf-ou-pj": "Pessoa Jurídica",
        "tecnologia": "FWA",
        "tipo-de-Produto": "LINHA_DEDICADA",
        "meio-de-acesso": "Rádio"
    },
    {
        "cidade": "Ariquemes",
        "uf": "RO",
        "latitude": -9.905711,
        "longitude": -63.032516,
        "empresa": "CLARO",
        "pf-ou-pj": "Pessoa Jurídica",
        "tecnologia": "VSAT",
        "tipo-de-Produto": "LINHA_DEDICADA",
        "meio-de-acesso": "Satélite"
    },
    {
        "cidade": "Buritis",
        "uf": "RO",
        "latitude": -10.194272,
        "longitude": -63.832438,
        "empresa": "CLARO",
        "pf-ou-pj": "Pessoa Jurídica",
        "tecnologia": "ADSL1",
        "tipo-de-Produto": "LINHA_DEDICADA",
        "meio-de-acesso": "Cabo Metálico"
    },
    {
        "cidade": "Buritis",
        "uf": "RO",
        "latitude": -10.194272,
        "longitude": -63.832438,
        "empresa": "CLARO",
        "pf-ou-pj": "Pessoa Jurídica",
        "tecnologia": "FTTH",
        "tipo-de-Produto": "INTERNET",
        "meio-de-acesso": "Fibra"
    },
    {
        "cidade": "Buritis",
        "uf": "RO",
        "latitude": -10.194272,
        "longitude": -63.832438,
        "empresa": "CLARO",
        "pf-ou-pj": "Pessoa Jurídica",
        "tecnologia": "FTTH",
        "tipo-de-Produto": "LINHA_DEDICADA",
        "meio-de-acesso": "Fibra"
    },
    {
        "cidade": "Buritis",
        "uf": "RO",
        "latitude": -10.194272,
        "longitude": -63.832438,
        "empresa": "CLARO",
        "pf-ou-pj": "Pessoa Jurídica",
        "tecnologia": "VSAT",
        "tipo-de-Produto": "LINHA_DEDICADA",
        "meio-de-acesso": "Satélite"
    },
    {
        "cidade": "Cabixi",
        "uf": "RO",
        "latitude": -13.494479,
        "longitude": -60.552032,
        "empresa": "CLARO",
        "pf-ou-pj": "Pessoa Jurídica",
        "tecnologia": "ADSL1",
        "tipo-de-Produto": "LINHA_DEDICADA",
        "meio-de-acesso": "Cabo Metálico"
    },
    {
        "cidade": "Cabixi",
        "uf": "RO",
        "latitude": -13.494479,
        "longitude": -60.552032,
        "empresa": "CLARO",
        "pf-ou-pj": "Pessoa Jurídica",
        "tecnologia": "ADSL1",
        "tipo-de-Produto": "OUTROS",
        "meio-de-acesso": "Cabo Metálico"
    },
    {
        "cidade": "Cabixi",
        "uf": "RO",
        "latitude": -13.494479,
        "longitude": -60.552032,
        "empresa": "CLARO",
        "pf-ou-pj": "Pessoa Jurídica",
        "tecnologia": "FTTH",
        "tipo-de-Produto": "INTERNET",
        "meio-de-acesso": "Fibra"
    },
    {
        "cidade": "Cabixi",
        "uf": "RO",
        "latitude": -13.494479,
        "longitude": -60.552032,
        "empresa": "CLARO",
        "pf-ou-pj": "Pessoa Jurídica",
        "tecnologia": "VSAT",
        "tipo-de-Produto": "LINHA_DEDICADA",
        "meio-de-acesso": "Satélite"
    },
    {
        "cidade": "Cacaulândia",
        "uf": "RO",
        "latitude": -10.348981,
        "longitude": -62.904328,
        "empresa": "CLARO",
        "pf-ou-pj": "Pessoa Jurídica",
        "tecnologia": "ADSL1",
        "tipo-de-Produto": "LINHA_DEDICADA",
        "meio-de-acesso": "Cabo Metálico"
    },
    {
        "cidade": "Cacaulândia",
        "uf": "RO",
        "latitude": -10.348981,
        "longitude": -62.904328,
        "empresa": "CLARO",
        "pf-ou-pj": "Pessoa Jurídica",
        "tecnologia": "ADSL1",
        "tipo-de-Produto": "OUTROS",
        "meio-de-acesso": "Cabo Metálico"
    },
    {
        "cidade": "Cacaulândia",
        "uf": "RO",
        "latitude": -10.348981,
        "longitude": -62.904328,
        "empresa": "CLARO",
        "pf-ou-pj": "Pessoa Jurídica",
        "tecnologia": "FTTH",
        "tipo-de-Produto": "INTERNET",
        "meio-de-acesso": "Fibra"
    },
    {
        "cidade": "Cacaulândia",
        "uf": "RO",
        "latitude": -10.348981,
        "longitude": -62.904328,
        "empresa": "CLARO",
        "pf-ou-pj": "Pessoa Jurídica",
        "tecnologia": "FTTH",
        "tipo-de-Produto": "LINHA_DEDICADA",
        "meio-de-acesso": "Fibra"
    },
    {
        "cidade": "Cacaulândia",
        "uf": "RO",
        "latitude": -10.348981,
        "longitude": -62.904328,
        "empresa": "CLARO",
        "pf-ou-pj": "Pessoa Jurídica",
        "tecnologia": "VSAT",
        "tipo-de-Produto": "LINHA_DEDICADA",
        "meio-de-acesso": "Satélite"
    },
    {
        "cidade": "Cacoal",
        "uf": "RO",
        "latitude": -11.434271,
        "longitude": -61.456167,
        "empresa": "CLARO",
        "pf-ou-pj": "Pessoa Jurídica",
        "tecnologia": "ADSL1",
        "tipo-de-Produto": "LINHA_DEDICADA",
        "meio-de-acesso": "Cabo Metálico"
    },
    {
        "cidade": "Cacoal",
        "uf": "RO",
        "latitude": -11.434271,
        "longitude": -61.456167,
        "empresa": "CLARO",
        "pf-ou-pj": "Pessoa Jurídica",
        "tecnologia": "ADSL1",
        "tipo-de-Produto": "OUTROS",
        "meio-de-acesso": "Cabo Metálico"
    },
    {
        "cidade": "Cacoal",
        "uf": "RO",
        "latitude": -11.434271,
        "longitude": -61.456167,
        "empresa": "CLARO",
        "pf-ou-pj": "Pessoa Jurídica",
        "tecnologia": "FTTH",
        "tipo-de-Produto": "INTERNET",
        "meio-de-acesso": "Fibra"
    },
    {
        "cidade": "Cacoal",
        "uf": "RO",
        "latitude": -11.434271,
        "longitude": -61.456167,
        "empresa": "CLARO",
        "pf-ou-pj": "Pessoa Jurídica",
        "tecnologia": "FTTH",
        "tipo-de-Produto": "LINHA_DEDICADA",
        "meio-de-acesso": "Fibra"
    },
    {
        "cidade": "Cacoal",
        "uf": "RO",
        "latitude": -11.434271,
        "longitude": -61.456167,
        "empresa": "CLARO",
        "pf-ou-pj": "Pessoa Jurídica",
        "tecnologia": "FWA",
        "tipo-de-Produto": "LINHA_DEDICADA",
        "meio-de-acesso": "Rádio"
    },
    {
        "cidade": "Cacoal",
        "uf": "RO",
        "latitude": -11.434271,
        "longitude": -61.456167,
        "empresa": "CLARO",
        "pf-ou-pj": "Pessoa Jurídica",
        "tecnologia": "HFC",
        "tipo-de-Produto": "INTERNET",
        "meio-de-acesso": "Cabo Coaxial"
    },
    {
        "cidade": "Cacoal",
        "uf": "RO",
        "latitude": -11.434271,
        "longitude": -61.456167,
        "empresa": "CLARO",
        "pf-ou-pj": "Pessoa Jurídica",
        "tecnologia": "VSAT",
        "tipo-de-Produto": "LINHA_DEDICADA",
        "meio-de-acesso": "Satélite"
    },
    {
        "cidade": "Campo Novo de Rondônia",
        "uf": "RO",
        "latitude": -10.57125,
        "longitude": -63.626551,
        "empresa": "CLARO",
        "pf-ou-pj": "Pessoa Jurídica",
        "tecnologia": "ADSL1",
        "tipo-de-Produto": "INTERNET",
        "meio-de-acesso": "Cabo Metálico"
    },
    {
        "cidade": "Campo Novo de Rondônia",
        "uf": "RO",
        "latitude": -10.57125,
        "longitude": -63.626551,
        "empresa": "CLARO",
        "pf-ou-pj": "Pessoa Jurídica",
        "tecnologia": "FTTH",
        "tipo-de-Produto": "LINHA_DEDICADA",
        "meio-de-acesso": "Fibra"
    },
    {
        "cidade": "Campo Novo de Rondônia",
        "uf": "RO",
        "latitude": -10.57125,
        "longitude": -63.626551,
        "empresa": "CLARO",
        "pf-ou-pj": "Pessoa Jurídica",
        "tecnologia": "VSAT",
        "tipo-de-Produto": "LINHA_DEDICADA",
        "meio-de-acesso": "Satélite"
    },
    {
        "cidade": "Candeias do Jamari",
        "uf": "RO",
        "latitude": -8.790696,
        "longitude": -63.700502,
        "empresa": "CLARO",
        "pf-ou-pj": "Pessoa Jurídica",
        "tecnologia": "ADSL1",
        "tipo-de-Produto": "LINHA_DEDICADA",
        "meio-de-acesso": "Cabo Metálico"
    },
    {
        "cidade": "Candeias do Jamari",
        "uf": "RO",
        "latitude": -8.790696,
        "longitude": -63.700502,
        "empresa": "CLARO",
        "pf-ou-pj": "Pessoa Jurídica",
        "tecnologia": "FTTH",
        "tipo-de-Produto": "INTERNET",
        "meio-de-acesso": "Fibra"
    },
    {
        "cidade": "Candeias do Jamari",
        "uf": "RO",
        "latitude": -8.790696,
        "longitude": -63.700502,
        "empresa": "CLARO",
        "pf-ou-pj": "Pessoa Jurídica",
        "tecnologia": "FTTH",
        "tipo-de-Produto": "LINHA_DEDICADA",
        "meio-de-acesso": "Fibra"
    },
    {
        "cidade": "Candeias do Jamari",
        "uf": "RO",
        "latitude": -8.790696,
        "longitude": -63.700502,
        "empresa": "CLARO",
        "pf-ou-pj": "Pessoa Jurídica",
        "tecnologia": "VSAT",
        "tipo-de-Produto": "LINHA_DEDICADA",
        "meio-de-acesso": "Satélite"
    },
    {
        "cidade": "Cerejeiras",
        "uf": "RO",
        "latitude": -13.186987,
        "longitude": -60.816836,
        "empresa": "CLARO",
        "pf-ou-pj": "Pessoa Jurídica",
        "tecnologia": "ADSL1",
        "tipo-de-Produto": "INTERNET",
        "meio-de-acesso": "Cabo Metálico"
    },
    {
        "cidade": "Cerejeiras",
        "uf": "RO",
        "latitude": -13.186987,
        "longitude": -60.816836,
        "empresa": "CLARO",
        "pf-ou-pj": "Pessoa Jurídica",
        "tecnologia": "ADSL1",
        "tipo-de-Produto": "OUTROS",
        "meio-de-acesso": "Cabo Metálico"
    },
    {
        "cidade": "Cerejeiras",
        "uf": "RO",
        "latitude": -13.186987,
        "longitude": -60.816836,
        "empresa": "CLARO",
        "pf-ou-pj": "Pessoa Jurídica",
        "tecnologia": "FTTH",
        "tipo-de-Produto": "LINHA_DEDICADA",
        "meio-de-acesso": "Fibra"
    },
    {
        "cidade": "Cerejeiras",
        "uf": "RO",
        "latitude": -13.186987,
        "longitude": -60.816836,
        "empresa": "CLARO",
        "pf-ou-pj": "Pessoa Jurídica",
        "tecnologia": "VSAT",
        "tipo-de-Produto": "LINHA_DEDICADA",
        "meio-de-acesso": "Satélite"
    },
    {
        "cidade": "Chupinguaia",
        "uf": "RO",
        "latitude": -12.561115,
        "longitude": -60.887694,
        "empresa": "CLARO",
        "pf-ou-pj": "Pessoa Jurídica",
        "tecnologia": "ADSL1",
        "tipo-de-Produto": "INTERNET",
        "meio-de-acesso": "Cabo Metálico"
    },
    {
        "cidade": "Chupinguaia",
        "uf": "RO",
        "latitude": -12.561115,
        "longitude": -60.887694,
        "empresa": "CLARO",
        "pf-ou-pj": "Pessoa Jurídica",
        "tecnologia": "ADSL1",
        "tipo-de-Produto": "LINHA_DEDICADA",
        "meio-de-acesso": "Cabo Metálico"
    },
    {
        "cidade": "Chupinguaia",
        "uf": "RO",
        "latitude": -12.561115,
        "longitude": -60.887694,
        "empresa": "CLARO",
        "pf-ou-pj": "Pessoa Jurídica",
        "tecnologia": "FTTH",
        "tipo-de-Produto": "LINHA_DEDICADA",
        "meio-de-acesso": "Fibra"
    },
    {
        "cidade": "Chupinguaia",
        "uf": "RO",
        "latitude": -12.561115,
        "longitude": -60.887694,
        "empresa": "CLARO",
        "pf-ou-pj": "Pessoa Jurídica",
        "tecnologia": "VSAT",
        "tipo-de-Produto": "LINHA_DEDICADA",
        "meio-de-acesso": "Satélite"
    },
    {
        "cidade": "Colorado do Oeste",
        "uf": "RO",
        "latitude": -13.117431,
        "longitude": -60.545428,
        "empresa": "CLARO",
        "pf-ou-pj": "Pessoa Jurídica",
        "tecnologia": "ADSL1",
        "tipo-de-Produto": "OUTROS",
        "meio-de-acesso": "Cabo Metálico"
    },
    {
        "cidade": "Colorado do Oeste",
        "uf": "RO",
        "latitude": -13.117431,
        "longitude": -60.545428,
        "empresa": "CLARO",
        "pf-ou-pj": "Pessoa Jurídica",
        "tecnologia": "FTTH",
        "tipo-de-Produto": "INTERNET",
        "meio-de-acesso": "Fibra"
    },
    {
        "cidade": "Colorado do Oeste",
        "uf": "RO",
        "latitude": -13.117431,
        "longitude": -60.545428,
        "empresa": "CLARO",
        "pf-ou-pj": "Pessoa Jurídica",
        "tecnologia": "FTTH",
        "tipo-de-Produto": "LINHA_DEDICADA",
        "meio-de-acesso": "Fibra"
    },
    {
        "cidade": "Colorado do Oeste",
        "uf": "RO",
        "latitude": -13.117431,
        "longitude": -60.545428,
        "empresa": "CLARO",
        "pf-ou-pj": "Pessoa Jurídica",
        "tecnologia": "VSAT",
        "tipo-de-Produto": "LINHA_DEDICADA",
        "meio-de-acesso": "Satélite"
    },
    {
        "cidade": "Corumbiara",
        "uf": "RO",
        "latitude": -12.955111,
        "longitude": -60.894732,
        "empresa": "CLARO",
        "pf-ou-pj": "Pessoa Jurídica",
        "tecnologia": "FTTH",
        "tipo-de-Produto": "INTERNET",
        "meio-de-acesso": "Fibra"
    },
    {
        "cidade": "Corumbiara",
        "uf": "RO",
        "latitude": -12.955111,
        "longitude": -60.894732,
        "empresa": "CLARO",
        "pf-ou-pj": "Pessoa Jurídica",
        "tecnologia": "FTTH",
        "tipo-de-Produto": "LINHA_DEDICADA",
        "meio-de-acesso": "Fibra"
    },
    {
        "cidade": "Corumbiara",
        "uf": "RO",
        "latitude": -12.955111,
        "longitude": -60.894732,
        "empresa": "CLARO",
        "pf-ou-pj": "Pessoa Jurídica",
        "tecnologia": "VSAT",
        "tipo-de-Produto": "LINHA_DEDICADA",
        "meio-de-acesso": "Satélite"
    },
    {
        "cidade": "Costa Marques",
        "uf": "RO",
        "latitude": -12.436715,
        "longitude": -64.22797,
        "empresa": "CLARO",
        "pf-ou-pj": "Pessoa Jurídica",
        "tecnologia": "ADSL1",
        "tipo-de-Produto": "LINHA_DEDICADA",
        "meio-de-acesso": "Cabo Metálico"
    },
    {
        "cidade": "Costa Marques",
        "uf": "RO",
        "latitude": -12.436715,
        "longitude": -64.22797,
        "empresa": "CLARO",
        "pf-ou-pj": "Pessoa Jurídica",
        "tecnologia": "ADSL1",
        "tipo-de-Produto": "OUTROS",
        "meio-de-acesso": "Cabo Metálico"
    },
    {
        "cidade": "Costa Marques",
        "uf": "RO",
        "latitude": -12.436715,
        "longitude": -64.22797,
        "empresa": "CLARO",
        "pf-ou-pj": "Pessoa Jurídica",
        "tecnologia": "FTTH",
        "tipo-de-Produto": "INTERNET",
        "meio-de-acesso": "Fibra"
    },
    {
        "cidade": "Costa Marques",
        "uf": "RO",
        "latitude": -12.436715,
        "longitude": -64.22797,
        "empresa": "CLARO",
        "pf-ou-pj": "Pessoa Jurídica",
        "tecnologia": "FTTH",
        "tipo-de-Produto": "LINHA_DEDICADA",
        "meio-de-acesso": "Fibra"
    },
    {
        "cidade": "Costa Marques",
        "uf": "RO",
        "latitude": -12.436715,
        "longitude": -64.22797,
        "empresa": "CLARO",
        "pf-ou-pj": "Pessoa Jurídica",
        "tecnologia": "VSAT",
        "tipo-de-Produto": "LINHA_DEDICADA",
        "meio-de-acesso": "Satélite"
    },
    {
        "cidade": "Cujubim",
        "uf": "RO",
        "latitude": -9.360655,
        "longitude": -62.584579,
        "empresa": "CLARO",
        "pf-ou-pj": "Pessoa Jurídica",
        "tecnologia": "ADSL1",
        "tipo-de-Produto": "LINHA_DEDICADA",
        "meio-de-acesso": "Cabo Metálico"
    },
    {
        "cidade": "Cujubim",
        "uf": "RO",
        "latitude": -9.360655,
        "longitude": -62.584579,
        "empresa": "CLARO",
        "pf-ou-pj": "Pessoa Jurídica",
        "tecnologia": "FTTH",
        "tipo-de-Produto": "INTERNET",
        "meio-de-acesso": "Fibra"
    },
    {
        "cidade": "Cujubim",
        "uf": "RO",
        "latitude": -9.360655,
        "longitude": -62.584579,
        "empresa": "CLARO",
        "pf-ou-pj": "Pessoa Jurídica",
        "tecnologia": "VSAT",
        "tipo-de-Produto": "LINHA_DEDICADA",
        "meio-de-acesso": "Satélite"
    },
    {
        "cidade": "Espigão D'Oeste",
        "uf": "RO",
        "latitude": null,
        "longitude": null,
        "empresa": "CLARO",
        "pf-ou-pj": "Pessoa Jurídica",
        "tecnologia": "ADSL1",
        "tipo-de-Produto": "OUTROS",
        "meio-de-acesso": "Cabo Metálico"
    },
    {
        "cidade": "Espigão D'Oeste",
        "uf": "RO",
        "latitude": null,
        "longitude": null,
        "empresa": "CLARO",
        "pf-ou-pj": "Pessoa Jurídica",
        "tecnologia": "FTTH",
        "tipo-de-Produto": "INTERNET",
        "meio-de-acesso": "Fibra"
    },
    {
        "cidade": "Espigão D'Oeste",
        "uf": "RO",
        "latitude": null,
        "longitude": null,
        "empresa": "CLARO",
        "pf-ou-pj": "Pessoa Jurídica",
        "tecnologia": "FTTH",
        "tipo-de-Produto": "LINHA_DEDICADA",
        "meio-de-acesso": "Fibra"
    },
    {
        "cidade": "Espigão D'Oeste",
        "uf": "RO",
        "latitude": null,
        "longitude": null,
        "empresa": "CLARO",
        "pf-ou-pj": "Pessoa Jurídica",
        "tecnologia": "VSAT",
        "tipo-de-Produto": "LINHA_DEDICADA",
        "meio-de-acesso": "Satélite"
    },
    {
        "cidade": "Governador Jorge Teixeira",
        "uf": "RO",
        "latitude": -10.610031,
        "longitude": -62.737071,
        "empresa": "CLARO",
        "pf-ou-pj": "Pessoa Jurídica",
        "tecnologia": "ADSL1",
        "tipo-de-Produto": "INTERNET",
        "meio-de-acesso": "Cabo Metálico"
    },
    {
        "cidade": "Governador Jorge Teixeira",
        "uf": "RO",
        "latitude": -10.610031,
        "longitude": -62.737071,
        "empresa": "CLARO",
        "pf-ou-pj": "Pessoa Jurídica",
        "tecnologia": "ADSL1",
        "tipo-de-Produto": "LINHA_DEDICADA",
        "meio-de-acesso": "Cabo Metálico"
    },
    {
        "cidade": "Governador Jorge Teixeira",
        "uf": "RO",
        "latitude": -10.610031,
        "longitude": -62.737071,
        "empresa": "CLARO",
        "pf-ou-pj": "Pessoa Jurídica",
        "tecnologia": "VSAT",
        "tipo-de-Produto": "LINHA_DEDICADA",
        "meio-de-acesso": "Satélite"
    },
    {
        "cidade": "Guajará-Mirim",
        "uf": "RO",
        "latitude": -10.788927,
        "longitude": -65.329566,
        "empresa": "CLARO",
        "pf-ou-pj": "Pessoa Jurídica",
        "tecnologia": "ADSL1",
        "tipo-de-Produto": "LINHA_DEDICADA",
        "meio-de-acesso": "Cabo Metálico"
    },
    {
        "cidade": "Guajará-Mirim",
        "uf": "RO",
        "latitude": -10.788927,
        "longitude": -65.329566,
        "empresa": "CLARO",
        "pf-ou-pj": "Pessoa Jurídica",
        "tecnologia": "ADSL1",
        "tipo-de-Produto": "OUTROS",
        "meio-de-acesso": "Cabo Metálico"
    },
    {
        "cidade": "Guajará-Mirim",
        "uf": "RO",
        "latitude": -10.788927,
        "longitude": -65.329566,
        "empresa": "CLARO",
        "pf-ou-pj": "Pessoa Jurídica",
        "tecnologia": "FTTH",
        "tipo-de-Produto": "INTERNET",
        "meio-de-acesso": "Fibra"
    },
    {
        "cidade": "Guajará-Mirim",
        "uf": "RO",
        "latitude": -10.788927,
        "longitude": -65.329566,
        "empresa": "CLARO",
        "pf-ou-pj": "Pessoa Jurídica",
        "tecnologia": "FTTH",
        "tipo-de-Produto": "LINHA_DEDICADA",
        "meio-de-acesso": "Fibra"
    },
    {
        "cidade": "Guajará-Mirim",
        "uf": "RO",
        "latitude": -10.788927,
        "longitude": -65.329566,
        "empresa": "CLARO",
        "pf-ou-pj": "Pessoa Jurídica",
        "tecnologia": "VSAT",
        "tipo-de-Produto": "INTERNET",
        "meio-de-acesso": "Satélite"
    },
    {
        "cidade": "Guajará-Mirim",
        "uf": "RO",
        "latitude": -10.788927,
        "longitude": -65.329566,
        "empresa": "CLARO",
        "pf-ou-pj": "Pessoa Jurídica",
        "tecnologia": "VSAT",
        "tipo-de-Produto": "LINHA_DEDICADA",
        "meio-de-acesso": "Satélite"
    },
    {
        "cidade": "Itapuã do Oeste",
        "uf": "RO",
        "latitude": -9.196871,
        "longitude": -63.180878,
        "empresa": "CLARO",
        "pf-ou-pj": "Pessoa Jurídica",
        "tecnologia": "ADSL1",
        "tipo-de-Produto": "INTERNET",
        "meio-de-acesso": "Cabo Metálico"
    },
    {
        "cidade": "Itapuã do Oeste",
        "uf": "RO",
        "latitude": -9.196871,
        "longitude": -63.180878,
        "empresa": "CLARO",
        "pf-ou-pj": "Pessoa Jurídica",
        "tecnologia": "FTTH",
        "tipo-de-Produto": "LINHA_DEDICADA",
        "meio-de-acesso": "Fibra"
    },
    {
        "cidade": "Itapuã do Oeste",
        "uf": "RO",
        "latitude": -9.196871,
        "longitude": -63.180878,
        "empresa": "CLARO",
        "pf-ou-pj": "Pessoa Jurídica",
        "tecnologia": "VSAT",
        "tipo-de-Produto": "LINHA_DEDICADA",
        "meio-de-acesso": "Satélite"
    },
    {
        "cidade": "Jaru",
        "uf": "RO",
        "latitude": -10.431826,
        "longitude": -62.478769,
        "empresa": "CLARO",
        "pf-ou-pj": "Pessoa Jurídica",
        "tecnologia": "ADSL1",
        "tipo-de-Produto": "INTERNET",
        "meio-de-acesso": "Cabo Metálico"
    },
    {
        "cidade": "Jaru",
        "uf": "RO",
        "latitude": -10.431826,
        "longitude": -62.478769,
        "empresa": "CLARO",
        "pf-ou-pj": "Pessoa Jurídica",
        "tecnologia": "ADSL1",
        "tipo-de-Produto": "LINHA_DEDICADA",
        "meio-de-acesso": "Cabo Metálico"
    },
    {
        "cidade": "Jaru",
        "uf": "RO",
        "latitude": -10.431826,
        "longitude": -62.478769,
        "empresa": "CLARO",
        "pf-ou-pj": "Pessoa Jurídica",
        "tecnologia": "FTTH",
        "tipo-de-Produto": "INTERNET",
        "meio-de-acesso": "Fibra"
    },
    {
        "cidade": "Jaru",
        "uf": "RO",
        "latitude": -10.431826,
        "longitude": -62.478769,
        "empresa": "CLARO",
        "pf-ou-pj": "Pessoa Jurídica",
        "tecnologia": "FTTH",
        "tipo-de-Produto": "LINHA_DEDICADA",
        "meio-de-acesso": "Fibra"
    },
    {
        "cidade": "Jaru",
        "uf": "RO",
        "latitude": -10.431826,
        "longitude": -62.478769,
        "empresa": "CLARO",
        "pf-ou-pj": "Pessoa Jurídica",
        "tecnologia": "FWA",
        "tipo-de-Produto": "LINHA_DEDICADA",
        "meio-de-acesso": "Rádio"
    },
    {
        "cidade": "Jaru",
        "uf": "RO",
        "latitude": -10.431826,
        "longitude": -62.478769,
        "empresa": "CLARO",
        "pf-ou-pj": "Pessoa Jurídica",
        "tecnologia": "VSAT",
        "tipo-de-Produto": "LINHA_DEDICADA",
        "meio-de-acesso": "Satélite"
    },
    {
        "cidade": "Ji-Paraná",
        "uf": "RO",
        "latitude": -10.877741,
        "longitude": -61.932152,
        "empresa": "CLARO",
        "pf-ou-pj": "Pessoa Jurídica",
        "tecnologia": "ADSL1",
        "tipo-de-Produto": "INTERNET",
        "meio-de-acesso": "Cabo Metálico"
    },
    {
        "cidade": "Ji-Paraná",
        "uf": "RO",
        "latitude": -10.877741,
        "longitude": -61.932152,
        "empresa": "CLARO",
        "pf-ou-pj": "Pessoa Jurídica",
        "tecnologia": "ADSL1",
        "tipo-de-Produto": "LINHA_DEDICADA",
        "meio-de-acesso": "Cabo Metálico"
    },
    {
        "cidade": "Ji-Paraná",
        "uf": "RO",
        "latitude": -10.877741,
        "longitude": -61.932152,
        "empresa": "CLARO",
        "pf-ou-pj": "Pessoa Jurídica",
        "tecnologia": "ADSL1",
        "tipo-de-Produto": "OUTROS",
        "meio-de-acesso": "Cabo Metálico"
    },
    {
        "cidade": "Ji-Paraná",
        "uf": "RO",
        "latitude": -10.877741,
        "longitude": -61.932152,
        "empresa": "CLARO",
        "pf-ou-pj": "Pessoa Jurídica",
        "tecnologia": "FTTH",
        "tipo-de-Produto": "INTERNET",
        "meio-de-acesso": "Fibra"
    },
    {
        "cidade": "Ji-Paraná",
        "uf": "RO",
        "latitude": -10.877741,
        "longitude": -61.932152,
        "empresa": "CLARO",
        "pf-ou-pj": "Pessoa Jurídica",
        "tecnologia": "FTTH",
        "tipo-de-Produto": "LINHA_DEDICADA",
        "meio-de-acesso": "Fibra"
    },
    {
        "cidade": "Ji-Paraná",
        "uf": "RO",
        "latitude": -10.877741,
        "longitude": -61.932152,
        "empresa": "CLARO",
        "pf-ou-pj": "Pessoa Jurídica",
        "tecnologia": "FWA",
        "tipo-de-Produto": "LINHA_DEDICADA",
        "meio-de-acesso": "Rádio"
    },
    {
        "cidade": "Ji-Paraná",
        "uf": "RO",
        "latitude": -10.877741,
        "longitude": -61.932152,
        "empresa": "CLARO",
        "pf-ou-pj": "Pessoa Jurídica",
        "tecnologia": "HFC",
        "tipo-de-Produto": "INTERNET",
        "meio-de-acesso": "Cabo Coaxial"
    },
    {
        "cidade": "Ji-Paraná",
        "uf": "RO",
        "latitude": -10.877741,
        "longitude": -61.932152,
        "empresa": "CLARO",
        "pf-ou-pj": "Pessoa Jurídica",
        "tecnologia": "VSAT",
        "tipo-de-Produto": "LINHA_DEDICADA",
        "meio-de-acesso": "Satélite"
    },
    {
        "cidade": "Machadinho D'Oeste",
        "uf": "RO",
        "latitude": null,
        "longitude": null,
        "empresa": "CLARO",
        "pf-ou-pj": "Pessoa Jurídica",
        "tecnologia": "ADSL1",
        "tipo-de-Produto": "LINHA_DEDICADA",
        "meio-de-acesso": "Cabo Metálico"
    },
    {
        "cidade": "Machadinho D'Oeste",
        "uf": "RO",
        "latitude": null,
        "longitude": null,
        "empresa": "CLARO",
        "pf-ou-pj": "Pessoa Jurídica",
        "tecnologia": "ADSL1",
        "tipo-de-Produto": "OUTROS",
        "meio-de-acesso": "Cabo Metálico"
    },
    {
        "cidade": "Machadinho D'Oeste",
        "uf": "RO",
        "latitude": null,
        "longitude": null,
        "empresa": "CLARO",
        "pf-ou-pj": "Pessoa Jurídica",
        "tecnologia": "FTTH",
        "tipo-de-Produto": "INTERNET",
        "meio-de-acesso": "Fibra"
    },
    {
        "cidade": "Machadinho D'Oeste",
        "uf": "RO",
        "latitude": null,
        "longitude": null,
        "empresa": "CLARO",
        "pf-ou-pj": "Pessoa Jurídica",
        "tecnologia": "FTTH",
        "tipo-de-Produto": "LINHA_DEDICADA",
        "meio-de-acesso": "Fibra"
    },
    {
        "cidade": "Machadinho D'Oeste",
        "uf": "RO",
        "latitude": null,
        "longitude": null,
        "empresa": "CLARO",
        "pf-ou-pj": "Pessoa Jurídica",
        "tecnologia": "VSAT",
        "tipo-de-Produto": "INTERNET",
        "meio-de-acesso": "Satélite"
    },
    {
        "cidade": "Machadinho D'Oeste",
        "uf": "RO",
        "latitude": null,
        "longitude": null,
        "empresa": "CLARO",
        "pf-ou-pj": "Pessoa Jurídica",
        "tecnologia": "VSAT",
        "tipo-de-Produto": "LINHA_DEDICADA",
        "meio-de-acesso": "Satélite"
    },
    {
        "cidade": "Ministro Andreazza",
        "uf": "RO",
        "latitude": -11.19596,
        "longitude": -61.517437,
        "empresa": "CLARO",
        "pf-ou-pj": "Pessoa Jurídica",
        "tecnologia": "ADSL1",
        "tipo-de-Produto": "LINHA_DEDICADA",
        "meio-de-acesso": "Cabo Metálico"
    },
    {
        "cidade": "Ministro Andreazza",
        "uf": "RO",
        "latitude": -11.19596,
        "longitude": -61.517437,
        "empresa": "CLARO",
        "pf-ou-pj": "Pessoa Jurídica",
        "tecnologia": "FTTH",
        "tipo-de-Produto": "INTERNET",
        "meio-de-acesso": "Fibra"
    },
    {
        "cidade": "Ministro Andreazza",
        "uf": "RO",
        "latitude": -11.19596,
        "longitude": -61.517437,
        "empresa": "CLARO",
        "pf-ou-pj": "Pessoa Jurídica",
        "tecnologia": "FTTH",
        "tipo-de-Produto": "LINHA_DEDICADA",
        "meio-de-acesso": "Fibra"
    },
    {
        "cidade": "Ministro Andreazza",
        "uf": "RO",
        "latitude": -11.19596,
        "longitude": -61.517437,
        "empresa": "CLARO",
        "pf-ou-pj": "Pessoa Jurídica",
        "tecnologia": "VSAT",
        "tipo-de-Produto": "LINHA_DEDICADA",
        "meio-de-acesso": "Satélite"
    },
    {
        "cidade": "Mirante da Serra",
        "uf": "RO",
        "latitude": -11.028967,
        "longitude": -62.669593,
        "empresa": "CLARO",
        "pf-ou-pj": "Pessoa Jurídica",
        "tecnologia": "ADSL1",
        "tipo-de-Produto": "INTERNET",
        "meio-de-acesso": "Cabo Metálico"
    },
    {
        "cidade": "Mirante da Serra",
        "uf": "RO",
        "latitude": -11.028967,
        "longitude": -62.669593,
        "empresa": "CLARO",
        "pf-ou-pj": "Pessoa Jurídica",
        "tecnologia": "ADSL1",
        "tipo-de-Produto": "LINHA_DEDICADA",
        "meio-de-acesso": "Cabo Metálico"
    },
    {
        "cidade": "Mirante da Serra",
        "uf": "RO",
        "latitude": -11.028967,
        "longitude": -62.669593,
        "empresa": "CLARO",
        "pf-ou-pj": "Pessoa Jurídica",
        "tecnologia": "FTTH",
        "tipo-de-Produto": "LINHA_DEDICADA",
        "meio-de-acesso": "Fibra"
    },
    {
        "cidade": "Mirante da Serra",
        "uf": "RO",
        "latitude": -11.028967,
        "longitude": -62.669593,
        "empresa": "CLARO",
        "pf-ou-pj": "Pessoa Jurídica",
        "tecnologia": "VSAT",
        "tipo-de-Produto": "LINHA_DEDICADA",
        "meio-de-acesso": "Satélite"
    },
    {
        "cidade": "Monte Negro",
        "uf": "RO",
        "latitude": -10.245823,
        "longitude": -63.289988,
        "empresa": "CLARO",
        "pf-ou-pj": "Pessoa Jurídica",
        "tecnologia": "ADSL1",
        "tipo-de-Produto": "INTERNET",
        "meio-de-acesso": "Cabo Metálico"
    },
    {
        "cidade": "Monte Negro",
        "uf": "RO",
        "latitude": -10.245823,
        "longitude": -63.289988,
        "empresa": "CLARO",
        "pf-ou-pj": "Pessoa Jurídica",
        "tecnologia": "FTTH",
        "tipo-de-Produto": "LINHA_DEDICADA",
        "meio-de-acesso": "Fibra"
    },
    {
        "cidade": "Monte Negro",
        "uf": "RO",
        "latitude": -10.245823,
        "longitude": -63.289988,
        "empresa": "CLARO",
        "pf-ou-pj": "Pessoa Jurídica",
        "tecnologia": "VSAT",
        "tipo-de-Produto": "LINHA_DEDICADA",
        "meio-de-acesso": "Satélite"
    },
    {
        "cidade": "Nova Brasilândia D'Oeste",
        "uf": "RO",
        "latitude": null,
        "longitude": null,
        "empresa": "CLARO",
        "pf-ou-pj": "Pessoa Jurídica",
        "tecnologia": "ADSL1",
        "tipo-de-Produto": "INTERNET",
        "meio-de-acesso": "Cabo Metálico"
    },
    {
        "cidade": "Nova Brasilândia D'Oeste",
        "uf": "RO",
        "latitude": null,
        "longitude": null,
        "empresa": "CLARO",
        "pf-ou-pj": "Pessoa Jurídica",
        "tecnologia": "FTTH",
        "tipo-de-Produto": "LINHA_DEDICADA",
        "meio-de-acesso": "Fibra"
    },
    {
        "cidade": "Nova Brasilândia D'Oeste",
        "uf": "RO",
        "latitude": null,
        "longitude": null,
        "empresa": "CLARO",
        "pf-ou-pj": "Pessoa Jurídica",
        "tecnologia": "VSAT",
        "tipo-de-Produto": "LINHA_DEDICADA",
        "meio-de-acesso": "Satélite"
    },
    {
        "cidade": "Nova Mamoré",
        "uf": "RO",
        "latitude": -10.407697,
        "longitude": -65.334596,
        "empresa": "CLARO",
        "pf-ou-pj": "Pessoa Jurídica",
        "tecnologia": "ADSL1",
        "tipo-de-Produto": "LINHA_DEDICADA",
        "meio-de-acesso": "Cabo Metálico"
    },
    {
        "cidade": "Nova Mamoré",
        "uf": "RO",
        "latitude": -10.407697,
        "longitude": -65.334596,
        "empresa": "CLARO",
        "pf-ou-pj": "Pessoa Jurídica",
        "tecnologia": "ADSL1",
        "tipo-de-Produto": "OUTROS",
        "meio-de-acesso": "Cabo Metálico"
    },
    {
        "cidade": "Nova Mamoré",
        "uf": "RO",
        "latitude": -10.407697,
        "longitude": -65.334596,
        "empresa": "CLARO",
        "pf-ou-pj": "Pessoa Jurídica",
        "tecnologia": "FTTH",
        "tipo-de-Produto": "INTERNET",
        "meio-de-acesso": "Fibra"
    },
    {
        "cidade": "Nova Mamoré",
        "uf": "RO",
        "latitude": -10.407697,
        "longitude": -65.334596,
        "empresa": "CLARO",
        "pf-ou-pj": "Pessoa Jurídica",
        "tecnologia": "FTTH",
        "tipo-de-Produto": "LINHA_DEDICADA",
        "meio-de-acesso": "Fibra"
    },
    {
        "cidade": "Nova Mamoré",
        "uf": "RO",
        "latitude": -10.407697,
        "longitude": -65.334596,
        "empresa": "CLARO",
        "pf-ou-pj": "Pessoa Jurídica",
        "tecnologia": "VSAT",
        "tipo-de-Produto": "LINHA_DEDICADA",
        "meio-de-acesso": "Satélite"
    },
    {
        "cidade": "Nova União",
        "uf": "RO",
        "latitude": -10.90681,
        "longitude": -62.556368,
        "empresa": "CLARO",
        "pf-ou-pj": "Pessoa Jurídica",
        "tecnologia": "FTTH",
        "tipo-de-Produto": "INTERNET",
        "meio-de-acesso": "Fibra"
    },
    {
        "cidade": "Nova União",
        "uf": "RO",
        "latitude": -10.90681,
        "longitude": -62.556368,
        "empresa": "CLARO",
        "pf-ou-pj": "Pessoa Jurídica",
        "tecnologia": "VSAT",
        "tipo-de-Produto": "LINHA_DEDICADA",
        "meio-de-acesso": "Satélite"
    },
    {
        "cidade": "Novo Horizonte do Oeste",
        "uf": "RO",
        "latitude": -11.696145,
        "longitude": -61.995137,
        "empresa": "CLARO",
        "pf-ou-pj": "Pessoa Jurídica",
        "tecnologia": "FTTH",
        "tipo-de-Produto": "INTERNET",
        "meio-de-acesso": "Fibra"
    },
    {
        "cidade": "Novo Horizonte do Oeste",
        "uf": "RO",
        "latitude": -11.696145,
        "longitude": -61.995137,
        "empresa": "CLARO",
        "pf-ou-pj": "Pessoa Jurídica",
        "tecnologia": "FTTH",
        "tipo-de-Produto": "LINHA_DEDICADA",
        "meio-de-acesso": "Fibra"
    },
    {
        "cidade": "Novo Horizonte do Oeste",
        "uf": "RO",
        "latitude": -11.696145,
        "longitude": -61.995137,
        "empresa": "CLARO",
        "pf-ou-pj": "Pessoa Jurídica",
        "tecnologia": "VSAT",
        "tipo-de-Produto": "LINHA_DEDICADA",
        "meio-de-acesso": "Satélite"
    },
    {
        "cidade": "Ouro Preto do Oeste",
        "uf": "RO",
        "latitude": -10.716717,
        "longitude": -62.256532,
        "empresa": "CLARO",
        "pf-ou-pj": "Pessoa Jurídica",
        "tecnologia": "ADSL1",
        "tipo-de-Produto": "INTERNET",
        "meio-de-acesso": "Cabo Metálico"
    },
    {
        "cidade": "Ouro Preto do Oeste",
        "uf": "RO",
        "latitude": -10.716717,
        "longitude": -62.256532,
        "empresa": "CLARO",
        "pf-ou-pj": "Pessoa Jurídica",
        "tecnologia": "ADSL1",
        "tipo-de-Produto": "LINHA_DEDICADA",
        "meio-de-acesso": "Cabo Metálico"
    },
    {
        "cidade": "Ouro Preto do Oeste",
        "uf": "RO",
        "latitude": -10.716717,
        "longitude": -62.256532,
        "empresa": "CLARO",
        "pf-ou-pj": "Pessoa Jurídica",
        "tecnologia": "FTTH",
        "tipo-de-Produto": "INTERNET",
        "meio-de-acesso": "Fibra"
    },
    {
        "cidade": "Ouro Preto do Oeste",
        "uf": "RO",
        "latitude": -10.716717,
        "longitude": -62.256532,
        "empresa": "CLARO",
        "pf-ou-pj": "Pessoa Jurídica",
        "tecnologia": "FTTH",
        "tipo-de-Produto": "LINHA_DEDICADA",
        "meio-de-acesso": "Fibra"
    },
    {
        "cidade": "Ouro Preto do Oeste",
        "uf": "RO",
        "latitude": -10.716717,
        "longitude": -62.256532,
        "empresa": "CLARO",
        "pf-ou-pj": "Pessoa Jurídica",
        "tecnologia": "FWA",
        "tipo-de-Produto": "LINHA_DEDICADA",
        "meio-de-acesso": "Rádio"
    },
    {
        "cidade": "Ouro Preto do Oeste",
        "uf": "RO",
        "latitude": -10.716717,
        "longitude": -62.256532,
        "empresa": "CLARO",
        "pf-ou-pj": "Pessoa Jurídica",
        "tecnologia": "VSAT",
        "tipo-de-Produto": "LINHA_DEDICADA",
        "meio-de-acesso": "Satélite"
    },
    {
        "cidade": "Parecis",
        "uf": "RO",
        "latitude": -12.175416,
        "longitude": -61.603225,
        "empresa": "CLARO",
        "pf-ou-pj": "Pessoa Jurídica",
        "tecnologia": "ADSL1",
        "tipo-de-Produto": "LINHA_DEDICADA",
        "meio-de-acesso": "Cabo Metálico"
    },
    {
        "cidade": "Parecis",
        "uf": "RO",
        "latitude": -12.175416,
        "longitude": -61.603225,
        "empresa": "CLARO",
        "pf-ou-pj": "Pessoa Jurídica",
        "tecnologia": "VSAT",
        "tipo-de-Produto": "LINHA_DEDICADA",
        "meio-de-acesso": "Satélite"
    },
    {
        "cidade": "Pimenta Bueno",
        "uf": "RO",
        "latitude": -11.671959,
        "longitude": -61.197963,
        "empresa": "CLARO",
        "pf-ou-pj": "Pessoa Jurídica",
        "tecnologia": "ADSL1",
        "tipo-de-Produto": "LINHA_DEDICADA",
        "meio-de-acesso": "Cabo Metálico"
    },
    {
        "cidade": "Pimenta Bueno",
        "uf": "RO",
        "latitude": -11.671959,
        "longitude": -61.197963,
        "empresa": "CLARO",
        "pf-ou-pj": "Pessoa Jurídica",
        "tecnologia": "ADSL1",
        "tipo-de-Produto": "OUTROS",
        "meio-de-acesso": "Cabo Metálico"
    },
    {
        "cidade": "Pimenta Bueno",
        "uf": "RO",
        "latitude": -11.671959,
        "longitude": -61.197963,
        "empresa": "CLARO",
        "pf-ou-pj": "Pessoa Jurídica",
        "tecnologia": "FTTH",
        "tipo-de-Produto": "INTERNET",
        "meio-de-acesso": "Fibra"
    },
    {
        "cidade": "Pimenta Bueno",
        "uf": "RO",
        "latitude": -11.671959,
        "longitude": -61.197963,
        "empresa": "CLARO",
        "pf-ou-pj": "Pessoa Jurídica",
        "tecnologia": "FTTH",
        "tipo-de-Produto": "LINHA_DEDICADA",
        "meio-de-acesso": "Fibra"
    },
    {
        "cidade": "Pimenta Bueno",
        "uf": "RO",
        "latitude": -11.671959,
        "longitude": -61.197963,
        "empresa": "CLARO",
        "pf-ou-pj": "Pessoa Jurídica",
        "tecnologia": "VSAT",
        "tipo-de-Produto": "LINHA_DEDICADA",
        "meio-de-acesso": "Satélite"
    },
    {
        "cidade": "Pimenteiras do Oeste",
        "uf": "RO",
        "latitude": -13.482271,
        "longitude": -61.047052,
        "empresa": "CLARO",
        "pf-ou-pj": "Pessoa Jurídica",
        "tecnologia": "VSAT",
        "tipo-de-Produto": "LINHA_DEDICADA",
        "meio-de-acesso": "Satélite"
    },
    {
        "cidade": "Porto Velho",
        "uf": "RO",
        "latitude": -8.760772,
        "longitude": -63.899902,
        "empresa": "CLARO",
        "pf-ou-pj": "Pessoa Jurídica",
        "tecnologia": "ADSL1",
        "tipo-de-Produto": "INTERNET",
        "meio-de-acesso": "Cabo Metálico"
    },
    {
        "cidade": "Porto Velho",
        "uf": "RO",
        "latitude": -8.760772,
        "longitude": -63.899902,
        "empresa": "CLARO",
        "pf-ou-pj": "Pessoa Jurídica",
        "tecnologia": "ADSL1",
        "tipo-de-Produto": "LINHA_DEDICADA",
        "meio-de-acesso": "Cabo Metálico"
    },
    {
        "cidade": "Porto Velho",
        "uf": "RO",
        "latitude": -8.760772,
        "longitude": -63.899902,
        "empresa": "CLARO",
        "pf-ou-pj": "Pessoa Jurídica",
        "tecnologia": "ADSL1",
        "tipo-de-Produto": "OUTROS",
        "meio-de-acesso": "Cabo Metálico"
    },
    {
        "cidade": "Porto Velho",
        "uf": "RO",
        "latitude": -8.760772,
        "longitude": -63.899902,
        "empresa": "CLARO",
        "pf-ou-pj": "Pessoa Jurídica",
        "tecnologia": "FTTH",
        "tipo-de-Produto": "INTERNET",
        "meio-de-acesso": "Fibra"
    },
    {
        "cidade": "Porto Velho",
        "uf": "RO",
        "latitude": -8.760772,
        "longitude": -63.899902,
        "empresa": "CLARO",
        "pf-ou-pj": "Pessoa Jurídica",
        "tecnologia": "FTTH",
        "tipo-de-Produto": "LINHA_DEDICADA",
        "meio-de-acesso": "Fibra"
    },
    {
        "cidade": "Porto Velho",
        "uf": "RO",
        "latitude": -8.760772,
        "longitude": -63.899902,
        "empresa": "CLARO",
        "pf-ou-pj": "Pessoa Jurídica",
        "tecnologia": "FTTH",
        "tipo-de-Produto": "OUTROS",
        "meio-de-acesso": "Fibra"
    },
    {
        "cidade": "Porto Velho",
        "uf": "RO",
        "latitude": -8.760772,
        "longitude": -63.899902,
        "empresa": "CLARO",
        "pf-ou-pj": "Pessoa Jurídica",
        "tecnologia": "FWA",
        "tipo-de-Produto": "LINHA_DEDICADA",
        "meio-de-acesso": "Rádio"
    },
    {
        "cidade": "Porto Velho",
        "uf": "RO",
        "latitude": -8.760772,
        "longitude": -63.899902,
        "empresa": "CLARO",
        "pf-ou-pj": "Pessoa Jurídica",
        "tecnologia": "HFC",
        "tipo-de-Produto": "INTERNET",
        "meio-de-acesso": "Cabo Coaxial"
    },
    {
        "cidade": "Porto Velho",
        "uf": "RO",
        "latitude": -8.760772,
        "longitude": -63.899902,
        "empresa": "CLARO",
        "pf-ou-pj": "Pessoa Jurídica",
        "tecnologia": "HFC",
        "tipo-de-Produto": "LINHA_DEDICADA",
        "meio-de-acesso": "Cabo Coaxial"
    },
    {
        "cidade": "Porto Velho",
        "uf": "RO",
        "latitude": -8.760772,
        "longitude": -63.899902,
        "empresa": "CLARO",
        "pf-ou-pj": "Pessoa Jurídica",
        "tecnologia": "VSAT",
        "tipo-de-Produto": "LINHA_DEDICADA",
        "meio-de-acesso": "Satélite"
    },
    {
        "cidade": "Porto Velho",
        "uf": "RO",
        "latitude": -8.760772,
        "longitude": -63.899902,
        "empresa": "CLARO",
        "pf-ou-pj": "Pessoa Jurídica",
        "tecnologia": "WIMAX",
        "tipo-de-Produto": "OUTROS",
        "meio-de-acesso": "Rádio"
    },
    {
        "cidade": "Presidente Médici",
        "uf": "RO",
        "latitude": -11.168974,
        "longitude": -61.898617,
        "empresa": "CLARO",
        "pf-ou-pj": "Pessoa Jurídica",
        "tecnologia": "FTTH",
        "tipo-de-Produto": "INTERNET",
        "meio-de-acesso": "Fibra"
    },
    {
        "cidade": "Presidente Médici",
        "uf": "RO",
        "latitude": -11.168974,
        "longitude": -61.898617,
        "empresa": "CLARO",
        "pf-ou-pj": "Pessoa Jurídica",
        "tecnologia": "FTTH",
        "tipo-de-Produto": "LINHA_DEDICADA",
        "meio-de-acesso": "Fibra"
    },
    {
        "cidade": "Presidente Médici",
        "uf": "RO",
        "latitude": -11.168974,
        "longitude": -61.898617,
        "empresa": "CLARO",
        "pf-ou-pj": "Pessoa Jurídica",
        "tecnologia": "FWA",
        "tipo-de-Produto": "LINHA_DEDICADA",
        "meio-de-acesso": "Rádio"
    },
    {
        "cidade": "Presidente Médici",
        "uf": "RO",
        "latitude": -11.168974,
        "longitude": -61.898617,
        "empresa": "CLARO",
        "pf-ou-pj": "Pessoa Jurídica",
        "tecnologia": "VSAT",
        "tipo-de-Produto": "LINHA_DEDICADA",
        "meio-de-acesso": "Satélite"
    },
    {
        "cidade": "Primavera de Rondônia",
        "uf": "RO",
        "latitude": -11.829456,
        "longitude": -61.315336,
        "empresa": "CLARO",
        "pf-ou-pj": "Pessoa Jurídica",
        "tecnologia": "VSAT",
        "tipo-de-Produto": "LINHA_DEDICADA",
        "meio-de-acesso": "Satélite"
    },
    {
        "cidade": "Rio Crespo",
        "uf": "RO",
        "latitude": -9.699648,
        "longitude": -62.901127,
        "empresa": "CLARO",
        "pf-ou-pj": "Pessoa Jurídica",
        "tecnologia": "FTTH",
        "tipo-de-Produto": "LINHA_DEDICADA",
        "meio-de-acesso": "Fibra"
    },
    {
        "cidade": "Rio Crespo",
        "uf": "RO",
        "latitude": -9.699648,
        "longitude": -62.901127,
        "empresa": "CLARO",
        "pf-ou-pj": "Pessoa Jurídica",
        "tecnologia": "VSAT",
        "tipo-de-Produto": "LINHA_DEDICADA",
        "meio-de-acesso": "Satélite"
    },
    {
        "cidade": "Rolim de Moura",
        "uf": "RO",
        "latitude": -11.727071,
        "longitude": -61.771411,
        "empresa": "CLARO",
        "pf-ou-pj": "Pessoa Jurídica",
        "tecnologia": "ADSL1",
        "tipo-de-Produto": "OUTROS",
        "meio-de-acesso": "Cabo Metálico"
    },
    {
        "cidade": "Rolim de Moura",
        "uf": "RO",
        "latitude": -11.727071,
        "longitude": -61.771411,
        "empresa": "CLARO",
        "pf-ou-pj": "Pessoa Jurídica",
        "tecnologia": "FTTH",
        "tipo-de-Produto": "INTERNET",
        "meio-de-acesso": "Fibra"
    },
    {
        "cidade": "Rolim de Moura",
        "uf": "RO",
        "latitude": -11.727071,
        "longitude": -61.771411,
        "empresa": "CLARO",
        "pf-ou-pj": "Pessoa Jurídica",
        "tecnologia": "FTTH",
        "tipo-de-Produto": "LINHA_DEDICADA",
        "meio-de-acesso": "Fibra"
    },
    {
        "cidade": "Rolim de Moura",
        "uf": "RO",
        "latitude": -11.727071,
        "longitude": -61.771411,
        "empresa": "CLARO",
        "pf-ou-pj": "Pessoa Jurídica",
        "tecnologia": "VSAT",
        "tipo-de-Produto": "LINHA_DEDICADA",
        "meio-de-acesso": "Satélite"
    },
    {
        "cidade": "Santa Luzia D'Oeste",
        "uf": "RO",
        "latitude": null,
        "longitude": null,
        "empresa": "CLARO",
        "pf-ou-pj": "Pessoa Jurídica",
        "tecnologia": "FTTH",
        "tipo-de-Produto": "INTERNET",
        "meio-de-acesso": "Fibra"
    },
    {
        "cidade": "Santa Luzia D'Oeste",
        "uf": "RO",
        "latitude": null,
        "longitude": null,
        "empresa": "CLARO",
        "pf-ou-pj": "Pessoa Jurídica",
        "tecnologia": "FTTH",
        "tipo-de-Produto": "LINHA_DEDICADA",
        "meio-de-acesso": "Fibra"
    },
    {
        "cidade": "Santa Luzia D'Oeste",
        "uf": "RO",
        "latitude": null,
        "longitude": null,
        "empresa": "CLARO",
        "pf-ou-pj": "Pessoa Jurídica",
        "tecnologia": "VSAT",
        "tipo-de-Produto": "LINHA_DEDICADA",
        "meio-de-acesso": "Satélite"
    },
    {
        "cidade": "Seringueiras",
        "uf": "RO",
        "latitude": -11.805454,
        "longitude": -63.018234,
        "empresa": "CLARO",
        "pf-ou-pj": "Pessoa Jurídica",
        "tecnologia": "FTTH",
        "tipo-de-Produto": "INTERNET",
        "meio-de-acesso": "Fibra"
    },
    {
        "cidade": "Seringueiras",
        "uf": "RO",
        "latitude": -11.805454,
        "longitude": -63.018234,
        "empresa": "CLARO",
        "pf-ou-pj": "Pessoa Jurídica",
        "tecnologia": "FTTH",
        "tipo-de-Produto": "LINHA_DEDICADA",
        "meio-de-acesso": "Fibra"
    },
    {
        "cidade": "Seringueiras",
        "uf": "RO",
        "latitude": -11.805454,
        "longitude": -63.018234,
        "empresa": "CLARO",
        "pf-ou-pj": "Pessoa Jurídica",
        "tecnologia": "VSAT",
        "tipo-de-Produto": "LINHA_DEDICADA",
        "meio-de-acesso": "Satélite"
    },
    {
        "cidade": "São Felipe D'Oeste",
        "uf": "RO",
        "latitude": null,
        "longitude": null,
        "empresa": "CLARO",
        "pf-ou-pj": "Pessoa Jurídica",
        "tecnologia": "FTTH",
        "tipo-de-Produto": "INTERNET",
        "meio-de-acesso": "Fibra"
    },
    {
        "cidade": "São Francisco do Guaporé",
        "uf": "RO",
        "latitude": -12.051977,
        "longitude": -63.567968,
        "empresa": "CLARO",
        "pf-ou-pj": "Pessoa Jurídica",
        "tecnologia": "FTTH",
        "tipo-de-Produto": "INTERNET",
        "meio-de-acesso": "Fibra"
    },
    {
        "cidade": "São Francisco do Guaporé",
        "uf": "RO",
        "latitude": -12.051977,
        "longitude": -63.567968,
        "empresa": "CLARO",
        "pf-ou-pj": "Pessoa Jurídica",
        "tecnologia": "FTTH",
        "tipo-de-Produto": "LINHA_DEDICADA",
        "meio-de-acesso": "Fibra"
    },
    {
        "cidade": "São Francisco do Guaporé",
        "uf": "RO",
        "latitude": -12.051977,
        "longitude": -63.567968,
        "empresa": "CLARO",
        "pf-ou-pj": "Pessoa Jurídica",
        "tecnologia": "VSAT",
        "tipo-de-Produto": "LINHA_DEDICADA",
        "meio-de-acesso": "Satélite"
    },
    {
        "cidade": "São Miguel do Guaporé",
        "uf": "RO",
        "latitude": -11.69527,
        "longitude": -62.719222,
        "empresa": "CLARO",
        "pf-ou-pj": "Pessoa Jurídica",
        "tecnologia": "FTTH",
        "tipo-de-Produto": "INTERNET",
        "meio-de-acesso": "Fibra"
    },
    {
        "cidade": "São Miguel do Guaporé",
        "uf": "RO",
        "latitude": -11.69527,
        "longitude": -62.719222,
        "empresa": "CLARO",
        "pf-ou-pj": "Pessoa Jurídica",
        "tecnologia": "FTTH",
        "tipo-de-Produto": "LINHA_DEDICADA",
        "meio-de-acesso": "Fibra"
    },
    {
        "cidade": "São Miguel do Guaporé",
        "uf": "RO",
        "latitude": -11.69527,
        "longitude": -62.719222,
        "empresa": "CLARO",
        "pf-ou-pj": "Pessoa Jurídica",
        "tecnologia": "VSAT",
        "tipo-de-Produto": "LINHA_DEDICADA",
        "meio-de-acesso": "Satélite"
    },
    {
        "cidade": "Teixeirópolis",
        "uf": "RO",
        "latitude": -10.905601,
        "longitude": -62.241993,
        "empresa": "CLARO",
        "pf-ou-pj": "Pessoa Jurídica",
        "tecnologia": "ADSL1",
        "tipo-de-Produto": "LINHA_DEDICADA",
        "meio-de-acesso": "Cabo Metálico"
    },
    {
        "cidade": "Teixeirópolis",
        "uf": "RO",
        "latitude": -10.905601,
        "longitude": -62.241993,
        "empresa": "CLARO",
        "pf-ou-pj": "Pessoa Jurídica",
        "tecnologia": "VSAT",
        "tipo-de-Produto": "LINHA_DEDICADA",
        "meio-de-acesso": "Satélite"
    },
    {
        "cidade": "Theobroma",
        "uf": "RO",
        "latitude": -10.24834,
        "longitude": -62.353796,
        "empresa": "CLARO",
        "pf-ou-pj": "Pessoa Jurídica",
        "tecnologia": "ADSL1",
        "tipo-de-Produto": "LINHA_DEDICADA",
        "meio-de-acesso": "Cabo Metálico"
    },
    {
        "cidade": "Theobroma",
        "uf": "RO",
        "latitude": -10.24834,
        "longitude": -62.353796,
        "empresa": "CLARO",
        "pf-ou-pj": "Pessoa Jurídica",
        "tecnologia": "FTTH",
        "tipo-de-Produto": "INTERNET",
        "meio-de-acesso": "Fibra"
    },
    {
        "cidade": "Theobroma",
        "uf": "RO",
        "latitude": -10.24834,
        "longitude": -62.353796,
        "empresa": "CLARO",
        "pf-ou-pj": "Pessoa Jurídica",
        "tecnologia": "VSAT",
        "tipo-de-Produto": "LINHA_DEDICADA",
        "meio-de-acesso": "Satélite"
    },
    {
        "cidade": "Urupá",
        "uf": "RO",
        "latitude": -11.126123,
        "longitude": -62.363895,
        "empresa": "CLARO",
        "pf-ou-pj": "Pessoa Jurídica",
        "tecnologia": "ADSL1",
        "tipo-de-Produto": "LINHA_DEDICADA",
        "meio-de-acesso": "Cabo Metálico"
    },
    {
        "cidade": "Urupá",
        "uf": "RO",
        "latitude": -11.126123,
        "longitude": -62.363895,
        "empresa": "CLARO",
        "pf-ou-pj": "Pessoa Jurídica",
        "tecnologia": "FTTH",
        "tipo-de-Produto": "INTERNET",
        "meio-de-acesso": "Fibra"
    },
    {
        "cidade": "Urupá",
        "uf": "RO",
        "latitude": -11.126123,
        "longitude": -62.363895,
        "empresa": "CLARO",
        "pf-ou-pj": "Pessoa Jurídica",
        "tecnologia": "VSAT",
        "tipo-de-Produto": "LINHA_DEDICADA",
        "meio-de-acesso": "Satélite"
    },
    {
        "cidade": "Vale do Anari",
        "uf": "RO",
        "latitude": -9.862155,
        "longitude": -62.187649,
        "empresa": "CLARO",
        "pf-ou-pj": "Pessoa Jurídica",
        "tecnologia": "VSAT",
        "tipo-de-Produto": "LINHA_DEDICADA",
        "meio-de-acesso": "Satélite"
    },
    {
        "cidade": "Vale do Paraíso",
        "uf": "RO",
        "latitude": -10.446543,
        "longitude": -62.135182,
        "empresa": "CLARO",
        "pf-ou-pj": "Pessoa Jurídica",
        "tecnologia": "FTTH",
        "tipo-de-Produto": "LINHA_DEDICADA",
        "meio-de-acesso": "Fibra"
    },
    {
        "cidade": "Vale do Paraíso",
        "uf": "RO",
        "latitude": -10.446543,
        "longitude": -62.135182,
        "empresa": "CLARO",
        "pf-ou-pj": "Pessoa Jurídica",
        "tecnologia": "VSAT",
        "tipo-de-Produto": "LINHA_DEDICADA",
        "meio-de-acesso": "Satélite"
    },
    {
        "cidade": "Vilhena",
        "uf": "RO",
        "latitude": -12.750183,
        "longitude": -60.148847,
        "empresa": "CLARO",
        "pf-ou-pj": "Pessoa Jurídica",
        "tecnologia": "ADSL1",
        "tipo-de-Produto": "LINHA_DEDICADA",
        "meio-de-acesso": "Cabo Metálico"
    },
    {
        "cidade": "Vilhena",
        "uf": "RO",
        "latitude": -12.750183,
        "longitude": -60.148847,
        "empresa": "CLARO",
        "pf-ou-pj": "Pessoa Jurídica",
        "tecnologia": "ADSL1",
        "tipo-de-Produto": "OUTROS",
        "meio-de-acesso": "Cabo Metálico"
    },
    {
        "cidade": "Vilhena",
        "uf": "RO",
        "latitude": -12.750183,
        "longitude": -60.148847,
        "empresa": "CLARO",
        "pf-ou-pj": "Pessoa Jurídica",
        "tecnologia": "FTTH",
        "tipo-de-Produto": "INTERNET",
        "meio-de-acesso": "Fibra"
    },
    {
        "cidade": "Vilhena",
        "uf": "RO",
        "latitude": -12.750183,
        "longitude": -60.148847,
        "empresa": "CLARO",
        "pf-ou-pj": "Pessoa Jurídica",
        "tecnologia": "FTTH",
        "tipo-de-Produto": "LINHA_DEDICADA",
        "meio-de-acesso": "Fibra"
    },
    {
        "cidade": "Vilhena",
        "uf": "RO",
        "latitude": -12.750183,
        "longitude": -60.148847,
        "empresa": "CLARO",
        "pf-ou-pj": "Pessoa Jurídica",
        "tecnologia": "HFC",
        "tipo-de-Produto": "INTERNET",
        "meio-de-acesso": "Cabo Coaxial"
    },
    {
        "cidade": "Vilhena",
        "uf": "RO",
        "latitude": -12.750183,
        "longitude": -60.148847,
        "empresa": "CLARO",
        "pf-ou-pj": "Pessoa Jurídica",
        "tecnologia": "VSAT",
        "tipo-de-Produto": "INTERNET",
        "meio-de-acesso": "Satélite"
    },
    {
        "cidade": "Vilhena",
        "uf": "RO",
        "latitude": -12.750183,
        "longitude": -60.148847,
        "empresa": "CLARO",
        "pf-ou-pj": "Pessoa Jurídica",
        "tecnologia": "VSAT",
        "tipo-de-Produto": "LINHA_DEDICADA",
        "meio-de-acesso": "Satélite"
    }
]