[
    {
        "cidade": "Abaetetuba",
        "uf": "PA",
        "latitude": -1.721828,
        "longitude": -48.878843,
        "empresa": "CLARO",
        "pf-ou-pj": "Pessoa Jurídica",
        "tecnologia": "ADSL1",
        "tipo-de-Produto": "LINHA_DEDICADA",
        "meio-de-acesso": "Cabo Metálico"
    },
    {
        "cidade": "Abaetetuba",
        "uf": "PA",
        "latitude": -1.721828,
        "longitude": -48.878843,
        "empresa": "CLARO",
        "pf-ou-pj": "Pessoa Jurídica",
        "tecnologia": "ADSL1",
        "tipo-de-Produto": "OUTROS",
        "meio-de-acesso": "Cabo Metálico"
    },
    {
        "cidade": "Abaetetuba",
        "uf": "PA",
        "latitude": -1.721828,
        "longitude": -48.878843,
        "empresa": "CLARO",
        "pf-ou-pj": "Pessoa Jurídica",
        "tecnologia": "FTTH",
        "tipo-de-Produto": "INTERNET",
        "meio-de-acesso": "Fibra"
    },
    {
        "cidade": "Abaetetuba",
        "uf": "PA",
        "latitude": -1.721828,
        "longitude": -48.878843,
        "empresa": "CLARO",
        "pf-ou-pj": "Pessoa Jurídica",
        "tecnologia": "FTTH",
        "tipo-de-Produto": "LINHA_DEDICADA",
        "meio-de-acesso": "Fibra"
    },
    {
        "cidade": "Abaetetuba",
        "uf": "PA",
        "latitude": -1.721828,
        "longitude": -48.878843,
        "empresa": "CLARO",
        "pf-ou-pj": "Pessoa Jurídica",
        "tecnologia": "VSAT",
        "tipo-de-Produto": "INTERNET",
        "meio-de-acesso": "Satélite"
    },
    {
        "cidade": "Abaetetuba",
        "uf": "PA",
        "latitude": -1.721828,
        "longitude": -48.878843,
        "empresa": "CLARO",
        "pf-ou-pj": "Pessoa Jurídica",
        "tecnologia": "VSAT",
        "tipo-de-Produto": "LINHA_DEDICADA",
        "meio-de-acesso": "Satélite"
    },
    {
        "cidade": "Abel Figueiredo",
        "uf": "PA",
        "latitude": -4.953327,
        "longitude": -48.393285,
        "empresa": "CLARO",
        "pf-ou-pj": "Pessoa Jurídica",
        "tecnologia": "ADSL1",
        "tipo-de-Produto": "LINHA_DEDICADA",
        "meio-de-acesso": "Cabo Metálico"
    },
    {
        "cidade": "Abel Figueiredo",
        "uf": "PA",
        "latitude": -4.953327,
        "longitude": -48.393285,
        "empresa": "CLARO",
        "pf-ou-pj": "Pessoa Jurídica",
        "tecnologia": "ADSL1",
        "tipo-de-Produto": "OUTROS",
        "meio-de-acesso": "Cabo Metálico"
    },
    {
        "cidade": "Abel Figueiredo",
        "uf": "PA",
        "latitude": -4.953327,
        "longitude": -48.393285,
        "empresa": "CLARO",
        "pf-ou-pj": "Pessoa Jurídica",
        "tecnologia": "VSAT",
        "tipo-de-Produto": "INTERNET",
        "meio-de-acesso": "Satélite"
    },
    {
        "cidade": "Abel Figueiredo",
        "uf": "PA",
        "latitude": -4.953327,
        "longitude": -48.393285,
        "empresa": "CLARO",
        "pf-ou-pj": "Pessoa Jurídica",
        "tecnologia": "VSAT",
        "tipo-de-Produto": "LINHA_DEDICADA",
        "meio-de-acesso": "Satélite"
    },
    {
        "cidade": "Acará",
        "uf": "PA",
        "latitude": -1.953833,
        "longitude": -48.198513,
        "empresa": "CLARO",
        "pf-ou-pj": "Pessoa Jurídica",
        "tecnologia": "ADSL1",
        "tipo-de-Produto": "LINHA_DEDICADA",
        "meio-de-acesso": "Cabo Metálico"
    },
    {
        "cidade": "Acará",
        "uf": "PA",
        "latitude": -1.953833,
        "longitude": -48.198513,
        "empresa": "CLARO",
        "pf-ou-pj": "Pessoa Jurídica",
        "tecnologia": "FTTH",
        "tipo-de-Produto": "INTERNET",
        "meio-de-acesso": "Fibra"
    },
    {
        "cidade": "Acará",
        "uf": "PA",
        "latitude": -1.953833,
        "longitude": -48.198513,
        "empresa": "CLARO",
        "pf-ou-pj": "Pessoa Jurídica",
        "tecnologia": "FTTH",
        "tipo-de-Produto": "LINHA_DEDICADA",
        "meio-de-acesso": "Fibra"
    },
    {
        "cidade": "Acará",
        "uf": "PA",
        "latitude": -1.953833,
        "longitude": -48.198513,
        "empresa": "CLARO",
        "pf-ou-pj": "Pessoa Jurídica",
        "tecnologia": "VSAT",
        "tipo-de-Produto": "INTERNET",
        "meio-de-acesso": "Satélite"
    },
    {
        "cidade": "Acará",
        "uf": "PA",
        "latitude": -1.953833,
        "longitude": -48.198513,
        "empresa": "CLARO",
        "pf-ou-pj": "Pessoa Jurídica",
        "tecnologia": "VSAT",
        "tipo-de-Produto": "LINHA_DEDICADA",
        "meio-de-acesso": "Satélite"
    },
    {
        "cidade": "Afuá",
        "uf": "PA",
        "latitude": -0.154874,
        "longitude": -50.38613,
        "empresa": "CLARO",
        "pf-ou-pj": "Pessoa Jurídica",
        "tecnologia": "ADSL1",
        "tipo-de-Produto": "LINHA_DEDICADA",
        "meio-de-acesso": "Cabo Metálico"
    },
    {
        "cidade": "Afuá",
        "uf": "PA",
        "latitude": -0.154874,
        "longitude": -50.38613,
        "empresa": "CLARO",
        "pf-ou-pj": "Pessoa Jurídica",
        "tecnologia": "FTTH",
        "tipo-de-Produto": "LINHA_DEDICADA",
        "meio-de-acesso": "Fibra"
    },
    {
        "cidade": "Afuá",
        "uf": "PA",
        "latitude": -0.154874,
        "longitude": -50.38613,
        "empresa": "CLARO",
        "pf-ou-pj": "Pessoa Jurídica",
        "tecnologia": "VSAT",
        "tipo-de-Produto": "LINHA_DEDICADA",
        "meio-de-acesso": "Satélite"
    },
    {
        "cidade": "Alenquer",
        "uf": "PA",
        "latitude": -1.946229,
        "longitude": -54.738355,
        "empresa": "CLARO",
        "pf-ou-pj": "Pessoa Jurídica",
        "tecnologia": "ADSL1",
        "tipo-de-Produto": "LINHA_DEDICADA",
        "meio-de-acesso": "Cabo Metálico"
    },
    {
        "cidade": "Alenquer",
        "uf": "PA",
        "latitude": -1.946229,
        "longitude": -54.738355,
        "empresa": "CLARO",
        "pf-ou-pj": "Pessoa Jurídica",
        "tecnologia": "ADSL1",
        "tipo-de-Produto": "OUTROS",
        "meio-de-acesso": "Cabo Metálico"
    },
    {
        "cidade": "Alenquer",
        "uf": "PA",
        "latitude": -1.946229,
        "longitude": -54.738355,
        "empresa": "CLARO",
        "pf-ou-pj": "Pessoa Jurídica",
        "tecnologia": "FTTH",
        "tipo-de-Produto": "LINHA_DEDICADA",
        "meio-de-acesso": "Fibra"
    },
    {
        "cidade": "Alenquer",
        "uf": "PA",
        "latitude": -1.946229,
        "longitude": -54.738355,
        "empresa": "CLARO",
        "pf-ou-pj": "Pessoa Jurídica",
        "tecnologia": "VSAT",
        "tipo-de-Produto": "INTERNET",
        "meio-de-acesso": "Satélite"
    },
    {
        "cidade": "Alenquer",
        "uf": "PA",
        "latitude": -1.946229,
        "longitude": -54.738355,
        "empresa": "CLARO",
        "pf-ou-pj": "Pessoa Jurídica",
        "tecnologia": "VSAT",
        "tipo-de-Produto": "LINHA_DEDICADA",
        "meio-de-acesso": "Satélite"
    },
    {
        "cidade": "Almeirim",
        "uf": "PA",
        "latitude": -1.520968,
        "longitude": -52.581573,
        "empresa": "CLARO",
        "pf-ou-pj": "Pessoa Jurídica",
        "tecnologia": "ADSL1",
        "tipo-de-Produto": "LINHA_DEDICADA",
        "meio-de-acesso": "Cabo Metálico"
    },
    {
        "cidade": "Almeirim",
        "uf": "PA",
        "latitude": -1.520968,
        "longitude": -52.581573,
        "empresa": "CLARO",
        "pf-ou-pj": "Pessoa Jurídica",
        "tecnologia": "ADSL1",
        "tipo-de-Produto": "OUTROS",
        "meio-de-acesso": "Cabo Metálico"
    },
    {
        "cidade": "Almeirim",
        "uf": "PA",
        "latitude": -1.520968,
        "longitude": -52.581573,
        "empresa": "CLARO",
        "pf-ou-pj": "Pessoa Jurídica",
        "tecnologia": "FTTH",
        "tipo-de-Produto": "LINHA_DEDICADA",
        "meio-de-acesso": "Fibra"
    },
    {
        "cidade": "Almeirim",
        "uf": "PA",
        "latitude": -1.520968,
        "longitude": -52.581573,
        "empresa": "CLARO",
        "pf-ou-pj": "Pessoa Jurídica",
        "tecnologia": "VSAT",
        "tipo-de-Produto": "LINHA_DEDICADA",
        "meio-de-acesso": "Satélite"
    },
    {
        "cidade": "Altamira",
        "uf": "PA",
        "latitude": -3.204065,
        "longitude": -52.209961,
        "empresa": "CLARO",
        "pf-ou-pj": "Pessoa Jurídica",
        "tecnologia": "ADSL1",
        "tipo-de-Produto": "INTERNET",
        "meio-de-acesso": "Cabo Metálico"
    },
    {
        "cidade": "Altamira",
        "uf": "PA",
        "latitude": -3.204065,
        "longitude": -52.209961,
        "empresa": "CLARO",
        "pf-ou-pj": "Pessoa Jurídica",
        "tecnologia": "ADSL1",
        "tipo-de-Produto": "LINHA_DEDICADA",
        "meio-de-acesso": "Cabo Metálico"
    },
    {
        "cidade": "Altamira",
        "uf": "PA",
        "latitude": -3.204065,
        "longitude": -52.209961,
        "empresa": "CLARO",
        "pf-ou-pj": "Pessoa Jurídica",
        "tecnologia": "ADSL1",
        "tipo-de-Produto": "OUTROS",
        "meio-de-acesso": "Cabo Metálico"
    },
    {
        "cidade": "Altamira",
        "uf": "PA",
        "latitude": -3.204065,
        "longitude": -52.209961,
        "empresa": "CLARO",
        "pf-ou-pj": "Pessoa Jurídica",
        "tecnologia": "FTTH",
        "tipo-de-Produto": "INTERNET",
        "meio-de-acesso": "Fibra"
    },
    {
        "cidade": "Altamira",
        "uf": "PA",
        "latitude": -3.204065,
        "longitude": -52.209961,
        "empresa": "CLARO",
        "pf-ou-pj": "Pessoa Jurídica",
        "tecnologia": "FTTH",
        "tipo-de-Produto": "LINHA_DEDICADA",
        "meio-de-acesso": "Fibra"
    },
    {
        "cidade": "Altamira",
        "uf": "PA",
        "latitude": -3.204065,
        "longitude": -52.209961,
        "empresa": "CLARO",
        "pf-ou-pj": "Pessoa Jurídica",
        "tecnologia": "FWA",
        "tipo-de-Produto": "LINHA_DEDICADA",
        "meio-de-acesso": "Rádio"
    },
    {
        "cidade": "Altamira",
        "uf": "PA",
        "latitude": -3.204065,
        "longitude": -52.209961,
        "empresa": "CLARO",
        "pf-ou-pj": "Pessoa Jurídica",
        "tecnologia": "VSAT",
        "tipo-de-Produto": "LINHA_DEDICADA",
        "meio-de-acesso": "Satélite"
    },
    {
        "cidade": "Anajás",
        "uf": "PA",
        "latitude": -0.996811,
        "longitude": -49.9354,
        "empresa": "CLARO",
        "pf-ou-pj": "Pessoa Jurídica",
        "tecnologia": "ADSL1",
        "tipo-de-Produto": "LINHA_DEDICADA",
        "meio-de-acesso": "Cabo Metálico"
    },
    {
        "cidade": "Anajás",
        "uf": "PA",
        "latitude": -0.996811,
        "longitude": -49.9354,
        "empresa": "CLARO",
        "pf-ou-pj": "Pessoa Jurídica",
        "tecnologia": "VSAT",
        "tipo-de-Produto": "LINHA_DEDICADA",
        "meio-de-acesso": "Satélite"
    },
    {
        "cidade": "Ananindeua",
        "uf": "PA",
        "latitude": -1.363914,
        "longitude": -48.374298,
        "empresa": "CLARO",
        "pf-ou-pj": "Pessoa Jurídica",
        "tecnologia": "ADSL1",
        "tipo-de-Produto": "INTERNET",
        "meio-de-acesso": "Cabo Metálico"
    },
    {
        "cidade": "Ananindeua",
        "uf": "PA",
        "latitude": -1.363914,
        "longitude": -48.374298,
        "empresa": "CLARO",
        "pf-ou-pj": "Pessoa Jurídica",
        "tecnologia": "ADSL1",
        "tipo-de-Produto": "LINHA_DEDICADA",
        "meio-de-acesso": "Cabo Metálico"
    },
    {
        "cidade": "Ananindeua",
        "uf": "PA",
        "latitude": -1.363914,
        "longitude": -48.374298,
        "empresa": "CLARO",
        "pf-ou-pj": "Pessoa Jurídica",
        "tecnologia": "FTTH",
        "tipo-de-Produto": "INTERNET",
        "meio-de-acesso": "Fibra"
    },
    {
        "cidade": "Ananindeua",
        "uf": "PA",
        "latitude": -1.363914,
        "longitude": -48.374298,
        "empresa": "CLARO",
        "pf-ou-pj": "Pessoa Jurídica",
        "tecnologia": "FTTH",
        "tipo-de-Produto": "LINHA_DEDICADA",
        "meio-de-acesso": "Fibra"
    },
    {
        "cidade": "Ananindeua",
        "uf": "PA",
        "latitude": -1.363914,
        "longitude": -48.374298,
        "empresa": "CLARO",
        "pf-ou-pj": "Pessoa Jurídica",
        "tecnologia": "FWA",
        "tipo-de-Produto": "LINHA_DEDICADA",
        "meio-de-acesso": "Rádio"
    },
    {
        "cidade": "Ananindeua",
        "uf": "PA",
        "latitude": -1.363914,
        "longitude": -48.374298,
        "empresa": "CLARO",
        "pf-ou-pj": "Pessoa Jurídica",
        "tecnologia": "HFC",
        "tipo-de-Produto": "INTERNET",
        "meio-de-acesso": "Cabo Coaxial"
    },
    {
        "cidade": "Ananindeua",
        "uf": "PA",
        "latitude": -1.363914,
        "longitude": -48.374298,
        "empresa": "CLARO",
        "pf-ou-pj": "Pessoa Jurídica",
        "tecnologia": "HFC",
        "tipo-de-Produto": "LINHA_DEDICADA",
        "meio-de-acesso": "Cabo Coaxial"
    },
    {
        "cidade": "Ananindeua",
        "uf": "PA",
        "latitude": -1.363914,
        "longitude": -48.374298,
        "empresa": "CLARO",
        "pf-ou-pj": "Pessoa Jurídica",
        "tecnologia": "VSAT",
        "tipo-de-Produto": "INTERNET",
        "meio-de-acesso": "Satélite"
    },
    {
        "cidade": "Ananindeua",
        "uf": "PA",
        "latitude": -1.363914,
        "longitude": -48.374298,
        "empresa": "CLARO",
        "pf-ou-pj": "Pessoa Jurídica",
        "tecnologia": "VSAT",
        "tipo-de-Produto": "LINHA_DEDICADA",
        "meio-de-acesso": "Satélite"
    },
    {
        "cidade": "Anapu",
        "uf": "PA",
        "latitude": -3.469847,
        "longitude": -51.200264,
        "empresa": "CLARO",
        "pf-ou-pj": "Pessoa Jurídica",
        "tecnologia": "FTTH",
        "tipo-de-Produto": "INTERNET",
        "meio-de-acesso": "Fibra"
    },
    {
        "cidade": "Anapu",
        "uf": "PA",
        "latitude": -3.469847,
        "longitude": -51.200264,
        "empresa": "CLARO",
        "pf-ou-pj": "Pessoa Jurídica",
        "tecnologia": "FTTH",
        "tipo-de-Produto": "LINHA_DEDICADA",
        "meio-de-acesso": "Fibra"
    },
    {
        "cidade": "Anapu",
        "uf": "PA",
        "latitude": -3.469847,
        "longitude": -51.200264,
        "empresa": "CLARO",
        "pf-ou-pj": "Pessoa Jurídica",
        "tecnologia": "VSAT",
        "tipo-de-Produto": "LINHA_DEDICADA",
        "meio-de-acesso": "Satélite"
    },
    {
        "cidade": "Augusto Corrêa",
        "uf": "PA",
        "latitude": -1.021634,
        "longitude": -46.645551,
        "empresa": "CLARO",
        "pf-ou-pj": "Pessoa Jurídica",
        "tecnologia": "ADSL1",
        "tipo-de-Produto": "LINHA_DEDICADA",
        "meio-de-acesso": "Cabo Metálico"
    },
    {
        "cidade": "Augusto Corrêa",
        "uf": "PA",
        "latitude": -1.021634,
        "longitude": -46.645551,
        "empresa": "CLARO",
        "pf-ou-pj": "Pessoa Jurídica",
        "tecnologia": "FTTH",
        "tipo-de-Produto": "INTERNET",
        "meio-de-acesso": "Fibra"
    },
    {
        "cidade": "Augusto Corrêa",
        "uf": "PA",
        "latitude": -1.021634,
        "longitude": -46.645551,
        "empresa": "CLARO",
        "pf-ou-pj": "Pessoa Jurídica",
        "tecnologia": "FTTH",
        "tipo-de-Produto": "LINHA_DEDICADA",
        "meio-de-acesso": "Fibra"
    },
    {
        "cidade": "Augusto Corrêa",
        "uf": "PA",
        "latitude": -1.021634,
        "longitude": -46.645551,
        "empresa": "CLARO",
        "pf-ou-pj": "Pessoa Jurídica",
        "tecnologia": "VSAT",
        "tipo-de-Produto": "LINHA_DEDICADA",
        "meio-de-acesso": "Satélite"
    },
    {
        "cidade": "Aurora do Pará",
        "uf": "PA",
        "latitude": -2.148976,
        "longitude": -47.567712,
        "empresa": "CLARO",
        "pf-ou-pj": "Pessoa Jurídica",
        "tecnologia": "ADSL1",
        "tipo-de-Produto": "LINHA_DEDICADA",
        "meio-de-acesso": "Cabo Metálico"
    },
    {
        "cidade": "Aurora do Pará",
        "uf": "PA",
        "latitude": -2.148976,
        "longitude": -47.567712,
        "empresa": "CLARO",
        "pf-ou-pj": "Pessoa Jurídica",
        "tecnologia": "FTTH",
        "tipo-de-Produto": "LINHA_DEDICADA",
        "meio-de-acesso": "Fibra"
    },
    {
        "cidade": "Aurora do Pará",
        "uf": "PA",
        "latitude": -2.148976,
        "longitude": -47.567712,
        "empresa": "CLARO",
        "pf-ou-pj": "Pessoa Jurídica",
        "tecnologia": "VSAT",
        "tipo-de-Produto": "LINHA_DEDICADA",
        "meio-de-acesso": "Satélite"
    },
    {
        "cidade": "Aveiro",
        "uf": "PA",
        "latitude": -3.608415,
        "longitude": -55.31994,
        "empresa": "CLARO",
        "pf-ou-pj": "Pessoa Jurídica",
        "tecnologia": "ADSL1",
        "tipo-de-Produto": "LINHA_DEDICADA",
        "meio-de-acesso": "Cabo Metálico"
    },
    {
        "cidade": "Aveiro",
        "uf": "PA",
        "latitude": -3.608415,
        "longitude": -55.31994,
        "empresa": "CLARO",
        "pf-ou-pj": "Pessoa Jurídica",
        "tecnologia": "FTTH",
        "tipo-de-Produto": "LINHA_DEDICADA",
        "meio-de-acesso": "Fibra"
    },
    {
        "cidade": "Aveiro",
        "uf": "PA",
        "latitude": -3.608415,
        "longitude": -55.31994,
        "empresa": "CLARO",
        "pf-ou-pj": "Pessoa Jurídica",
        "tecnologia": "VSAT",
        "tipo-de-Produto": "INTERNET",
        "meio-de-acesso": "Satélite"
    },
    {
        "cidade": "Aveiro",
        "uf": "PA",
        "latitude": -3.608415,
        "longitude": -55.31994,
        "empresa": "CLARO",
        "pf-ou-pj": "Pessoa Jurídica",
        "tecnologia": "VSAT",
        "tipo-de-Produto": "LINHA_DEDICADA",
        "meio-de-acesso": "Satélite"
    },
    {
        "cidade": "Bagre",
        "uf": "PA",
        "latitude": -1.900565,
        "longitude": -50.19869,
        "empresa": "CLARO",
        "pf-ou-pj": "Pessoa Jurídica",
        "tecnologia": "ADSL1",
        "tipo-de-Produto": "LINHA_DEDICADA",
        "meio-de-acesso": "Cabo Metálico"
    },
    {
        "cidade": "Bagre",
        "uf": "PA",
        "latitude": -1.900565,
        "longitude": -50.19869,
        "empresa": "CLARO",
        "pf-ou-pj": "Pessoa Jurídica",
        "tecnologia": "FTTH",
        "tipo-de-Produto": "LINHA_DEDICADA",
        "meio-de-acesso": "Fibra"
    },
    {
        "cidade": "Bagre",
        "uf": "PA",
        "latitude": -1.900565,
        "longitude": -50.19869,
        "empresa": "CLARO",
        "pf-ou-pj": "Pessoa Jurídica",
        "tecnologia": "VSAT",
        "tipo-de-Produto": "LINHA_DEDICADA",
        "meio-de-acesso": "Satélite"
    },
    {
        "cidade": "Baião",
        "uf": "PA",
        "latitude": -2.790212,
        "longitude": -49.669443,
        "empresa": "CLARO",
        "pf-ou-pj": "Pessoa Jurídica",
        "tecnologia": "ADSL1",
        "tipo-de-Produto": "LINHA_DEDICADA",
        "meio-de-acesso": "Cabo Metálico"
    },
    {
        "cidade": "Baião",
        "uf": "PA",
        "latitude": -2.790212,
        "longitude": -49.669443,
        "empresa": "CLARO",
        "pf-ou-pj": "Pessoa Jurídica",
        "tecnologia": "VSAT",
        "tipo-de-Produto": "INTERNET",
        "meio-de-acesso": "Satélite"
    },
    {
        "cidade": "Baião",
        "uf": "PA",
        "latitude": -2.790212,
        "longitude": -49.669443,
        "empresa": "CLARO",
        "pf-ou-pj": "Pessoa Jurídica",
        "tecnologia": "VSAT",
        "tipo-de-Produto": "LINHA_DEDICADA",
        "meio-de-acesso": "Satélite"
    },
    {
        "cidade": "Bannach",
        "uf": "PA",
        "latitude": -7.347786,
        "longitude": -50.395853,
        "empresa": "CLARO",
        "pf-ou-pj": "Pessoa Jurídica",
        "tecnologia": "ADSL1",
        "tipo-de-Produto": "LINHA_DEDICADA",
        "meio-de-acesso": "Cabo Metálico"
    },
    {
        "cidade": "Bannach",
        "uf": "PA",
        "latitude": -7.347786,
        "longitude": -50.395853,
        "empresa": "CLARO",
        "pf-ou-pj": "Pessoa Jurídica",
        "tecnologia": "VSAT",
        "tipo-de-Produto": "LINHA_DEDICADA",
        "meio-de-acesso": "Satélite"
    },
    {
        "cidade": "Barcarena",
        "uf": "PA",
        "latitude": -1.511872,
        "longitude": -48.619529,
        "empresa": "CLARO",
        "pf-ou-pj": "Pessoa Jurídica",
        "tecnologia": "ADSL1",
        "tipo-de-Produto": "LINHA_DEDICADA",
        "meio-de-acesso": "Cabo Metálico"
    },
    {
        "cidade": "Barcarena",
        "uf": "PA",
        "latitude": -1.511872,
        "longitude": -48.619529,
        "empresa": "CLARO",
        "pf-ou-pj": "Pessoa Jurídica",
        "tecnologia": "FTTH",
        "tipo-de-Produto": "INTERNET",
        "meio-de-acesso": "Fibra"
    },
    {
        "cidade": "Barcarena",
        "uf": "PA",
        "latitude": -1.511872,
        "longitude": -48.619529,
        "empresa": "CLARO",
        "pf-ou-pj": "Pessoa Jurídica",
        "tecnologia": "FTTH",
        "tipo-de-Produto": "LINHA_DEDICADA",
        "meio-de-acesso": "Fibra"
    },
    {
        "cidade": "Barcarena",
        "uf": "PA",
        "latitude": -1.511872,
        "longitude": -48.619529,
        "empresa": "CLARO",
        "pf-ou-pj": "Pessoa Jurídica",
        "tecnologia": "FWA",
        "tipo-de-Produto": "LINHA_DEDICADA",
        "meio-de-acesso": "Rádio"
    },
    {
        "cidade": "Barcarena",
        "uf": "PA",
        "latitude": -1.511872,
        "longitude": -48.619529,
        "empresa": "CLARO",
        "pf-ou-pj": "Pessoa Jurídica",
        "tecnologia": "VSAT",
        "tipo-de-Produto": "LINHA_DEDICADA",
        "meio-de-acesso": "Satélite"
    },
    {
        "cidade": "Belterra",
        "uf": "PA",
        "latitude": -2.636091,
        "longitude": -54.937392,
        "empresa": "CLARO",
        "pf-ou-pj": "Pessoa Jurídica",
        "tecnologia": "ADSL1",
        "tipo-de-Produto": "LINHA_DEDICADA",
        "meio-de-acesso": "Cabo Metálico"
    },
    {
        "cidade": "Belterra",
        "uf": "PA",
        "latitude": -2.636091,
        "longitude": -54.937392,
        "empresa": "CLARO",
        "pf-ou-pj": "Pessoa Jurídica",
        "tecnologia": "VSAT",
        "tipo-de-Produto": "INTERNET",
        "meio-de-acesso": "Satélite"
    },
    {
        "cidade": "Belterra",
        "uf": "PA",
        "latitude": -2.636091,
        "longitude": -54.937392,
        "empresa": "CLARO",
        "pf-ou-pj": "Pessoa Jurídica",
        "tecnologia": "VSAT",
        "tipo-de-Produto": "LINHA_DEDICADA",
        "meio-de-acesso": "Satélite"
    },
    {
        "cidade": "Belém",
        "uf": "PA",
        "latitude": -1.455396,
        "longitude": -48.489756,
        "empresa": "CLARO",
        "pf-ou-pj": "Pessoa Jurídica",
        "tecnologia": "ADSL1",
        "tipo-de-Produto": "INTERNET",
        "meio-de-acesso": "Cabo Metálico"
    },
    {
        "cidade": "Belém",
        "uf": "PA",
        "latitude": -1.455396,
        "longitude": -48.489756,
        "empresa": "CLARO",
        "pf-ou-pj": "Pessoa Jurídica",
        "tecnologia": "ADSL1",
        "tipo-de-Produto": "LINHA_DEDICADA",
        "meio-de-acesso": "Cabo Metálico"
    },
    {
        "cidade": "Belém",
        "uf": "PA",
        "latitude": -1.455396,
        "longitude": -48.489756,
        "empresa": "CLARO",
        "pf-ou-pj": "Pessoa Jurídica",
        "tecnologia": "ADSL1",
        "tipo-de-Produto": "OUTROS",
        "meio-de-acesso": "Cabo Metálico"
    },
    {
        "cidade": "Belém",
        "uf": "PA",
        "latitude": -1.455396,
        "longitude": -48.489756,
        "empresa": "CLARO",
        "pf-ou-pj": "Pessoa Jurídica",
        "tecnologia": "FTTH",
        "tipo-de-Produto": "INTERNET",
        "meio-de-acesso": "Fibra"
    },
    {
        "cidade": "Belém",
        "uf": "PA",
        "latitude": -1.455396,
        "longitude": -48.489756,
        "empresa": "CLARO",
        "pf-ou-pj": "Pessoa Jurídica",
        "tecnologia": "FTTH",
        "tipo-de-Produto": "LINHA_DEDICADA",
        "meio-de-acesso": "Fibra"
    },
    {
        "cidade": "Belém",
        "uf": "PA",
        "latitude": -1.455396,
        "longitude": -48.489756,
        "empresa": "CLARO",
        "pf-ou-pj": "Pessoa Jurídica",
        "tecnologia": "FWA",
        "tipo-de-Produto": "LINHA_DEDICADA",
        "meio-de-acesso": "Rádio"
    },
    {
        "cidade": "Belém",
        "uf": "PA",
        "latitude": -1.455396,
        "longitude": -48.489756,
        "empresa": "CLARO",
        "pf-ou-pj": "Pessoa Jurídica",
        "tecnologia": "HFC",
        "tipo-de-Produto": "INTERNET",
        "meio-de-acesso": "Cabo Coaxial"
    },
    {
        "cidade": "Belém",
        "uf": "PA",
        "latitude": -1.455396,
        "longitude": -48.489756,
        "empresa": "CLARO",
        "pf-ou-pj": "Pessoa Jurídica",
        "tecnologia": "HFC",
        "tipo-de-Produto": "LINHA_DEDICADA",
        "meio-de-acesso": "Cabo Coaxial"
    },
    {
        "cidade": "Belém",
        "uf": "PA",
        "latitude": -1.455396,
        "longitude": -48.489756,
        "empresa": "CLARO",
        "pf-ou-pj": "Pessoa Jurídica",
        "tecnologia": "VSAT",
        "tipo-de-Produto": "INTERNET",
        "meio-de-acesso": "Satélite"
    },
    {
        "cidade": "Belém",
        "uf": "PA",
        "latitude": -1.455396,
        "longitude": -48.489756,
        "empresa": "CLARO",
        "pf-ou-pj": "Pessoa Jurídica",
        "tecnologia": "VSAT",
        "tipo-de-Produto": "LINHA_DEDICADA",
        "meio-de-acesso": "Satélite"
    },
    {
        "cidade": "Benevides",
        "uf": "PA",
        "latitude": -1.361829,
        "longitude": -48.243408,
        "empresa": "CLARO",
        "pf-ou-pj": "Pessoa Jurídica",
        "tecnologia": "ADSL1",
        "tipo-de-Produto": "INTERNET",
        "meio-de-acesso": "Cabo Metálico"
    },
    {
        "cidade": "Benevides",
        "uf": "PA",
        "latitude": -1.361829,
        "longitude": -48.243408,
        "empresa": "CLARO",
        "pf-ou-pj": "Pessoa Jurídica",
        "tecnologia": "ADSL1",
        "tipo-de-Produto": "LINHA_DEDICADA",
        "meio-de-acesso": "Cabo Metálico"
    },
    {
        "cidade": "Benevides",
        "uf": "PA",
        "latitude": -1.361829,
        "longitude": -48.243408,
        "empresa": "CLARO",
        "pf-ou-pj": "Pessoa Jurídica",
        "tecnologia": "FTTH",
        "tipo-de-Produto": "INTERNET",
        "meio-de-acesso": "Fibra"
    },
    {
        "cidade": "Benevides",
        "uf": "PA",
        "latitude": -1.361829,
        "longitude": -48.243408,
        "empresa": "CLARO",
        "pf-ou-pj": "Pessoa Jurídica",
        "tecnologia": "FTTH",
        "tipo-de-Produto": "LINHA_DEDICADA",
        "meio-de-acesso": "Fibra"
    },
    {
        "cidade": "Benevides",
        "uf": "PA",
        "latitude": -1.361829,
        "longitude": -48.243408,
        "empresa": "CLARO",
        "pf-ou-pj": "Pessoa Jurídica",
        "tecnologia": "FWA",
        "tipo-de-Produto": "LINHA_DEDICADA",
        "meio-de-acesso": "Rádio"
    },
    {
        "cidade": "Benevides",
        "uf": "PA",
        "latitude": -1.361829,
        "longitude": -48.243408,
        "empresa": "CLARO",
        "pf-ou-pj": "Pessoa Jurídica",
        "tecnologia": "VSAT",
        "tipo-de-Produto": "INTERNET",
        "meio-de-acesso": "Satélite"
    },
    {
        "cidade": "Benevides",
        "uf": "PA",
        "latitude": -1.361829,
        "longitude": -48.243408,
        "empresa": "CLARO",
        "pf-ou-pj": "Pessoa Jurídica",
        "tecnologia": "VSAT",
        "tipo-de-Produto": "LINHA_DEDICADA",
        "meio-de-acesso": "Satélite"
    },
    {
        "cidade": "Bom Jesus do Tocantins",
        "uf": "PA",
        "latitude": -5.042402,
        "longitude": -48.604701,
        "empresa": "CLARO",
        "pf-ou-pj": "Pessoa Jurídica",
        "tecnologia": "ADSL1",
        "tipo-de-Produto": "LINHA_DEDICADA",
        "meio-de-acesso": "Cabo Metálico"
    },
    {
        "cidade": "Bom Jesus do Tocantins",
        "uf": "PA",
        "latitude": -5.042402,
        "longitude": -48.604701,
        "empresa": "CLARO",
        "pf-ou-pj": "Pessoa Jurídica",
        "tecnologia": "VSAT",
        "tipo-de-Produto": "LINHA_DEDICADA",
        "meio-de-acesso": "Satélite"
    },
    {
        "cidade": "Bonito",
        "uf": "PA",
        "latitude": -1.367451,
        "longitude": -47.306572,
        "empresa": "CLARO",
        "pf-ou-pj": "Pessoa Jurídica",
        "tecnologia": "VSAT",
        "tipo-de-Produto": "LINHA_DEDICADA",
        "meio-de-acesso": "Satélite"
    },
    {
        "cidade": "Bragança",
        "uf": "PA",
        "latitude": -1.061263,
        "longitude": -46.7826,
        "empresa": "CLARO",
        "pf-ou-pj": "Pessoa Jurídica",
        "tecnologia": "ADSL1",
        "tipo-de-Produto": "LINHA_DEDICADA",
        "meio-de-acesso": "Cabo Metálico"
    },
    {
        "cidade": "Bragança",
        "uf": "PA",
        "latitude": -1.061263,
        "longitude": -46.7826,
        "empresa": "CLARO",
        "pf-ou-pj": "Pessoa Jurídica",
        "tecnologia": "ADSL1",
        "tipo-de-Produto": "OUTROS",
        "meio-de-acesso": "Cabo Metálico"
    },
    {
        "cidade": "Bragança",
        "uf": "PA",
        "latitude": -1.061263,
        "longitude": -46.7826,
        "empresa": "CLARO",
        "pf-ou-pj": "Pessoa Jurídica",
        "tecnologia": "FTTH",
        "tipo-de-Produto": "INTERNET",
        "meio-de-acesso": "Fibra"
    },
    {
        "cidade": "Bragança",
        "uf": "PA",
        "latitude": -1.061263,
        "longitude": -46.7826,
        "empresa": "CLARO",
        "pf-ou-pj": "Pessoa Jurídica",
        "tecnologia": "FTTH",
        "tipo-de-Produto": "LINHA_DEDICADA",
        "meio-de-acesso": "Fibra"
    },
    {
        "cidade": "Bragança",
        "uf": "PA",
        "latitude": -1.061263,
        "longitude": -46.7826,
        "empresa": "CLARO",
        "pf-ou-pj": "Pessoa Jurídica",
        "tecnologia": "VSAT",
        "tipo-de-Produto": "INTERNET",
        "meio-de-acesso": "Satélite"
    },
    {
        "cidade": "Bragança",
        "uf": "PA",
        "latitude": -1.061263,
        "longitude": -46.7826,
        "empresa": "CLARO",
        "pf-ou-pj": "Pessoa Jurídica",
        "tecnologia": "VSAT",
        "tipo-de-Produto": "LINHA_DEDICADA",
        "meio-de-acesso": "Satélite"
    },
    {
        "cidade": "Brasil Novo",
        "uf": "PA",
        "latitude": -3.297922,
        "longitude": -52.534021,
        "empresa": "CLARO",
        "pf-ou-pj": "Pessoa Jurídica",
        "tecnologia": "FTTH",
        "tipo-de-Produto": "LINHA_DEDICADA",
        "meio-de-acesso": "Fibra"
    },
    {
        "cidade": "Brasil Novo",
        "uf": "PA",
        "latitude": -3.297922,
        "longitude": -52.534021,
        "empresa": "CLARO",
        "pf-ou-pj": "Pessoa Jurídica",
        "tecnologia": "VSAT",
        "tipo-de-Produto": "LINHA_DEDICADA",
        "meio-de-acesso": "Satélite"
    },
    {
        "cidade": "Brejo Grande do Araguaia",
        "uf": "PA",
        "latitude": -5.698216,
        "longitude": -48.41025,
        "empresa": "CLARO",
        "pf-ou-pj": "Pessoa Jurídica",
        "tecnologia": "ADSL1",
        "tipo-de-Produto": "LINHA_DEDICADA",
        "meio-de-acesso": "Cabo Metálico"
    },
    {
        "cidade": "Brejo Grande do Araguaia",
        "uf": "PA",
        "latitude": -5.698216,
        "longitude": -48.41025,
        "empresa": "CLARO",
        "pf-ou-pj": "Pessoa Jurídica",
        "tecnologia": "VSAT",
        "tipo-de-Produto": "LINHA_DEDICADA",
        "meio-de-acesso": "Satélite"
    },
    {
        "cidade": "Breu Branco",
        "uf": "PA",
        "latitude": -3.771908,
        "longitude": -49.573459,
        "empresa": "CLARO",
        "pf-ou-pj": "Pessoa Jurídica",
        "tecnologia": "ADSL1",
        "tipo-de-Produto": "LINHA_DEDICADA",
        "meio-de-acesso": "Cabo Metálico"
    },
    {
        "cidade": "Breu Branco",
        "uf": "PA",
        "latitude": -3.771908,
        "longitude": -49.573459,
        "empresa": "CLARO",
        "pf-ou-pj": "Pessoa Jurídica",
        "tecnologia": "VSAT",
        "tipo-de-Produto": "LINHA_DEDICADA",
        "meio-de-acesso": "Satélite"
    },
    {
        "cidade": "Breves",
        "uf": "PA",
        "latitude": -1.68036,
        "longitude": -50.479085,
        "empresa": "CLARO",
        "pf-ou-pj": "Pessoa Jurídica",
        "tecnologia": "ADSL1",
        "tipo-de-Produto": "LINHA_DEDICADA",
        "meio-de-acesso": "Cabo Metálico"
    },
    {
        "cidade": "Breves",
        "uf": "PA",
        "latitude": -1.68036,
        "longitude": -50.479085,
        "empresa": "CLARO",
        "pf-ou-pj": "Pessoa Jurídica",
        "tecnologia": "ADSL1",
        "tipo-de-Produto": "OUTROS",
        "meio-de-acesso": "Cabo Metálico"
    },
    {
        "cidade": "Breves",
        "uf": "PA",
        "latitude": -1.68036,
        "longitude": -50.479085,
        "empresa": "CLARO",
        "pf-ou-pj": "Pessoa Jurídica",
        "tecnologia": "FTTH",
        "tipo-de-Produto": "LINHA_DEDICADA",
        "meio-de-acesso": "Fibra"
    },
    {
        "cidade": "Breves",
        "uf": "PA",
        "latitude": -1.68036,
        "longitude": -50.479085,
        "empresa": "CLARO",
        "pf-ou-pj": "Pessoa Jurídica",
        "tecnologia": "VSAT",
        "tipo-de-Produto": "INTERNET",
        "meio-de-acesso": "Satélite"
    },
    {
        "cidade": "Breves",
        "uf": "PA",
        "latitude": -1.68036,
        "longitude": -50.479085,
        "empresa": "CLARO",
        "pf-ou-pj": "Pessoa Jurídica",
        "tecnologia": "VSAT",
        "tipo-de-Produto": "LINHA_DEDICADA",
        "meio-de-acesso": "Satélite"
    },
    {
        "cidade": "Bujaru",
        "uf": "PA",
        "latitude": -1.517616,
        "longitude": -48.038063,
        "empresa": "CLARO",
        "pf-ou-pj": "Pessoa Jurídica",
        "tecnologia": "ADSL1",
        "tipo-de-Produto": "LINHA_DEDICADA",
        "meio-de-acesso": "Cabo Metálico"
    },
    {
        "cidade": "Bujaru",
        "uf": "PA",
        "latitude": -1.517616,
        "longitude": -48.038063,
        "empresa": "CLARO",
        "pf-ou-pj": "Pessoa Jurídica",
        "tecnologia": "VSAT",
        "tipo-de-Produto": "LINHA_DEDICADA",
        "meio-de-acesso": "Satélite"
    },
    {
        "cidade": "Cachoeira do Arari",
        "uf": "PA",
        "latitude": -1.012259,
        "longitude": -48.95029,
        "empresa": "CLARO",
        "pf-ou-pj": "Pessoa Jurídica",
        "tecnologia": "ADSL1",
        "tipo-de-Produto": "LINHA_DEDICADA",
        "meio-de-acesso": "Cabo Metálico"
    },
    {
        "cidade": "Cachoeira do Arari",
        "uf": "PA",
        "latitude": -1.012259,
        "longitude": -48.95029,
        "empresa": "CLARO",
        "pf-ou-pj": "Pessoa Jurídica",
        "tecnologia": "FTTH",
        "tipo-de-Produto": "LINHA_DEDICADA",
        "meio-de-acesso": "Fibra"
    },
    {
        "cidade": "Cachoeira do Arari",
        "uf": "PA",
        "latitude": -1.012259,
        "longitude": -48.95029,
        "empresa": "CLARO",
        "pf-ou-pj": "Pessoa Jurídica",
        "tecnologia": "VSAT",
        "tipo-de-Produto": "LINHA_DEDICADA",
        "meio-de-acesso": "Satélite"
    },
    {
        "cidade": "Cachoeira do Piriá",
        "uf": "PA",
        "latitude": -1.759738,
        "longitude": -46.54593,
        "empresa": "CLARO",
        "pf-ou-pj": "Pessoa Jurídica",
        "tecnologia": "ADSL1",
        "tipo-de-Produto": "LINHA_DEDICADA",
        "meio-de-acesso": "Cabo Metálico"
    },
    {
        "cidade": "Cachoeira do Piriá",
        "uf": "PA",
        "latitude": -1.759738,
        "longitude": -46.54593,
        "empresa": "CLARO",
        "pf-ou-pj": "Pessoa Jurídica",
        "tecnologia": "VSAT",
        "tipo-de-Produto": "LINHA_DEDICADA",
        "meio-de-acesso": "Satélite"
    },
    {
        "cidade": "Cametá",
        "uf": "PA",
        "latitude": -2.242949,
        "longitude": -49.497885,
        "empresa": "CLARO",
        "pf-ou-pj": "Pessoa Jurídica",
        "tecnologia": "ADSL1",
        "tipo-de-Produto": "LINHA_DEDICADA",
        "meio-de-acesso": "Cabo Metálico"
    },
    {
        "cidade": "Cametá",
        "uf": "PA",
        "latitude": -2.242949,
        "longitude": -49.497885,
        "empresa": "CLARO",
        "pf-ou-pj": "Pessoa Jurídica",
        "tecnologia": "FTTH",
        "tipo-de-Produto": "LINHA_DEDICADA",
        "meio-de-acesso": "Fibra"
    },
    {
        "cidade": "Cametá",
        "uf": "PA",
        "latitude": -2.242949,
        "longitude": -49.497885,
        "empresa": "CLARO",
        "pf-ou-pj": "Pessoa Jurídica",
        "tecnologia": "VSAT",
        "tipo-de-Produto": "INTERNET",
        "meio-de-acesso": "Satélite"
    },
    {
        "cidade": "Cametá",
        "uf": "PA",
        "latitude": -2.242949,
        "longitude": -49.497885,
        "empresa": "CLARO",
        "pf-ou-pj": "Pessoa Jurídica",
        "tecnologia": "VSAT",
        "tipo-de-Produto": "LINHA_DEDICADA",
        "meio-de-acesso": "Satélite"
    },
    {
        "cidade": "Canaã dos Carajás",
        "uf": "PA",
        "latitude": -6.496594,
        "longitude": -49.877612,
        "empresa": "CLARO",
        "pf-ou-pj": "Pessoa Jurídica",
        "tecnologia": "FTTH",
        "tipo-de-Produto": "INTERNET",
        "meio-de-acesso": "Fibra"
    },
    {
        "cidade": "Canaã dos Carajás",
        "uf": "PA",
        "latitude": -6.496594,
        "longitude": -49.877612,
        "empresa": "CLARO",
        "pf-ou-pj": "Pessoa Jurídica",
        "tecnologia": "FTTH",
        "tipo-de-Produto": "LINHA_DEDICADA",
        "meio-de-acesso": "Fibra"
    },
    {
        "cidade": "Canaã dos Carajás",
        "uf": "PA",
        "latitude": -6.496594,
        "longitude": -49.877612,
        "empresa": "CLARO",
        "pf-ou-pj": "Pessoa Jurídica",
        "tecnologia": "VSAT",
        "tipo-de-Produto": "INTERNET",
        "meio-de-acesso": "Satélite"
    },
    {
        "cidade": "Canaã dos Carajás",
        "uf": "PA",
        "latitude": -6.496594,
        "longitude": -49.877612,
        "empresa": "CLARO",
        "pf-ou-pj": "Pessoa Jurídica",
        "tecnologia": "VSAT",
        "tipo-de-Produto": "LINHA_DEDICADA",
        "meio-de-acesso": "Satélite"
    },
    {
        "cidade": "Capanema",
        "uf": "PA",
        "latitude": -1.205291,
        "longitude": -47.177778,
        "empresa": "CLARO",
        "pf-ou-pj": "Pessoa Jurídica",
        "tecnologia": "ADSL1",
        "tipo-de-Produto": "INTERNET",
        "meio-de-acesso": "Cabo Metálico"
    },
    {
        "cidade": "Capanema",
        "uf": "PA",
        "latitude": -1.205291,
        "longitude": -47.177778,
        "empresa": "CLARO",
        "pf-ou-pj": "Pessoa Jurídica",
        "tecnologia": "ADSL1",
        "tipo-de-Produto": "LINHA_DEDICADA",
        "meio-de-acesso": "Cabo Metálico"
    },
    {
        "cidade": "Capanema",
        "uf": "PA",
        "latitude": -1.205291,
        "longitude": -47.177778,
        "empresa": "CLARO",
        "pf-ou-pj": "Pessoa Jurídica",
        "tecnologia": "ADSL1",
        "tipo-de-Produto": "OUTROS",
        "meio-de-acesso": "Cabo Metálico"
    },
    {
        "cidade": "Capanema",
        "uf": "PA",
        "latitude": -1.205291,
        "longitude": -47.177778,
        "empresa": "CLARO",
        "pf-ou-pj": "Pessoa Jurídica",
        "tecnologia": "FTTH",
        "tipo-de-Produto": "LINHA_DEDICADA",
        "meio-de-acesso": "Fibra"
    },
    {
        "cidade": "Capanema",
        "uf": "PA",
        "latitude": -1.205291,
        "longitude": -47.177778,
        "empresa": "CLARO",
        "pf-ou-pj": "Pessoa Jurídica",
        "tecnologia": "FWA",
        "tipo-de-Produto": "LINHA_DEDICADA",
        "meio-de-acesso": "Rádio"
    },
    {
        "cidade": "Capanema",
        "uf": "PA",
        "latitude": -1.205291,
        "longitude": -47.177778,
        "empresa": "CLARO",
        "pf-ou-pj": "Pessoa Jurídica",
        "tecnologia": "VSAT",
        "tipo-de-Produto": "LINHA_DEDICADA",
        "meio-de-acesso": "Satélite"
    },
    {
        "cidade": "Capitão Poço",
        "uf": "PA",
        "latitude": -1.747847,
        "longitude": -47.06293,
        "empresa": "CLARO",
        "pf-ou-pj": "Pessoa Jurídica",
        "tecnologia": "ADSL1",
        "tipo-de-Produto": "LINHA_DEDICADA",
        "meio-de-acesso": "Cabo Metálico"
    },
    {
        "cidade": "Capitão Poço",
        "uf": "PA",
        "latitude": -1.747847,
        "longitude": -47.06293,
        "empresa": "CLARO",
        "pf-ou-pj": "Pessoa Jurídica",
        "tecnologia": "FTTH",
        "tipo-de-Produto": "LINHA_DEDICADA",
        "meio-de-acesso": "Fibra"
    },
    {
        "cidade": "Capitão Poço",
        "uf": "PA",
        "latitude": -1.747847,
        "longitude": -47.06293,
        "empresa": "CLARO",
        "pf-ou-pj": "Pessoa Jurídica",
        "tecnologia": "VSAT",
        "tipo-de-Produto": "INTERNET",
        "meio-de-acesso": "Satélite"
    },
    {
        "cidade": "Capitão Poço",
        "uf": "PA",
        "latitude": -1.747847,
        "longitude": -47.06293,
        "empresa": "CLARO",
        "pf-ou-pj": "Pessoa Jurídica",
        "tecnologia": "VSAT",
        "tipo-de-Produto": "LINHA_DEDICADA",
        "meio-de-acesso": "Satélite"
    },
    {
        "cidade": "Castanhal",
        "uf": "PA",
        "latitude": -1.297971,
        "longitude": -47.916742,
        "empresa": "CLARO",
        "pf-ou-pj": "Pessoa Jurídica",
        "tecnologia": "ADSL1",
        "tipo-de-Produto": "INTERNET",
        "meio-de-acesso": "Cabo Metálico"
    },
    {
        "cidade": "Castanhal",
        "uf": "PA",
        "latitude": -1.297971,
        "longitude": -47.916742,
        "empresa": "CLARO",
        "pf-ou-pj": "Pessoa Jurídica",
        "tecnologia": "ADSL1",
        "tipo-de-Produto": "LINHA_DEDICADA",
        "meio-de-acesso": "Cabo Metálico"
    },
    {
        "cidade": "Castanhal",
        "uf": "PA",
        "latitude": -1.297971,
        "longitude": -47.916742,
        "empresa": "CLARO",
        "pf-ou-pj": "Pessoa Jurídica",
        "tecnologia": "FTTH",
        "tipo-de-Produto": "INTERNET",
        "meio-de-acesso": "Fibra"
    },
    {
        "cidade": "Castanhal",
        "uf": "PA",
        "latitude": -1.297971,
        "longitude": -47.916742,
        "empresa": "CLARO",
        "pf-ou-pj": "Pessoa Jurídica",
        "tecnologia": "FTTH",
        "tipo-de-Produto": "LINHA_DEDICADA",
        "meio-de-acesso": "Fibra"
    },
    {
        "cidade": "Castanhal",
        "uf": "PA",
        "latitude": -1.297971,
        "longitude": -47.916742,
        "empresa": "CLARO",
        "pf-ou-pj": "Pessoa Jurídica",
        "tecnologia": "FWA",
        "tipo-de-Produto": "LINHA_DEDICADA",
        "meio-de-acesso": "Rádio"
    },
    {
        "cidade": "Castanhal",
        "uf": "PA",
        "latitude": -1.297971,
        "longitude": -47.916742,
        "empresa": "CLARO",
        "pf-ou-pj": "Pessoa Jurídica",
        "tecnologia": "VSAT",
        "tipo-de-Produto": "INTERNET",
        "meio-de-acesso": "Satélite"
    },
    {
        "cidade": "Castanhal",
        "uf": "PA",
        "latitude": -1.297971,
        "longitude": -47.916742,
        "empresa": "CLARO",
        "pf-ou-pj": "Pessoa Jurídica",
        "tecnologia": "VSAT",
        "tipo-de-Produto": "LINHA_DEDICADA",
        "meio-de-acesso": "Satélite"
    },
    {
        "cidade": "Chaves",
        "uf": "PA",
        "latitude": -0.164154,
        "longitude": -49.987006,
        "empresa": "CLARO",
        "pf-ou-pj": "Pessoa Jurídica",
        "tecnologia": "VSAT",
        "tipo-de-Produto": "INTERNET",
        "meio-de-acesso": "Satélite"
    },
    {
        "cidade": "Chaves",
        "uf": "PA",
        "latitude": -0.164154,
        "longitude": -49.987006,
        "empresa": "CLARO",
        "pf-ou-pj": "Pessoa Jurídica",
        "tecnologia": "VSAT",
        "tipo-de-Produto": "LINHA_DEDICADA",
        "meio-de-acesso": "Satélite"
    },
    {
        "cidade": "Colares",
        "uf": "PA",
        "latitude": -0.936423,
        "longitude": -48.280254,
        "empresa": "CLARO",
        "pf-ou-pj": "Pessoa Jurídica",
        "tecnologia": "ADSL1",
        "tipo-de-Produto": "LINHA_DEDICADA",
        "meio-de-acesso": "Cabo Metálico"
    },
    {
        "cidade": "Colares",
        "uf": "PA",
        "latitude": -0.936423,
        "longitude": -48.280254,
        "empresa": "CLARO",
        "pf-ou-pj": "Pessoa Jurídica",
        "tecnologia": "ADSL1",
        "tipo-de-Produto": "OUTROS",
        "meio-de-acesso": "Cabo Metálico"
    },
    {
        "cidade": "Colares",
        "uf": "PA",
        "latitude": -0.936423,
        "longitude": -48.280254,
        "empresa": "CLARO",
        "pf-ou-pj": "Pessoa Jurídica",
        "tecnologia": "VSAT",
        "tipo-de-Produto": "LINHA_DEDICADA",
        "meio-de-acesso": "Satélite"
    },
    {
        "cidade": "Conceição do Araguaia",
        "uf": "PA",
        "latitude": -8.261356,
        "longitude": -49.268913,
        "empresa": "CLARO",
        "pf-ou-pj": "Pessoa Jurídica",
        "tecnologia": "ADSL1",
        "tipo-de-Produto": "LINHA_DEDICADA",
        "meio-de-acesso": "Cabo Metálico"
    },
    {
        "cidade": "Conceição do Araguaia",
        "uf": "PA",
        "latitude": -8.261356,
        "longitude": -49.268913,
        "empresa": "CLARO",
        "pf-ou-pj": "Pessoa Jurídica",
        "tecnologia": "ADSL1",
        "tipo-de-Produto": "OUTROS",
        "meio-de-acesso": "Cabo Metálico"
    },
    {
        "cidade": "Conceição do Araguaia",
        "uf": "PA",
        "latitude": -8.261356,
        "longitude": -49.268913,
        "empresa": "CLARO",
        "pf-ou-pj": "Pessoa Jurídica",
        "tecnologia": "FTTH",
        "tipo-de-Produto": "LINHA_DEDICADA",
        "meio-de-acesso": "Fibra"
    },
    {
        "cidade": "Conceição do Araguaia",
        "uf": "PA",
        "latitude": -8.261356,
        "longitude": -49.268913,
        "empresa": "CLARO",
        "pf-ou-pj": "Pessoa Jurídica",
        "tecnologia": "VSAT",
        "tipo-de-Produto": "INTERNET",
        "meio-de-acesso": "Satélite"
    },
    {
        "cidade": "Conceição do Araguaia",
        "uf": "PA",
        "latitude": -8.261356,
        "longitude": -49.268913,
        "empresa": "CLARO",
        "pf-ou-pj": "Pessoa Jurídica",
        "tecnologia": "VSAT",
        "tipo-de-Produto": "LINHA_DEDICADA",
        "meio-de-acesso": "Satélite"
    },
    {
        "cidade": "Concórdia do Pará",
        "uf": "PA",
        "latitude": -1.992375,
        "longitude": -47.942204,
        "empresa": "CLARO",
        "pf-ou-pj": "Pessoa Jurídica",
        "tecnologia": "ADSL1",
        "tipo-de-Produto": "LINHA_DEDICADA",
        "meio-de-acesso": "Cabo Metálico"
    },
    {
        "cidade": "Concórdia do Pará",
        "uf": "PA",
        "latitude": -1.992375,
        "longitude": -47.942204,
        "empresa": "CLARO",
        "pf-ou-pj": "Pessoa Jurídica",
        "tecnologia": "FTTH",
        "tipo-de-Produto": "LINHA_DEDICADA",
        "meio-de-acesso": "Fibra"
    },
    {
        "cidade": "Concórdia do Pará",
        "uf": "PA",
        "latitude": -1.992375,
        "longitude": -47.942204,
        "empresa": "CLARO",
        "pf-ou-pj": "Pessoa Jurídica",
        "tecnologia": "VSAT",
        "tipo-de-Produto": "LINHA_DEDICADA",
        "meio-de-acesso": "Satélite"
    },
    {
        "cidade": "Cumaru do Norte",
        "uf": "PA",
        "latitude": -7.810968,
        "longitude": -50.769772,
        "empresa": "CLARO",
        "pf-ou-pj": "Pessoa Jurídica",
        "tecnologia": "VSAT",
        "tipo-de-Produto": "LINHA_DEDICADA",
        "meio-de-acesso": "Satélite"
    },
    {
        "cidade": "Curionópolis",
        "uf": "PA",
        "latitude": -6.099654,
        "longitude": -49.606795,
        "empresa": "CLARO",
        "pf-ou-pj": "Pessoa Jurídica",
        "tecnologia": "ADSL1",
        "tipo-de-Produto": "LINHA_DEDICADA",
        "meio-de-acesso": "Cabo Metálico"
    },
    {
        "cidade": "Curionópolis",
        "uf": "PA",
        "latitude": -6.099654,
        "longitude": -49.606795,
        "empresa": "CLARO",
        "pf-ou-pj": "Pessoa Jurídica",
        "tecnologia": "FTTH",
        "tipo-de-Produto": "LINHA_DEDICADA",
        "meio-de-acesso": "Fibra"
    },
    {
        "cidade": "Curionópolis",
        "uf": "PA",
        "latitude": -6.099654,
        "longitude": -49.606795,
        "empresa": "CLARO",
        "pf-ou-pj": "Pessoa Jurídica",
        "tecnologia": "VSAT",
        "tipo-de-Produto": "LINHA_DEDICADA",
        "meio-de-acesso": "Satélite"
    },
    {
        "cidade": "Curralinho",
        "uf": "PA",
        "latitude": -1.811793,
        "longitude": -49.795227,
        "empresa": "CLARO",
        "pf-ou-pj": "Pessoa Jurídica",
        "tecnologia": "ADSL1",
        "tipo-de-Produto": "LINHA_DEDICADA",
        "meio-de-acesso": "Cabo Metálico"
    },
    {
        "cidade": "Curralinho",
        "uf": "PA",
        "latitude": -1.811793,
        "longitude": -49.795227,
        "empresa": "CLARO",
        "pf-ou-pj": "Pessoa Jurídica",
        "tecnologia": "FTTH",
        "tipo-de-Produto": "LINHA_DEDICADA",
        "meio-de-acesso": "Fibra"
    },
    {
        "cidade": "Curralinho",
        "uf": "PA",
        "latitude": -1.811793,
        "longitude": -49.795227,
        "empresa": "CLARO",
        "pf-ou-pj": "Pessoa Jurídica",
        "tecnologia": "VSAT",
        "tipo-de-Produto": "LINHA_DEDICADA",
        "meio-de-acesso": "Satélite"
    },
    {
        "cidade": "Curuá",
        "uf": "PA",
        "latitude": -1.887754,
        "longitude": -55.116842,
        "empresa": "CLARO",
        "pf-ou-pj": "Pessoa Jurídica",
        "tecnologia": "ADSL1",
        "tipo-de-Produto": "LINHA_DEDICADA",
        "meio-de-acesso": "Cabo Metálico"
    },
    {
        "cidade": "Curuá",
        "uf": "PA",
        "latitude": -1.887754,
        "longitude": -55.116842,
        "empresa": "CLARO",
        "pf-ou-pj": "Pessoa Jurídica",
        "tecnologia": "FTTH",
        "tipo-de-Produto": "LINHA_DEDICADA",
        "meio-de-acesso": "Fibra"
    },
    {
        "cidade": "Curuá",
        "uf": "PA",
        "latitude": -1.887754,
        "longitude": -55.116842,
        "empresa": "CLARO",
        "pf-ou-pj": "Pessoa Jurídica",
        "tecnologia": "VSAT",
        "tipo-de-Produto": "LINHA_DEDICADA",
        "meio-de-acesso": "Satélite"
    },
    {
        "cidade": "Curuçá",
        "uf": "PA",
        "latitude": -0.733214,
        "longitude": -47.85148,
        "empresa": "CLARO",
        "pf-ou-pj": "Pessoa Jurídica",
        "tecnologia": "ADSL1",
        "tipo-de-Produto": "LINHA_DEDICADA",
        "meio-de-acesso": "Cabo Metálico"
    },
    {
        "cidade": "Curuçá",
        "uf": "PA",
        "latitude": -0.733214,
        "longitude": -47.85148,
        "empresa": "CLARO",
        "pf-ou-pj": "Pessoa Jurídica",
        "tecnologia": "VSAT",
        "tipo-de-Produto": "INTERNET",
        "meio-de-acesso": "Satélite"
    },
    {
        "cidade": "Curuçá",
        "uf": "PA",
        "latitude": -0.733214,
        "longitude": -47.85148,
        "empresa": "CLARO",
        "pf-ou-pj": "Pessoa Jurídica",
        "tecnologia": "VSAT",
        "tipo-de-Produto": "LINHA_DEDICADA",
        "meio-de-acesso": "Satélite"
    },
    {
        "cidade": "Dom Eliseu",
        "uf": "PA",
        "latitude": -4.283786,
        "longitude": -47.505688,
        "empresa": "CLARO",
        "pf-ou-pj": "Pessoa Jurídica",
        "tecnologia": "ADSL1",
        "tipo-de-Produto": "INTERNET",
        "meio-de-acesso": "Cabo Metálico"
    },
    {
        "cidade": "Dom Eliseu",
        "uf": "PA",
        "latitude": -4.283786,
        "longitude": -47.505688,
        "empresa": "CLARO",
        "pf-ou-pj": "Pessoa Jurídica",
        "tecnologia": "ADSL1",
        "tipo-de-Produto": "LINHA_DEDICADA",
        "meio-de-acesso": "Cabo Metálico"
    },
    {
        "cidade": "Dom Eliseu",
        "uf": "PA",
        "latitude": -4.283786,
        "longitude": -47.505688,
        "empresa": "CLARO",
        "pf-ou-pj": "Pessoa Jurídica",
        "tecnologia": "FTTH",
        "tipo-de-Produto": "LINHA_DEDICADA",
        "meio-de-acesso": "Fibra"
    },
    {
        "cidade": "Dom Eliseu",
        "uf": "PA",
        "latitude": -4.283786,
        "longitude": -47.505688,
        "empresa": "CLARO",
        "pf-ou-pj": "Pessoa Jurídica",
        "tecnologia": "VSAT",
        "tipo-de-Produto": "INTERNET",
        "meio-de-acesso": "Satélite"
    },
    {
        "cidade": "Dom Eliseu",
        "uf": "PA",
        "latitude": -4.283786,
        "longitude": -47.505688,
        "empresa": "CLARO",
        "pf-ou-pj": "Pessoa Jurídica",
        "tecnologia": "VSAT",
        "tipo-de-Produto": "LINHA_DEDICADA",
        "meio-de-acesso": "Satélite"
    },
    {
        "cidade": "Eldorado do Carajás",
        "uf": "PA",
        "latitude": null,
        "longitude": null,
        "empresa": "CLARO",
        "pf-ou-pj": "Pessoa Jurídica",
        "tecnologia": "FTTH",
        "tipo-de-Produto": "INTERNET",
        "meio-de-acesso": "Fibra"
    },
    {
        "cidade": "Eldorado do Carajás",
        "uf": "PA",
        "latitude": null,
        "longitude": null,
        "empresa": "CLARO",
        "pf-ou-pj": "Pessoa Jurídica",
        "tecnologia": "FTTH",
        "tipo-de-Produto": "LINHA_DEDICADA",
        "meio-de-acesso": "Fibra"
    },
    {
        "cidade": "Eldorado do Carajás",
        "uf": "PA",
        "latitude": null,
        "longitude": null,
        "empresa": "CLARO",
        "pf-ou-pj": "Pessoa Jurídica",
        "tecnologia": "VSAT",
        "tipo-de-Produto": "LINHA_DEDICADA",
        "meio-de-acesso": "Satélite"
    },
    {
        "cidade": "Faro",
        "uf": "PA",
        "latitude": -2.168047,
        "longitude": -56.740498,
        "empresa": "CLARO",
        "pf-ou-pj": "Pessoa Jurídica",
        "tecnologia": "ADSL1",
        "tipo-de-Produto": "LINHA_DEDICADA",
        "meio-de-acesso": "Cabo Metálico"
    },
    {
        "cidade": "Faro",
        "uf": "PA",
        "latitude": -2.168047,
        "longitude": -56.740498,
        "empresa": "CLARO",
        "pf-ou-pj": "Pessoa Jurídica",
        "tecnologia": "VSAT",
        "tipo-de-Produto": "LINHA_DEDICADA",
        "meio-de-acesso": "Satélite"
    },
    {
        "cidade": "Floresta do Araguaia",
        "uf": "PA",
        "latitude": -7.553346,
        "longitude": -49.712495,
        "empresa": "CLARO",
        "pf-ou-pj": "Pessoa Jurídica",
        "tecnologia": "ADSL1",
        "tipo-de-Produto": "LINHA_DEDICADA",
        "meio-de-acesso": "Cabo Metálico"
    },
    {
        "cidade": "Floresta do Araguaia",
        "uf": "PA",
        "latitude": -7.553346,
        "longitude": -49.712495,
        "empresa": "CLARO",
        "pf-ou-pj": "Pessoa Jurídica",
        "tecnologia": "VSAT",
        "tipo-de-Produto": "INTERNET",
        "meio-de-acesso": "Satélite"
    },
    {
        "cidade": "Floresta do Araguaia",
        "uf": "PA",
        "latitude": -7.553346,
        "longitude": -49.712495,
        "empresa": "CLARO",
        "pf-ou-pj": "Pessoa Jurídica",
        "tecnologia": "VSAT",
        "tipo-de-Produto": "LINHA_DEDICADA",
        "meio-de-acesso": "Satélite"
    },
    {
        "cidade": "Garrafão do Norte",
        "uf": "PA",
        "latitude": -1.929858,
        "longitude": -47.050499,
        "empresa": "CLARO",
        "pf-ou-pj": "Pessoa Jurídica",
        "tecnologia": "FTTH",
        "tipo-de-Produto": "LINHA_DEDICADA",
        "meio-de-acesso": "Fibra"
    },
    {
        "cidade": "Garrafão do Norte",
        "uf": "PA",
        "latitude": -1.929858,
        "longitude": -47.050499,
        "empresa": "CLARO",
        "pf-ou-pj": "Pessoa Jurídica",
        "tecnologia": "VSAT",
        "tipo-de-Produto": "LINHA_DEDICADA",
        "meio-de-acesso": "Satélite"
    },
    {
        "cidade": "Goianésia do Pará",
        "uf": "PA",
        "latitude": -3.843384,
        "longitude": -49.097385,
        "empresa": "CLARO",
        "pf-ou-pj": "Pessoa Jurídica",
        "tecnologia": "ADSL1",
        "tipo-de-Produto": "LINHA_DEDICADA",
        "meio-de-acesso": "Cabo Metálico"
    },
    {
        "cidade": "Goianésia do Pará",
        "uf": "PA",
        "latitude": -3.843384,
        "longitude": -49.097385,
        "empresa": "CLARO",
        "pf-ou-pj": "Pessoa Jurídica",
        "tecnologia": "FTTH",
        "tipo-de-Produto": "LINHA_DEDICADA",
        "meio-de-acesso": "Fibra"
    },
    {
        "cidade": "Goianésia do Pará",
        "uf": "PA",
        "latitude": -3.843384,
        "longitude": -49.097385,
        "empresa": "CLARO",
        "pf-ou-pj": "Pessoa Jurídica",
        "tecnologia": "VSAT",
        "tipo-de-Produto": "LINHA_DEDICADA",
        "meio-de-acesso": "Satélite"
    },
    {
        "cidade": "Gurupá",
        "uf": "PA",
        "latitude": -1.414123,
        "longitude": -51.633841,
        "empresa": "CLARO",
        "pf-ou-pj": "Pessoa Jurídica",
        "tecnologia": "ADSL1",
        "tipo-de-Produto": "LINHA_DEDICADA",
        "meio-de-acesso": "Cabo Metálico"
    },
    {
        "cidade": "Gurupá",
        "uf": "PA",
        "latitude": -1.414123,
        "longitude": -51.633841,
        "empresa": "CLARO",
        "pf-ou-pj": "Pessoa Jurídica",
        "tecnologia": "VSAT",
        "tipo-de-Produto": "LINHA_DEDICADA",
        "meio-de-acesso": "Satélite"
    },
    {
        "cidade": "Igarapé-Açu",
        "uf": "PA",
        "latitude": -1.136139,
        "longitude": -47.617409,
        "empresa": "CLARO",
        "pf-ou-pj": "Pessoa Jurídica",
        "tecnologia": "FTTH",
        "tipo-de-Produto": "INTERNET",
        "meio-de-acesso": "Fibra"
    },
    {
        "cidade": "Igarapé-Açu",
        "uf": "PA",
        "latitude": -1.136139,
        "longitude": -47.617409,
        "empresa": "CLARO",
        "pf-ou-pj": "Pessoa Jurídica",
        "tecnologia": "FTTH",
        "tipo-de-Produto": "LINHA_DEDICADA",
        "meio-de-acesso": "Fibra"
    },
    {
        "cidade": "Igarapé-Açu",
        "uf": "PA",
        "latitude": -1.136139,
        "longitude": -47.617409,
        "empresa": "CLARO",
        "pf-ou-pj": "Pessoa Jurídica",
        "tecnologia": "VSAT",
        "tipo-de-Produto": "LINHA_DEDICADA",
        "meio-de-acesso": "Satélite"
    },
    {
        "cidade": "Igarapé-Miri",
        "uf": "PA",
        "latitude": -1.975326,
        "longitude": -48.957453,
        "empresa": "CLARO",
        "pf-ou-pj": "Pessoa Jurídica",
        "tecnologia": "ADSL1",
        "tipo-de-Produto": "LINHA_DEDICADA",
        "meio-de-acesso": "Cabo Metálico"
    },
    {
        "cidade": "Igarapé-Miri",
        "uf": "PA",
        "latitude": -1.975326,
        "longitude": -48.957453,
        "empresa": "CLARO",
        "pf-ou-pj": "Pessoa Jurídica",
        "tecnologia": "FTTH",
        "tipo-de-Produto": "INTERNET",
        "meio-de-acesso": "Fibra"
    },
    {
        "cidade": "Igarapé-Miri",
        "uf": "PA",
        "latitude": -1.975326,
        "longitude": -48.957453,
        "empresa": "CLARO",
        "pf-ou-pj": "Pessoa Jurídica",
        "tecnologia": "FTTH",
        "tipo-de-Produto": "LINHA_DEDICADA",
        "meio-de-acesso": "Fibra"
    },
    {
        "cidade": "Igarapé-Miri",
        "uf": "PA",
        "latitude": -1.975326,
        "longitude": -48.957453,
        "empresa": "CLARO",
        "pf-ou-pj": "Pessoa Jurídica",
        "tecnologia": "VSAT",
        "tipo-de-Produto": "LINHA_DEDICADA",
        "meio-de-acesso": "Satélite"
    },
    {
        "cidade": "Inhangapi",
        "uf": "PA",
        "latitude": -1.434897,
        "longitude": -47.911393,
        "empresa": "CLARO",
        "pf-ou-pj": "Pessoa Jurídica",
        "tecnologia": "ADSL1",
        "tipo-de-Produto": "LINHA_DEDICADA",
        "meio-de-acesso": "Cabo Metálico"
    },
    {
        "cidade": "Inhangapi",
        "uf": "PA",
        "latitude": -1.434897,
        "longitude": -47.911393,
        "empresa": "CLARO",
        "pf-ou-pj": "Pessoa Jurídica",
        "tecnologia": "FTTH",
        "tipo-de-Produto": "LINHA_DEDICADA",
        "meio-de-acesso": "Fibra"
    },
    {
        "cidade": "Inhangapi",
        "uf": "PA",
        "latitude": -1.434897,
        "longitude": -47.911393,
        "empresa": "CLARO",
        "pf-ou-pj": "Pessoa Jurídica",
        "tecnologia": "VSAT",
        "tipo-de-Produto": "LINHA_DEDICADA",
        "meio-de-acesso": "Satélite"
    },
    {
        "cidade": "Ipixuna do Pará",
        "uf": "PA",
        "latitude": -2.559921,
        "longitude": -47.505911,
        "empresa": "CLARO",
        "pf-ou-pj": "Pessoa Jurídica",
        "tecnologia": "ADSL1",
        "tipo-de-Produto": "LINHA_DEDICADA",
        "meio-de-acesso": "Cabo Metálico"
    },
    {
        "cidade": "Ipixuna do Pará",
        "uf": "PA",
        "latitude": -2.559921,
        "longitude": -47.505911,
        "empresa": "CLARO",
        "pf-ou-pj": "Pessoa Jurídica",
        "tecnologia": "FTTH",
        "tipo-de-Produto": "LINHA_DEDICADA",
        "meio-de-acesso": "Fibra"
    },
    {
        "cidade": "Ipixuna do Pará",
        "uf": "PA",
        "latitude": -2.559921,
        "longitude": -47.505911,
        "empresa": "CLARO",
        "pf-ou-pj": "Pessoa Jurídica",
        "tecnologia": "VSAT",
        "tipo-de-Produto": "LINHA_DEDICADA",
        "meio-de-acesso": "Satélite"
    },
    {
        "cidade": "Irituia",
        "uf": "PA",
        "latitude": -1.769842,
        "longitude": -47.445997,
        "empresa": "CLARO",
        "pf-ou-pj": "Pessoa Jurídica",
        "tecnologia": "ADSL1",
        "tipo-de-Produto": "LINHA_DEDICADA",
        "meio-de-acesso": "Cabo Metálico"
    },
    {
        "cidade": "Irituia",
        "uf": "PA",
        "latitude": -1.769842,
        "longitude": -47.445997,
        "empresa": "CLARO",
        "pf-ou-pj": "Pessoa Jurídica",
        "tecnologia": "FTTH",
        "tipo-de-Produto": "INTERNET",
        "meio-de-acesso": "Fibra"
    },
    {
        "cidade": "Irituia",
        "uf": "PA",
        "latitude": -1.769842,
        "longitude": -47.445997,
        "empresa": "CLARO",
        "pf-ou-pj": "Pessoa Jurídica",
        "tecnologia": "FTTH",
        "tipo-de-Produto": "LINHA_DEDICADA",
        "meio-de-acesso": "Fibra"
    },
    {
        "cidade": "Irituia",
        "uf": "PA",
        "latitude": -1.769842,
        "longitude": -47.445997,
        "empresa": "CLARO",
        "pf-ou-pj": "Pessoa Jurídica",
        "tecnologia": "VSAT",
        "tipo-de-Produto": "INTERNET",
        "meio-de-acesso": "Satélite"
    },
    {
        "cidade": "Irituia",
        "uf": "PA",
        "latitude": -1.769842,
        "longitude": -47.445997,
        "empresa": "CLARO",
        "pf-ou-pj": "Pessoa Jurídica",
        "tecnologia": "VSAT",
        "tipo-de-Produto": "LINHA_DEDICADA",
        "meio-de-acesso": "Satélite"
    },
    {
        "cidade": "Itaituba",
        "uf": "PA",
        "latitude": -4.266696,
        "longitude": -55.99264,
        "empresa": "CLARO",
        "pf-ou-pj": "Pessoa Jurídica",
        "tecnologia": "ADSL1",
        "tipo-de-Produto": "INTERNET",
        "meio-de-acesso": "Cabo Metálico"
    },
    {
        "cidade": "Itaituba",
        "uf": "PA",
        "latitude": -4.266696,
        "longitude": -55.99264,
        "empresa": "CLARO",
        "pf-ou-pj": "Pessoa Jurídica",
        "tecnologia": "ADSL1",
        "tipo-de-Produto": "LINHA_DEDICADA",
        "meio-de-acesso": "Cabo Metálico"
    },
    {
        "cidade": "Itaituba",
        "uf": "PA",
        "latitude": -4.266696,
        "longitude": -55.99264,
        "empresa": "CLARO",
        "pf-ou-pj": "Pessoa Jurídica",
        "tecnologia": "ADSL1",
        "tipo-de-Produto": "OUTROS",
        "meio-de-acesso": "Cabo Metálico"
    },
    {
        "cidade": "Itaituba",
        "uf": "PA",
        "latitude": -4.266696,
        "longitude": -55.99264,
        "empresa": "CLARO",
        "pf-ou-pj": "Pessoa Jurídica",
        "tecnologia": "FTTH",
        "tipo-de-Produto": "LINHA_DEDICADA",
        "meio-de-acesso": "Fibra"
    },
    {
        "cidade": "Itaituba",
        "uf": "PA",
        "latitude": -4.266696,
        "longitude": -55.99264,
        "empresa": "CLARO",
        "pf-ou-pj": "Pessoa Jurídica",
        "tecnologia": "VSAT",
        "tipo-de-Produto": "INTERNET",
        "meio-de-acesso": "Satélite"
    },
    {
        "cidade": "Itaituba",
        "uf": "PA",
        "latitude": -4.266696,
        "longitude": -55.99264,
        "empresa": "CLARO",
        "pf-ou-pj": "Pessoa Jurídica",
        "tecnologia": "VSAT",
        "tipo-de-Produto": "LINHA_DEDICADA",
        "meio-de-acesso": "Satélite"
    },
    {
        "cidade": "Itupiranga",
        "uf": "PA",
        "latitude": -5.132716,
        "longitude": -49.335849,
        "empresa": "CLARO",
        "pf-ou-pj": "Pessoa Jurídica",
        "tecnologia": "ADSL1",
        "tipo-de-Produto": "LINHA_DEDICADA",
        "meio-de-acesso": "Cabo Metálico"
    },
    {
        "cidade": "Itupiranga",
        "uf": "PA",
        "latitude": -5.132716,
        "longitude": -49.335849,
        "empresa": "CLARO",
        "pf-ou-pj": "Pessoa Jurídica",
        "tecnologia": "VSAT",
        "tipo-de-Produto": "INTERNET",
        "meio-de-acesso": "Satélite"
    },
    {
        "cidade": "Itupiranga",
        "uf": "PA",
        "latitude": -5.132716,
        "longitude": -49.335849,
        "empresa": "CLARO",
        "pf-ou-pj": "Pessoa Jurídica",
        "tecnologia": "VSAT",
        "tipo-de-Produto": "LINHA_DEDICADA",
        "meio-de-acesso": "Satélite"
    },
    {
        "cidade": "Jacareacanga",
        "uf": "PA",
        "latitude": -6.21469,
        "longitude": -57.754352,
        "empresa": "CLARO",
        "pf-ou-pj": "Pessoa Jurídica",
        "tecnologia": "ADSL1",
        "tipo-de-Produto": "LINHA_DEDICADA",
        "meio-de-acesso": "Cabo Metálico"
    },
    {
        "cidade": "Jacareacanga",
        "uf": "PA",
        "latitude": -6.21469,
        "longitude": -57.754352,
        "empresa": "CLARO",
        "pf-ou-pj": "Pessoa Jurídica",
        "tecnologia": "VSAT",
        "tipo-de-Produto": "LINHA_DEDICADA",
        "meio-de-acesso": "Satélite"
    },
    {
        "cidade": "Jacundá",
        "uf": "PA",
        "latitude": -4.446173,
        "longitude": -49.115272,
        "empresa": "CLARO",
        "pf-ou-pj": "Pessoa Jurídica",
        "tecnologia": "ADSL1",
        "tipo-de-Produto": "LINHA_DEDICADA",
        "meio-de-acesso": "Cabo Metálico"
    },
    {
        "cidade": "Jacundá",
        "uf": "PA",
        "latitude": -4.446173,
        "longitude": -49.115272,
        "empresa": "CLARO",
        "pf-ou-pj": "Pessoa Jurídica",
        "tecnologia": "FTTH",
        "tipo-de-Produto": "LINHA_DEDICADA",
        "meio-de-acesso": "Fibra"
    },
    {
        "cidade": "Jacundá",
        "uf": "PA",
        "latitude": -4.446173,
        "longitude": -49.115272,
        "empresa": "CLARO",
        "pf-ou-pj": "Pessoa Jurídica",
        "tecnologia": "VSAT",
        "tipo-de-Produto": "LINHA_DEDICADA",
        "meio-de-acesso": "Satélite"
    },
    {
        "cidade": "Juruti",
        "uf": "PA",
        "latitude": -2.163472,
        "longitude": -56.088903,
        "empresa": "CLARO",
        "pf-ou-pj": "Pessoa Jurídica",
        "tecnologia": "ADSL1",
        "tipo-de-Produto": "LINHA_DEDICADA",
        "meio-de-acesso": "Cabo Metálico"
    },
    {
        "cidade": "Juruti",
        "uf": "PA",
        "latitude": -2.163472,
        "longitude": -56.088903,
        "empresa": "CLARO",
        "pf-ou-pj": "Pessoa Jurídica",
        "tecnologia": "FTTH",
        "tipo-de-Produto": "LINHA_DEDICADA",
        "meio-de-acesso": "Fibra"
    },
    {
        "cidade": "Juruti",
        "uf": "PA",
        "latitude": -2.163472,
        "longitude": -56.088903,
        "empresa": "CLARO",
        "pf-ou-pj": "Pessoa Jurídica",
        "tecnologia": "VSAT",
        "tipo-de-Produto": "INTERNET",
        "meio-de-acesso": "Satélite"
    },
    {
        "cidade": "Juruti",
        "uf": "PA",
        "latitude": -2.163472,
        "longitude": -56.088903,
        "empresa": "CLARO",
        "pf-ou-pj": "Pessoa Jurídica",
        "tecnologia": "VSAT",
        "tipo-de-Produto": "LINHA_DEDICADA",
        "meio-de-acesso": "Satélite"
    },
    {
        "cidade": "Limoeiro do Ajuru",
        "uf": "PA",
        "latitude": -1.898498,
        "longitude": -49.390308,
        "empresa": "CLARO",
        "pf-ou-pj": "Pessoa Jurídica",
        "tecnologia": "ADSL1",
        "tipo-de-Produto": "LINHA_DEDICADA",
        "meio-de-acesso": "Cabo Metálico"
    },
    {
        "cidade": "Limoeiro do Ajuru",
        "uf": "PA",
        "latitude": -1.898498,
        "longitude": -49.390308,
        "empresa": "CLARO",
        "pf-ou-pj": "Pessoa Jurídica",
        "tecnologia": "VSAT",
        "tipo-de-Produto": "LINHA_DEDICADA",
        "meio-de-acesso": "Satélite"
    },
    {
        "cidade": "Magalhães Barata",
        "uf": "PA",
        "latitude": -0.803391,
        "longitude": -47.601445,
        "empresa": "CLARO",
        "pf-ou-pj": "Pessoa Jurídica",
        "tecnologia": "ADSL1",
        "tipo-de-Produto": "LINHA_DEDICADA",
        "meio-de-acesso": "Cabo Metálico"
    },
    {
        "cidade": "Magalhães Barata",
        "uf": "PA",
        "latitude": -0.803391,
        "longitude": -47.601445,
        "empresa": "CLARO",
        "pf-ou-pj": "Pessoa Jurídica",
        "tecnologia": "FTTH",
        "tipo-de-Produto": "LINHA_DEDICADA",
        "meio-de-acesso": "Fibra"
    },
    {
        "cidade": "Magalhães Barata",
        "uf": "PA",
        "latitude": -0.803391,
        "longitude": -47.601445,
        "empresa": "CLARO",
        "pf-ou-pj": "Pessoa Jurídica",
        "tecnologia": "VSAT",
        "tipo-de-Produto": "INTERNET",
        "meio-de-acesso": "Satélite"
    },
    {
        "cidade": "Magalhães Barata",
        "uf": "PA",
        "latitude": -0.803391,
        "longitude": -47.601445,
        "empresa": "CLARO",
        "pf-ou-pj": "Pessoa Jurídica",
        "tecnologia": "VSAT",
        "tipo-de-Produto": "LINHA_DEDICADA",
        "meio-de-acesso": "Satélite"
    },
    {
        "cidade": "Marabá",
        "uf": "PA",
        "latitude": -5.38075,
        "longitude": -49.132672,
        "empresa": "CLARO",
        "pf-ou-pj": "Pessoa Jurídica",
        "tecnologia": "ADSL1",
        "tipo-de-Produto": "INTERNET",
        "meio-de-acesso": "Cabo Metálico"
    },
    {
        "cidade": "Marabá",
        "uf": "PA",
        "latitude": -5.38075,
        "longitude": -49.132672,
        "empresa": "CLARO",
        "pf-ou-pj": "Pessoa Jurídica",
        "tecnologia": "ADSL1",
        "tipo-de-Produto": "LINHA_DEDICADA",
        "meio-de-acesso": "Cabo Metálico"
    },
    {
        "cidade": "Marabá",
        "uf": "PA",
        "latitude": -5.38075,
        "longitude": -49.132672,
        "empresa": "CLARO",
        "pf-ou-pj": "Pessoa Jurídica",
        "tecnologia": "ADSL1",
        "tipo-de-Produto": "OUTROS",
        "meio-de-acesso": "Cabo Metálico"
    },
    {
        "cidade": "Marabá",
        "uf": "PA",
        "latitude": -5.38075,
        "longitude": -49.132672,
        "empresa": "CLARO",
        "pf-ou-pj": "Pessoa Jurídica",
        "tecnologia": "FTTH",
        "tipo-de-Produto": "INTERNET",
        "meio-de-acesso": "Fibra"
    },
    {
        "cidade": "Marabá",
        "uf": "PA",
        "latitude": -5.38075,
        "longitude": -49.132672,
        "empresa": "CLARO",
        "pf-ou-pj": "Pessoa Jurídica",
        "tecnologia": "FTTH",
        "tipo-de-Produto": "LINHA_DEDICADA",
        "meio-de-acesso": "Fibra"
    },
    {
        "cidade": "Marabá",
        "uf": "PA",
        "latitude": -5.38075,
        "longitude": -49.132672,
        "empresa": "CLARO",
        "pf-ou-pj": "Pessoa Jurídica",
        "tecnologia": "FWA",
        "tipo-de-Produto": "LINHA_DEDICADA",
        "meio-de-acesso": "Rádio"
    },
    {
        "cidade": "Marabá",
        "uf": "PA",
        "latitude": -5.38075,
        "longitude": -49.132672,
        "empresa": "CLARO",
        "pf-ou-pj": "Pessoa Jurídica",
        "tecnologia": "VSAT",
        "tipo-de-Produto": "INTERNET",
        "meio-de-acesso": "Satélite"
    },
    {
        "cidade": "Marabá",
        "uf": "PA",
        "latitude": -5.38075,
        "longitude": -49.132672,
        "empresa": "CLARO",
        "pf-ou-pj": "Pessoa Jurídica",
        "tecnologia": "VSAT",
        "tipo-de-Produto": "LINHA_DEDICADA",
        "meio-de-acesso": "Satélite"
    },
    {
        "cidade": "Marabá",
        "uf": "PA",
        "latitude": -5.38075,
        "longitude": -49.132672,
        "empresa": "CLARO",
        "pf-ou-pj": "Pessoa Jurídica",
        "tecnologia": "WIMAX",
        "tipo-de-Produto": "OUTROS",
        "meio-de-acesso": "Rádio"
    },
    {
        "cidade": "Maracanã",
        "uf": "PA",
        "latitude": -0.778899,
        "longitude": -47.451983,
        "empresa": "CLARO",
        "pf-ou-pj": "Pessoa Jurídica",
        "tecnologia": "ADSL1",
        "tipo-de-Produto": "LINHA_DEDICADA",
        "meio-de-acesso": "Cabo Metálico"
    },
    {
        "cidade": "Maracanã",
        "uf": "PA",
        "latitude": -0.778899,
        "longitude": -47.451983,
        "empresa": "CLARO",
        "pf-ou-pj": "Pessoa Jurídica",
        "tecnologia": "ADSL1",
        "tipo-de-Produto": "OUTROS",
        "meio-de-acesso": "Cabo Metálico"
    },
    {
        "cidade": "Maracanã",
        "uf": "PA",
        "latitude": -0.778899,
        "longitude": -47.451983,
        "empresa": "CLARO",
        "pf-ou-pj": "Pessoa Jurídica",
        "tecnologia": "FTTH",
        "tipo-de-Produto": "LINHA_DEDICADA",
        "meio-de-acesso": "Fibra"
    },
    {
        "cidade": "Maracanã",
        "uf": "PA",
        "latitude": -0.778899,
        "longitude": -47.451983,
        "empresa": "CLARO",
        "pf-ou-pj": "Pessoa Jurídica",
        "tecnologia": "VSAT",
        "tipo-de-Produto": "LINHA_DEDICADA",
        "meio-de-acesso": "Satélite"
    },
    {
        "cidade": "Marapanim",
        "uf": "PA",
        "latitude": -0.714702,
        "longitude": -47.70336,
        "empresa": "CLARO",
        "pf-ou-pj": "Pessoa Jurídica",
        "tecnologia": "ADSL1",
        "tipo-de-Produto": "LINHA_DEDICADA",
        "meio-de-acesso": "Cabo Metálico"
    },
    {
        "cidade": "Marapanim",
        "uf": "PA",
        "latitude": -0.714702,
        "longitude": -47.70336,
        "empresa": "CLARO",
        "pf-ou-pj": "Pessoa Jurídica",
        "tecnologia": "ADSL1",
        "tipo-de-Produto": "OUTROS",
        "meio-de-acesso": "Cabo Metálico"
    },
    {
        "cidade": "Marapanim",
        "uf": "PA",
        "latitude": -0.714702,
        "longitude": -47.70336,
        "empresa": "CLARO",
        "pf-ou-pj": "Pessoa Jurídica",
        "tecnologia": "FTTH",
        "tipo-de-Produto": "LINHA_DEDICADA",
        "meio-de-acesso": "Fibra"
    },
    {
        "cidade": "Marapanim",
        "uf": "PA",
        "latitude": -0.714702,
        "longitude": -47.70336,
        "empresa": "CLARO",
        "pf-ou-pj": "Pessoa Jurídica",
        "tecnologia": "VSAT",
        "tipo-de-Produto": "LINHA_DEDICADA",
        "meio-de-acesso": "Satélite"
    },
    {
        "cidade": "Marituba",
        "uf": "PA",
        "latitude": -1.36002,
        "longitude": -48.342064,
        "empresa": "CLARO",
        "pf-ou-pj": "Pessoa Jurídica",
        "tecnologia": "ADSL1",
        "tipo-de-Produto": "LINHA_DEDICADA",
        "meio-de-acesso": "Cabo Metálico"
    },
    {
        "cidade": "Marituba",
        "uf": "PA",
        "latitude": -1.36002,
        "longitude": -48.342064,
        "empresa": "CLARO",
        "pf-ou-pj": "Pessoa Jurídica",
        "tecnologia": "FTTH",
        "tipo-de-Produto": "INTERNET",
        "meio-de-acesso": "Fibra"
    },
    {
        "cidade": "Marituba",
        "uf": "PA",
        "latitude": -1.36002,
        "longitude": -48.342064,
        "empresa": "CLARO",
        "pf-ou-pj": "Pessoa Jurídica",
        "tecnologia": "FTTH",
        "tipo-de-Produto": "LINHA_DEDICADA",
        "meio-de-acesso": "Fibra"
    },
    {
        "cidade": "Marituba",
        "uf": "PA",
        "latitude": -1.36002,
        "longitude": -48.342064,
        "empresa": "CLARO",
        "pf-ou-pj": "Pessoa Jurídica",
        "tecnologia": "FWA",
        "tipo-de-Produto": "LINHA_DEDICADA",
        "meio-de-acesso": "Rádio"
    },
    {
        "cidade": "Medicilândia",
        "uf": "PA",
        "latitude": -3.446375,
        "longitude": -52.88748,
        "empresa": "CLARO",
        "pf-ou-pj": "Pessoa Jurídica",
        "tecnologia": "ADSL1",
        "tipo-de-Produto": "LINHA_DEDICADA",
        "meio-de-acesso": "Cabo Metálico"
    },
    {
        "cidade": "Medicilândia",
        "uf": "PA",
        "latitude": -3.446375,
        "longitude": -52.88748,
        "empresa": "CLARO",
        "pf-ou-pj": "Pessoa Jurídica",
        "tecnologia": "FTTH",
        "tipo-de-Produto": "LINHA_DEDICADA",
        "meio-de-acesso": "Fibra"
    },
    {
        "cidade": "Medicilândia",
        "uf": "PA",
        "latitude": -3.446375,
        "longitude": -52.88748,
        "empresa": "CLARO",
        "pf-ou-pj": "Pessoa Jurídica",
        "tecnologia": "VSAT",
        "tipo-de-Produto": "LINHA_DEDICADA",
        "meio-de-acesso": "Satélite"
    },
    {
        "cidade": "Melgaço",
        "uf": "PA",
        "latitude": -1.803202,
        "longitude": -50.714927,
        "empresa": "CLARO",
        "pf-ou-pj": "Pessoa Jurídica",
        "tecnologia": "ADSL1",
        "tipo-de-Produto": "LINHA_DEDICADA",
        "meio-de-acesso": "Cabo Metálico"
    },
    {
        "cidade": "Melgaço",
        "uf": "PA",
        "latitude": -1.803202,
        "longitude": -50.714927,
        "empresa": "CLARO",
        "pf-ou-pj": "Pessoa Jurídica",
        "tecnologia": "FTTH",
        "tipo-de-Produto": "LINHA_DEDICADA",
        "meio-de-acesso": "Fibra"
    },
    {
        "cidade": "Melgaço",
        "uf": "PA",
        "latitude": -1.803202,
        "longitude": -50.714927,
        "empresa": "CLARO",
        "pf-ou-pj": "Pessoa Jurídica",
        "tecnologia": "VSAT",
        "tipo-de-Produto": "LINHA_DEDICADA",
        "meio-de-acesso": "Satélite"
    },
    {
        "cidade": "Mocajuba",
        "uf": "PA",
        "latitude": -2.583098,
        "longitude": -49.504224,
        "empresa": "CLARO",
        "pf-ou-pj": "Pessoa Jurídica",
        "tecnologia": "ADSL1",
        "tipo-de-Produto": "LINHA_DEDICADA",
        "meio-de-acesso": "Cabo Metálico"
    },
    {
        "cidade": "Mocajuba",
        "uf": "PA",
        "latitude": -2.583098,
        "longitude": -49.504224,
        "empresa": "CLARO",
        "pf-ou-pj": "Pessoa Jurídica",
        "tecnologia": "FTTH",
        "tipo-de-Produto": "LINHA_DEDICADA",
        "meio-de-acesso": "Fibra"
    },
    {
        "cidade": "Mocajuba",
        "uf": "PA",
        "latitude": -2.583098,
        "longitude": -49.504224,
        "empresa": "CLARO",
        "pf-ou-pj": "Pessoa Jurídica",
        "tecnologia": "VSAT",
        "tipo-de-Produto": "LINHA_DEDICADA",
        "meio-de-acesso": "Satélite"
    },
    {
        "cidade": "Moju",
        "uf": "PA",
        "latitude": -1.889926,
        "longitude": -48.766765,
        "empresa": "CLARO",
        "pf-ou-pj": "Pessoa Jurídica",
        "tecnologia": "ADSL1",
        "tipo-de-Produto": "LINHA_DEDICADA",
        "meio-de-acesso": "Cabo Metálico"
    },
    {
        "cidade": "Moju",
        "uf": "PA",
        "latitude": -1.889926,
        "longitude": -48.766765,
        "empresa": "CLARO",
        "pf-ou-pj": "Pessoa Jurídica",
        "tecnologia": "FTTH",
        "tipo-de-Produto": "LINHA_DEDICADA",
        "meio-de-acesso": "Fibra"
    },
    {
        "cidade": "Moju",
        "uf": "PA",
        "latitude": -1.889926,
        "longitude": -48.766765,
        "empresa": "CLARO",
        "pf-ou-pj": "Pessoa Jurídica",
        "tecnologia": "VSAT",
        "tipo-de-Produto": "LINHA_DEDICADA",
        "meio-de-acesso": "Satélite"
    },
    {
        "cidade": "Mojuí dos Campos",
        "uf": "PA",
        "latitude": null,
        "longitude": null,
        "empresa": "CLARO",
        "pf-ou-pj": "Pessoa Jurídica",
        "tecnologia": "ADSL1",
        "tipo-de-Produto": "LINHA_DEDICADA",
        "meio-de-acesso": "Cabo Metálico"
    },
    {
        "cidade": "Mojuí dos Campos",
        "uf": "PA",
        "latitude": null,
        "longitude": null,
        "empresa": "CLARO",
        "pf-ou-pj": "Pessoa Jurídica",
        "tecnologia": "FTTH",
        "tipo-de-Produto": "LINHA_DEDICADA",
        "meio-de-acesso": "Fibra"
    },
    {
        "cidade": "Mojuí dos Campos",
        "uf": "PA",
        "latitude": null,
        "longitude": null,
        "empresa": "CLARO",
        "pf-ou-pj": "Pessoa Jurídica",
        "tecnologia": "VSAT",
        "tipo-de-Produto": "LINHA_DEDICADA",
        "meio-de-acesso": "Satélite"
    },
    {
        "cidade": "Monte Alegre",
        "uf": "PA",
        "latitude": -1.997679,
        "longitude": -54.072386,
        "empresa": "CLARO",
        "pf-ou-pj": "Pessoa Jurídica",
        "tecnologia": "ADSL1",
        "tipo-de-Produto": "LINHA_DEDICADA",
        "meio-de-acesso": "Cabo Metálico"
    },
    {
        "cidade": "Monte Alegre",
        "uf": "PA",
        "latitude": -1.997679,
        "longitude": -54.072386,
        "empresa": "CLARO",
        "pf-ou-pj": "Pessoa Jurídica",
        "tecnologia": "FTTH",
        "tipo-de-Produto": "LINHA_DEDICADA",
        "meio-de-acesso": "Fibra"
    },
    {
        "cidade": "Monte Alegre",
        "uf": "PA",
        "latitude": -1.997679,
        "longitude": -54.072386,
        "empresa": "CLARO",
        "pf-ou-pj": "Pessoa Jurídica",
        "tecnologia": "VSAT",
        "tipo-de-Produto": "INTERNET",
        "meio-de-acesso": "Satélite"
    },
    {
        "cidade": "Monte Alegre",
        "uf": "PA",
        "latitude": -1.997679,
        "longitude": -54.072386,
        "empresa": "CLARO",
        "pf-ou-pj": "Pessoa Jurídica",
        "tecnologia": "VSAT",
        "tipo-de-Produto": "LINHA_DEDICADA",
        "meio-de-acesso": "Satélite"
    },
    {
        "cidade": "Muaná",
        "uf": "PA",
        "latitude": -1.539359,
        "longitude": -49.222378,
        "empresa": "CLARO",
        "pf-ou-pj": "Pessoa Jurídica",
        "tecnologia": "VSAT",
        "tipo-de-Produto": "INTERNET",
        "meio-de-acesso": "Satélite"
    },
    {
        "cidade": "Muaná",
        "uf": "PA",
        "latitude": -1.539359,
        "longitude": -49.222378,
        "empresa": "CLARO",
        "pf-ou-pj": "Pessoa Jurídica",
        "tecnologia": "VSAT",
        "tipo-de-Produto": "LINHA_DEDICADA",
        "meio-de-acesso": "Satélite"
    },
    {
        "cidade": "Mãe do Rio",
        "uf": "PA",
        "latitude": -2.056833,
        "longitude": -47.560144,
        "empresa": "CLARO",
        "pf-ou-pj": "Pessoa Jurídica",
        "tecnologia": "ADSL1",
        "tipo-de-Produto": "LINHA_DEDICADA",
        "meio-de-acesso": "Cabo Metálico"
    },
    {
        "cidade": "Mãe do Rio",
        "uf": "PA",
        "latitude": -2.056833,
        "longitude": -47.560144,
        "empresa": "CLARO",
        "pf-ou-pj": "Pessoa Jurídica",
        "tecnologia": "FTTH",
        "tipo-de-Produto": "LINHA_DEDICADA",
        "meio-de-acesso": "Fibra"
    },
    {
        "cidade": "Mãe do Rio",
        "uf": "PA",
        "latitude": -2.056833,
        "longitude": -47.560144,
        "empresa": "CLARO",
        "pf-ou-pj": "Pessoa Jurídica",
        "tecnologia": "VSAT",
        "tipo-de-Produto": "INTERNET",
        "meio-de-acesso": "Satélite"
    },
    {
        "cidade": "Mãe do Rio",
        "uf": "PA",
        "latitude": -2.056833,
        "longitude": -47.560144,
        "empresa": "CLARO",
        "pf-ou-pj": "Pessoa Jurídica",
        "tecnologia": "VSAT",
        "tipo-de-Produto": "LINHA_DEDICADA",
        "meio-de-acesso": "Satélite"
    },
    {
        "cidade": "Nova Esperança do Piriá",
        "uf": "PA",
        "latitude": -2.266925,
        "longitude": -46.97315,
        "empresa": "CLARO",
        "pf-ou-pj": "Pessoa Jurídica",
        "tecnologia": "ADSL1",
        "tipo-de-Produto": "LINHA_DEDICADA",
        "meio-de-acesso": "Cabo Metálico"
    },
    {
        "cidade": "Nova Esperança do Piriá",
        "uf": "PA",
        "latitude": -2.266925,
        "longitude": -46.97315,
        "empresa": "CLARO",
        "pf-ou-pj": "Pessoa Jurídica",
        "tecnologia": "ADSL1",
        "tipo-de-Produto": "OUTROS",
        "meio-de-acesso": "Cabo Metálico"
    },
    {
        "cidade": "Nova Esperança do Piriá",
        "uf": "PA",
        "latitude": -2.266925,
        "longitude": -46.97315,
        "empresa": "CLARO",
        "pf-ou-pj": "Pessoa Jurídica",
        "tecnologia": "FTTH",
        "tipo-de-Produto": "LINHA_DEDICADA",
        "meio-de-acesso": "Fibra"
    },
    {
        "cidade": "Nova Esperança do Piriá",
        "uf": "PA",
        "latitude": -2.266925,
        "longitude": -46.97315,
        "empresa": "CLARO",
        "pf-ou-pj": "Pessoa Jurídica",
        "tecnologia": "VSAT",
        "tipo-de-Produto": "LINHA_DEDICADA",
        "meio-de-acesso": "Satélite"
    },
    {
        "cidade": "Nova Ipixuna",
        "uf": "PA",
        "latitude": -4.916221,
        "longitude": -49.082194,
        "empresa": "CLARO",
        "pf-ou-pj": "Pessoa Jurídica",
        "tecnologia": "ADSL1",
        "tipo-de-Produto": "LINHA_DEDICADA",
        "meio-de-acesso": "Cabo Metálico"
    },
    {
        "cidade": "Nova Ipixuna",
        "uf": "PA",
        "latitude": -4.916221,
        "longitude": -49.082194,
        "empresa": "CLARO",
        "pf-ou-pj": "Pessoa Jurídica",
        "tecnologia": "FTTH",
        "tipo-de-Produto": "LINHA_DEDICADA",
        "meio-de-acesso": "Fibra"
    },
    {
        "cidade": "Nova Ipixuna",
        "uf": "PA",
        "latitude": -4.916221,
        "longitude": -49.082194,
        "empresa": "CLARO",
        "pf-ou-pj": "Pessoa Jurídica",
        "tecnologia": "VSAT",
        "tipo-de-Produto": "LINHA_DEDICADA",
        "meio-de-acesso": "Satélite"
    },
    {
        "cidade": "Nova Timboteua",
        "uf": "PA",
        "latitude": -1.20874,
        "longitude": -47.392062,
        "empresa": "CLARO",
        "pf-ou-pj": "Pessoa Jurídica",
        "tecnologia": "ADSL1",
        "tipo-de-Produto": "LINHA_DEDICADA",
        "meio-de-acesso": "Cabo Metálico"
    },
    {
        "cidade": "Nova Timboteua",
        "uf": "PA",
        "latitude": -1.20874,
        "longitude": -47.392062,
        "empresa": "CLARO",
        "pf-ou-pj": "Pessoa Jurídica",
        "tecnologia": "FTTH",
        "tipo-de-Produto": "LINHA_DEDICADA",
        "meio-de-acesso": "Fibra"
    },
    {
        "cidade": "Nova Timboteua",
        "uf": "PA",
        "latitude": -1.20874,
        "longitude": -47.392062,
        "empresa": "CLARO",
        "pf-ou-pj": "Pessoa Jurídica",
        "tecnologia": "VSAT",
        "tipo-de-Produto": "LINHA_DEDICADA",
        "meio-de-acesso": "Satélite"
    },
    {
        "cidade": "Novo Progresso",
        "uf": "PA",
        "latitude": -7.143465,
        "longitude": -55.378591,
        "empresa": "CLARO",
        "pf-ou-pj": "Pessoa Jurídica",
        "tecnologia": "ADSL1",
        "tipo-de-Produto": "LINHA_DEDICADA",
        "meio-de-acesso": "Cabo Metálico"
    },
    {
        "cidade": "Novo Progresso",
        "uf": "PA",
        "latitude": -7.143465,
        "longitude": -55.378591,
        "empresa": "CLARO",
        "pf-ou-pj": "Pessoa Jurídica",
        "tecnologia": "FTTH",
        "tipo-de-Produto": "LINHA_DEDICADA",
        "meio-de-acesso": "Fibra"
    },
    {
        "cidade": "Novo Progresso",
        "uf": "PA",
        "latitude": -7.143465,
        "longitude": -55.378591,
        "empresa": "CLARO",
        "pf-ou-pj": "Pessoa Jurídica",
        "tecnologia": "VSAT",
        "tipo-de-Produto": "INTERNET",
        "meio-de-acesso": "Satélite"
    },
    {
        "cidade": "Novo Progresso",
        "uf": "PA",
        "latitude": -7.143465,
        "longitude": -55.378591,
        "empresa": "CLARO",
        "pf-ou-pj": "Pessoa Jurídica",
        "tecnologia": "VSAT",
        "tipo-de-Produto": "LINHA_DEDICADA",
        "meio-de-acesso": "Satélite"
    },
    {
        "cidade": "Novo Repartimento",
        "uf": "PA",
        "latitude": -4.247492,
        "longitude": -49.949928,
        "empresa": "CLARO",
        "pf-ou-pj": "Pessoa Jurídica",
        "tecnologia": "ADSL1",
        "tipo-de-Produto": "LINHA_DEDICADA",
        "meio-de-acesso": "Cabo Metálico"
    },
    {
        "cidade": "Novo Repartimento",
        "uf": "PA",
        "latitude": -4.247492,
        "longitude": -49.949928,
        "empresa": "CLARO",
        "pf-ou-pj": "Pessoa Jurídica",
        "tecnologia": "FTTH",
        "tipo-de-Produto": "LINHA_DEDICADA",
        "meio-de-acesso": "Fibra"
    },
    {
        "cidade": "Novo Repartimento",
        "uf": "PA",
        "latitude": -4.247492,
        "longitude": -49.949928,
        "empresa": "CLARO",
        "pf-ou-pj": "Pessoa Jurídica",
        "tecnologia": "VSAT",
        "tipo-de-Produto": "LINHA_DEDICADA",
        "meio-de-acesso": "Satélite"
    },
    {
        "cidade": "Oeiras do Pará",
        "uf": "PA",
        "latitude": -2.003576,
        "longitude": -49.862792,
        "empresa": "CLARO",
        "pf-ou-pj": "Pessoa Jurídica",
        "tecnologia": "ADSL1",
        "tipo-de-Produto": "LINHA_DEDICADA",
        "meio-de-acesso": "Cabo Metálico"
    },
    {
        "cidade": "Oeiras do Pará",
        "uf": "PA",
        "latitude": -2.003576,
        "longitude": -49.862792,
        "empresa": "CLARO",
        "pf-ou-pj": "Pessoa Jurídica",
        "tecnologia": "FTTH",
        "tipo-de-Produto": "LINHA_DEDICADA",
        "meio-de-acesso": "Fibra"
    },
    {
        "cidade": "Oeiras do Pará",
        "uf": "PA",
        "latitude": -2.003576,
        "longitude": -49.862792,
        "empresa": "CLARO",
        "pf-ou-pj": "Pessoa Jurídica",
        "tecnologia": "VSAT",
        "tipo-de-Produto": "LINHA_DEDICADA",
        "meio-de-acesso": "Satélite"
    },
    {
        "cidade": "Oriximiná",
        "uf": "PA",
        "latitude": -1.759888,
        "longitude": -55.857937,
        "empresa": "CLARO",
        "pf-ou-pj": "Pessoa Jurídica",
        "tecnologia": "ADSL1",
        "tipo-de-Produto": "LINHA_DEDICADA",
        "meio-de-acesso": "Cabo Metálico"
    },
    {
        "cidade": "Oriximiná",
        "uf": "PA",
        "latitude": -1.759888,
        "longitude": -55.857937,
        "empresa": "CLARO",
        "pf-ou-pj": "Pessoa Jurídica",
        "tecnologia": "FTTH",
        "tipo-de-Produto": "LINHA_DEDICADA",
        "meio-de-acesso": "Fibra"
    },
    {
        "cidade": "Oriximiná",
        "uf": "PA",
        "latitude": -1.759888,
        "longitude": -55.857937,
        "empresa": "CLARO",
        "pf-ou-pj": "Pessoa Jurídica",
        "tecnologia": "VSAT",
        "tipo-de-Produto": "INTERNET",
        "meio-de-acesso": "Satélite"
    },
    {
        "cidade": "Oriximiná",
        "uf": "PA",
        "latitude": -1.759888,
        "longitude": -55.857937,
        "empresa": "CLARO",
        "pf-ou-pj": "Pessoa Jurídica",
        "tecnologia": "VSAT",
        "tipo-de-Produto": "LINHA_DEDICADA",
        "meio-de-acesso": "Satélite"
    },
    {
        "cidade": "Ourilândia do Norte",
        "uf": "PA",
        "latitude": -6.752905,
        "longitude": -51.085792,
        "empresa": "CLARO",
        "pf-ou-pj": "Pessoa Jurídica",
        "tecnologia": "ADSL1",
        "tipo-de-Produto": "LINHA_DEDICADA",
        "meio-de-acesso": "Cabo Metálico"
    },
    {
        "cidade": "Ourilândia do Norte",
        "uf": "PA",
        "latitude": -6.752905,
        "longitude": -51.085792,
        "empresa": "CLARO",
        "pf-ou-pj": "Pessoa Jurídica",
        "tecnologia": "VSAT",
        "tipo-de-Produto": "LINHA_DEDICADA",
        "meio-de-acesso": "Satélite"
    },
    {
        "cidade": "Ourém",
        "uf": "PA",
        "latitude": -1.541676,
        "longitude": -47.112649,
        "empresa": "CLARO",
        "pf-ou-pj": "Pessoa Jurídica",
        "tecnologia": "ADSL1",
        "tipo-de-Produto": "LINHA_DEDICADA",
        "meio-de-acesso": "Cabo Metálico"
    },
    {
        "cidade": "Ourém",
        "uf": "PA",
        "latitude": -1.541676,
        "longitude": -47.112649,
        "empresa": "CLARO",
        "pf-ou-pj": "Pessoa Jurídica",
        "tecnologia": "ADSL1",
        "tipo-de-Produto": "OUTROS",
        "meio-de-acesso": "Cabo Metálico"
    },
    {
        "cidade": "Ourém",
        "uf": "PA",
        "latitude": -1.541676,
        "longitude": -47.112649,
        "empresa": "CLARO",
        "pf-ou-pj": "Pessoa Jurídica",
        "tecnologia": "VSAT",
        "tipo-de-Produto": "LINHA_DEDICADA",
        "meio-de-acesso": "Satélite"
    },
    {
        "cidade": "Pacajá",
        "uf": "PA",
        "latitude": -3.837314,
        "longitude": -50.638625,
        "empresa": "CLARO",
        "pf-ou-pj": "Pessoa Jurídica",
        "tecnologia": "ADSL1",
        "tipo-de-Produto": "LINHA_DEDICADA",
        "meio-de-acesso": "Cabo Metálico"
    },
    {
        "cidade": "Pacajá",
        "uf": "PA",
        "latitude": -3.837314,
        "longitude": -50.638625,
        "empresa": "CLARO",
        "pf-ou-pj": "Pessoa Jurídica",
        "tecnologia": "ADSL1",
        "tipo-de-Produto": "OUTROS",
        "meio-de-acesso": "Cabo Metálico"
    },
    {
        "cidade": "Pacajá",
        "uf": "PA",
        "latitude": -3.837314,
        "longitude": -50.638625,
        "empresa": "CLARO",
        "pf-ou-pj": "Pessoa Jurídica",
        "tecnologia": "FTTH",
        "tipo-de-Produto": "LINHA_DEDICADA",
        "meio-de-acesso": "Fibra"
    },
    {
        "cidade": "Pacajá",
        "uf": "PA",
        "latitude": -3.837314,
        "longitude": -50.638625,
        "empresa": "CLARO",
        "pf-ou-pj": "Pessoa Jurídica",
        "tecnologia": "VSAT",
        "tipo-de-Produto": "INTERNET",
        "meio-de-acesso": "Satélite"
    },
    {
        "cidade": "Pacajá",
        "uf": "PA",
        "latitude": -3.837314,
        "longitude": -50.638625,
        "empresa": "CLARO",
        "pf-ou-pj": "Pessoa Jurídica",
        "tecnologia": "VSAT",
        "tipo-de-Produto": "LINHA_DEDICADA",
        "meio-de-acesso": "Satélite"
    },
    {
        "cidade": "Palestina do Pará",
        "uf": "PA",
        "latitude": -5.740269,
        "longitude": -48.318076,
        "empresa": "CLARO",
        "pf-ou-pj": "Pessoa Jurídica",
        "tecnologia": "VSAT",
        "tipo-de-Produto": "LINHA_DEDICADA",
        "meio-de-acesso": "Satélite"
    },
    {
        "cidade": "Paragominas",
        "uf": "PA",
        "latitude": -3.002116,
        "longitude": -47.352692,
        "empresa": "CLARO",
        "pf-ou-pj": "Pessoa Jurídica",
        "tecnologia": "ADSL1",
        "tipo-de-Produto": "LINHA_DEDICADA",
        "meio-de-acesso": "Cabo Metálico"
    },
    {
        "cidade": "Paragominas",
        "uf": "PA",
        "latitude": -3.002116,
        "longitude": -47.352692,
        "empresa": "CLARO",
        "pf-ou-pj": "Pessoa Jurídica",
        "tecnologia": "ADSL1",
        "tipo-de-Produto": "OUTROS",
        "meio-de-acesso": "Cabo Metálico"
    },
    {
        "cidade": "Paragominas",
        "uf": "PA",
        "latitude": -3.002116,
        "longitude": -47.352692,
        "empresa": "CLARO",
        "pf-ou-pj": "Pessoa Jurídica",
        "tecnologia": "FTTH",
        "tipo-de-Produto": "INTERNET",
        "meio-de-acesso": "Fibra"
    },
    {
        "cidade": "Paragominas",
        "uf": "PA",
        "latitude": -3.002116,
        "longitude": -47.352692,
        "empresa": "CLARO",
        "pf-ou-pj": "Pessoa Jurídica",
        "tecnologia": "FTTH",
        "tipo-de-Produto": "LINHA_DEDICADA",
        "meio-de-acesso": "Fibra"
    },
    {
        "cidade": "Paragominas",
        "uf": "PA",
        "latitude": -3.002116,
        "longitude": -47.352692,
        "empresa": "CLARO",
        "pf-ou-pj": "Pessoa Jurídica",
        "tecnologia": "FWA",
        "tipo-de-Produto": "LINHA_DEDICADA",
        "meio-de-acesso": "Rádio"
    },
    {
        "cidade": "Paragominas",
        "uf": "PA",
        "latitude": -3.002116,
        "longitude": -47.352692,
        "empresa": "CLARO",
        "pf-ou-pj": "Pessoa Jurídica",
        "tecnologia": "VSAT",
        "tipo-de-Produto": "INTERNET",
        "meio-de-acesso": "Satélite"
    },
    {
        "cidade": "Paragominas",
        "uf": "PA",
        "latitude": -3.002116,
        "longitude": -47.352692,
        "empresa": "CLARO",
        "pf-ou-pj": "Pessoa Jurídica",
        "tecnologia": "VSAT",
        "tipo-de-Produto": "LINHA_DEDICADA",
        "meio-de-acesso": "Satélite"
    },
    {
        "cidade": "Parauapebas",
        "uf": "PA",
        "latitude": -6.067812,
        "longitude": -49.903733,
        "empresa": "CLARO",
        "pf-ou-pj": "Pessoa Jurídica",
        "tecnologia": "ADSL1",
        "tipo-de-Produto": "INTERNET",
        "meio-de-acesso": "Cabo Metálico"
    },
    {
        "cidade": "Parauapebas",
        "uf": "PA",
        "latitude": -6.067812,
        "longitude": -49.903733,
        "empresa": "CLARO",
        "pf-ou-pj": "Pessoa Jurídica",
        "tecnologia": "ADSL1",
        "tipo-de-Produto": "LINHA_DEDICADA",
        "meio-de-acesso": "Cabo Metálico"
    },
    {
        "cidade": "Parauapebas",
        "uf": "PA",
        "latitude": -6.067812,
        "longitude": -49.903733,
        "empresa": "CLARO",
        "pf-ou-pj": "Pessoa Jurídica",
        "tecnologia": "FTTH",
        "tipo-de-Produto": "INTERNET",
        "meio-de-acesso": "Fibra"
    },
    {
        "cidade": "Parauapebas",
        "uf": "PA",
        "latitude": -6.067812,
        "longitude": -49.903733,
        "empresa": "CLARO",
        "pf-ou-pj": "Pessoa Jurídica",
        "tecnologia": "FTTH",
        "tipo-de-Produto": "LINHA_DEDICADA",
        "meio-de-acesso": "Fibra"
    },
    {
        "cidade": "Parauapebas",
        "uf": "PA",
        "latitude": -6.067812,
        "longitude": -49.903733,
        "empresa": "CLARO",
        "pf-ou-pj": "Pessoa Jurídica",
        "tecnologia": "FWA",
        "tipo-de-Produto": "LINHA_DEDICADA",
        "meio-de-acesso": "Rádio"
    },