[
    {
        "cidade": "Armação dos Búzios",
        "uf": "RJ",
        "latitude": -22.752846,
        "longitude": -41.884559,
        "empresa": "CLARO",
        "pf-ou-pj": "Pessoa Física",
        "tecnologia": "FTTH",
        "tipo-de-Produto": "INTERNET",
        "meio-de-acesso": "Fibra"
    },
    {
        "cidade": "Barra Mansa",
        "uf": "RJ",
        "latitude": -22.548084,
        "longitude": -44.175241,
        "empresa": "CLARO",
        "pf-ou-pj": "Pessoa Física",
        "tecnologia": "FTTH",
        "tipo-de-Produto": "INTERNET",
        "meio-de-acesso": "Fibra"
    },
    {
        "cidade": "Barra Mansa",
        "uf": "RJ",
        "latitude": -22.548084,
        "longitude": -44.175241,
        "empresa": "CLARO",
        "pf-ou-pj": "Pessoa Física",
        "tecnologia": "HFC",
        "tipo-de-Produto": "INTERNET",
        "meio-de-acesso": "Cabo Coaxial"
    },
    {
        "cidade": "Belford Roxo",
        "uf": "RJ",
        "latitude": -22.764042,
        "longitude": -43.39921,
        "empresa": "CLARO",
        "pf-ou-pj": "Pessoa Física",
        "tecnologia": "HFC",
        "tipo-de-Produto": "INTERNET",
        "meio-de-acesso": "Cabo Coaxial"
    },
    {
        "cidade": "Cabo Frio",
        "uf": "RJ",
        "latitude": -22.88943,
        "longitude": -42.028595,
        "empresa": "CLARO",
        "pf-ou-pj": "Pessoa Física",
        "tecnologia": "FTTH",
        "tipo-de-Produto": "INTERNET",
        "meio-de-acesso": "Fibra"
    },
    {
        "cidade": "Campos dos Goytacazes",
        "uf": "RJ",
        "latitude": -21.762171,
        "longitude": -41.318055,
        "empresa": "CLARO",
        "pf-ou-pj": "Pessoa Física",
        "tecnologia": "HFC",
        "tipo-de-Produto": "INTERNET",
        "meio-de-acesso": "Cabo Coaxial"
    },
    {
        "cidade": "Duque de Caxias",
        "uf": "RJ",
        "latitude": -22.785801,
        "longitude": -43.304895,
        "empresa": "CLARO",
        "pf-ou-pj": "Pessoa Física",
        "tecnologia": "HFC",
        "tipo-de-Produto": "INTERNET",
        "meio-de-acesso": "Cabo Coaxial"
    },
    {
        "cidade": "Itaguaí",
        "uf": "RJ",
        "latitude": -22.863566,
        "longitude": -43.779821,
        "empresa": "CLARO",
        "pf-ou-pj": "Pessoa Física",
        "tecnologia": "FTTH",
        "tipo-de-Produto": "INTERNET",
        "meio-de-acesso": "Fibra"
    },
    {
        "cidade": "Macaé",
        "uf": "RJ",
        "latitude": -22.376807,
        "longitude": -41.784828,
        "empresa": "CLARO",
        "pf-ou-pj": "Pessoa Física",
        "tecnologia": "FTTH",
        "tipo-de-Produto": "INTERNET",
        "meio-de-acesso": "Fibra"
    },
    {
        "cidade": "Macaé",
        "uf": "RJ",
        "latitude": -22.376807,
        "longitude": -41.784828,
        "empresa": "CLARO",
        "pf-ou-pj": "Pessoa Física",
        "tecnologia": "HFC",
        "tipo-de-Produto": "INTERNET",
        "meio-de-acesso": "Cabo Coaxial"
    },
    {
        "cidade": "Mesquita",
        "uf": "RJ",
        "latitude": -22.802811,
        "longitude": -43.460066,
        "empresa": "CLARO",
        "pf-ou-pj": "Pessoa Física",
        "tecnologia": "FTTH",
        "tipo-de-Produto": "INTERNET",
        "meio-de-acesso": "Fibra"
    },
    {
        "cidade": "Mesquita",
        "uf": "RJ",
        "latitude": -22.802811,
        "longitude": -43.460066,
        "empresa": "CLARO",
        "pf-ou-pj": "Pessoa Física",
        "tecnologia": "HFC",
        "tipo-de-Produto": "INTERNET",
        "meio-de-acesso": "Cabo Coaxial"
    },
    {
        "cidade": "Miguel Pereira",
        "uf": "RJ",
        "latitude": -22.457242,
        "longitude": -43.480275,
        "empresa": "CLARO",
        "pf-ou-pj": "Pessoa Física",
        "tecnologia": "FTTH",
        "tipo-de-Produto": "INTERNET",
        "meio-de-acesso": "Fibra"
    },
    {
        "cidade": "Nilópolis",
        "uf": "RJ",
        "latitude": -22.805658,
        "longitude": -43.423344,
        "empresa": "CLARO",
        "pf-ou-pj": "Pessoa Física",
        "tecnologia": "HFC",
        "tipo-de-Produto": "INTERNET",
        "meio-de-acesso": "Cabo Coaxial"
    },
    {
        "cidade": "Niterói",
        "uf": "RJ",
        "latitude": -22.88321,
        "longitude": -43.103367,
        "empresa": "CLARO",
        "pf-ou-pj": "Pessoa Física",
        "tecnologia": "FTTH",
        "tipo-de-Produto": "INTERNET",
        "meio-de-acesso": "Fibra"
    },
    {
        "cidade": "Niterói",
        "uf": "RJ",
        "latitude": -22.88321,
        "longitude": -43.103367,
        "empresa": "CLARO",
        "pf-ou-pj": "Pessoa Física",
        "tecnologia": "HFC",
        "tipo-de-Produto": "INTERNET",
        "meio-de-acesso": "Cabo Coaxial"
    },
    {
        "cidade": "Nova Friburgo",
        "uf": "RJ",
        "latitude": -22.293224,
        "longitude": -42.537692,
        "empresa": "CLARO",
        "pf-ou-pj": "Pessoa Física",
        "tecnologia": "FTTH",
        "tipo-de-Produto": "INTERNET",
        "meio-de-acesso": "Fibra"
    },
    {
        "cidade": "Nova Iguaçu",
        "uf": "RJ",
        "latitude": -22.755635,
        "longitude": -43.460325,
        "empresa": "CLARO",
        "pf-ou-pj": "Pessoa Física",
        "tecnologia": "FTTH",
        "tipo-de-Produto": "INTERNET",
        "meio-de-acesso": "Fibra"
    },
    {
        "cidade": "Nova Iguaçu",
        "uf": "RJ",
        "latitude": -22.755635,
        "longitude": -43.460325,
        "empresa": "CLARO",
        "pf-ou-pj": "Pessoa Física",
        "tecnologia": "HFC",
        "tipo-de-Produto": "INTERNET",
        "meio-de-acesso": "Cabo Coaxial"
    },
    {
        "cidade": "Paraíba do Sul",
        "uf": "RJ",
        "latitude": -22.158462,
        "longitude": -43.304004,
        "empresa": "CLARO",
        "pf-ou-pj": "Pessoa Física",
        "tecnologia": "FTTH",
        "tipo-de-Produto": "INTERNET",
        "meio-de-acesso": "Fibra"
    },
    {
        "cidade": "Petrópolis",
        "uf": "RJ",
        "latitude": -22.519963,
        "longitude": -43.192613,
        "empresa": "CLARO",
        "pf-ou-pj": "Pessoa Física",
        "tecnologia": "HFC",
        "tipo-de-Produto": "INTERNET",
        "meio-de-acesso": "Cabo Coaxial"
    },
    {
        "cidade": "Resende",
        "uf": "RJ",
        "latitude": -22.470473,
        "longitude": -44.45091,
        "empresa": "CLARO",
        "pf-ou-pj": "Pessoa Física",
        "tecnologia": "FTTH",
        "tipo-de-Produto": "INTERNET",
        "meio-de-acesso": "Fibra"
    },
    {
        "cidade": "Resende",
        "uf": "RJ",
        "latitude": -22.470473,
        "longitude": -44.45091,
        "empresa": "CLARO",
        "pf-ou-pj": "Pessoa Física",
        "tecnologia": "HFC",
        "tipo-de-Produto": "INTERNET",
        "meio-de-acesso": "Cabo Coaxial"
    },
    {
        "cidade": "Rio das Ostras",
        "uf": "RJ",
        "latitude": -22.517378,
        "longitude": -41.947509,
        "empresa": "CLARO",
        "pf-ou-pj": "Pessoa Física",
        "tecnologia": "HFC",
        "tipo-de-Produto": "INTERNET",
        "meio-de-acesso": "Cabo Coaxial"
    },
    {
        "cidade": "Rio de Janeiro",
        "uf": "RJ",
        "latitude": -22.912897,
        "longitude": -43.200295,
        "empresa": "CLARO",
        "pf-ou-pj": "Pessoa Física",
        "tecnologia": "FTTH",
        "tipo-de-Produto": "INTERNET",
        "meio-de-acesso": "Fibra"
    },
    {
        "cidade": "Rio de Janeiro",
        "uf": "RJ",
        "latitude": -22.912897,
        "longitude": -43.200295,
        "empresa": "CLARO",
        "pf-ou-pj": "Pessoa Física",
        "tecnologia": "HFC",
        "tipo-de-Produto": "INTERNET",
        "meio-de-acesso": "Cabo Coaxial"
    },
    {
        "cidade": "São Gonçalo",
        "uf": "RJ",
        "latitude": -22.82679,
        "longitude": -43.063351,
        "empresa": "CLARO",
        "pf-ou-pj": "Pessoa Física",
        "tecnologia": "FTTH",
        "tipo-de-Produto": "INTERNET",
        "meio-de-acesso": "Fibra"
    },
    {
        "cidade": "São Gonçalo",
        "uf": "RJ",
        "latitude": -22.82679,
        "longitude": -43.063351,
        "empresa": "CLARO",
        "pf-ou-pj": "Pessoa Física",
        "tecnologia": "HFC",
        "tipo-de-Produto": "INTERNET",
        "meio-de-acesso": "Cabo Coaxial"
    },
    {
        "cidade": "São João de Meriti",
        "uf": "RJ",
        "latitude": -22.805776,
        "longitude": -43.37292,
        "empresa": "CLARO",
        "pf-ou-pj": "Pessoa Física",
        "tecnologia": "HFC",
        "tipo-de-Produto": "INTERNET",
        "meio-de-acesso": "Cabo Coaxial"
    },
    {
        "cidade": "São Pedro da Aldeia",
        "uf": "RJ",
        "latitude": -22.842859,
        "longitude": -42.102596,
        "empresa": "CLARO",
        "pf-ou-pj": "Pessoa Física",
        "tecnologia": "FTTH",
        "tipo-de-Produto": "INTERNET",
        "meio-de-acesso": "Fibra"
    },
    {
        "cidade": "Teresópolis",
        "uf": "RJ",
        "latitude": -22.416464,
        "longitude": -42.97519,
        "empresa": "CLARO",
        "pf-ou-pj": "Pessoa Física",
        "tecnologia": "HFC",
        "tipo-de-Produto": "INTERNET",
        "meio-de-acesso": "Cabo Coaxial"
    },
    {
        "cidade": "Três Rios",
        "uf": "RJ",
        "latitude": -22.11651,
        "longitude": -43.218533,
        "empresa": "CLARO",
        "pf-ou-pj": "Pessoa Física",
        "tecnologia": "FTTH",
        "tipo-de-Produto": "INTERNET",
        "meio-de-acesso": "Fibra"
    },
    {
        "cidade": "Valença",
        "uf": "RJ",
        "latitude": -22.244496,
        "longitude": -43.71288,
        "empresa": "CLARO",
        "pf-ou-pj": "Pessoa Física",
        "tecnologia": "FTTH",
        "tipo-de-Produto": "INTERNET",
        "meio-de-acesso": "Fibra"
    },
    {
        "cidade": "Vassouras",
        "uf": "RJ",
        "latitude": -22.405889,
        "longitude": -43.668555,
        "empresa": "CLARO",
        "pf-ou-pj": "Pessoa Física",
        "tecnologia": "FTTH",
        "tipo-de-Produto": "INTERNET",
        "meio-de-acesso": "Fibra"
    },
    {
        "cidade": "Volta Redonda",
        "uf": "RJ",
        "latitude": -22.520212,
        "longitude": -44.099555,
        "empresa": "CLARO",
        "pf-ou-pj": "Pessoa Física",
        "tecnologia": "HFC",
        "tipo-de-Produto": "INTERNET",
        "meio-de-acesso": "Cabo Coaxial"
    }
]