[
    {
        "cidade": "Alto Alegre",
        "uf": "RR",
        "latitude": 2.98858,
        "longitude": -61.307167,
        "empresa": "CLARO",
        "pf-ou-pj": "Pessoa Jurídica",
        "tecnologia": "ADSL1",
        "tipo-de-Produto": "LINHA_DEDICADA",
        "meio-de-acesso": "Cabo Metálico"
    },
    {
        "cidade": "Alto Alegre",
        "uf": "RR",
        "latitude": 2.98858,
        "longitude": -61.307167,
        "empresa": "CLARO",
        "pf-ou-pj": "Pessoa Jurídica",
        "tecnologia": "FTTH",
        "tipo-de-Produto": "LINHA_DEDICADA",
        "meio-de-acesso": "Fibra"
    },
    {
        "cidade": "Alto Alegre",
        "uf": "RR",
        "latitude": 2.98858,
        "longitude": -61.307167,
        "empresa": "CLARO",
        "pf-ou-pj": "Pessoa Jurídica",
        "tecnologia": "VSAT",
        "tipo-de-Produto": "INTERNET",
        "meio-de-acesso": "Satélite"
    },
    {
        "cidade": "Alto Alegre",
        "uf": "RR",
        "latitude": 2.98858,
        "longitude": -61.307167,
        "empresa": "CLARO",
        "pf-ou-pj": "Pessoa Jurídica",
        "tecnologia": "VSAT",
        "tipo-de-Produto": "LINHA_DEDICADA",
        "meio-de-acesso": "Satélite"
    },
    {
        "cidade": "Amajari",
        "uf": "RR",
        "latitude": 3.645714,
        "longitude": -61.369245,
        "empresa": "CLARO",
        "pf-ou-pj": "Pessoa Jurídica",
        "tecnologia": "ADSL1",
        "tipo-de-Produto": "LINHA_DEDICADA",
        "meio-de-acesso": "Cabo Metálico"
    },
    {
        "cidade": "Amajari",
        "uf": "RR",
        "latitude": 3.645714,
        "longitude": -61.369245,
        "empresa": "CLARO",
        "pf-ou-pj": "Pessoa Jurídica",
        "tecnologia": "VSAT",
        "tipo-de-Produto": "INTERNET",
        "meio-de-acesso": "Satélite"
    },
    {
        "cidade": "Amajari",
        "uf": "RR",
        "latitude": 3.645714,
        "longitude": -61.369245,
        "empresa": "CLARO",
        "pf-ou-pj": "Pessoa Jurídica",
        "tecnologia": "VSAT",
        "tipo-de-Produto": "LINHA_DEDICADA",
        "meio-de-acesso": "Satélite"
    },
    {
        "cidade": "Boa Vista",
        "uf": "RR",
        "latitude": 2.823842,
        "longitude": -60.675328,
        "empresa": "CLARO",
        "pf-ou-pj": "Pessoa Jurídica",
        "tecnologia": "ADSL1",
        "tipo-de-Produto": "INTERNET",
        "meio-de-acesso": "Cabo Metálico"
    },
    {
        "cidade": "Boa Vista",
        "uf": "RR",
        "latitude": 2.823842,
        "longitude": -60.675328,
        "empresa": "CLARO",
        "pf-ou-pj": "Pessoa Jurídica",
        "tecnologia": "ADSL1",
        "tipo-de-Produto": "LINHA_DEDICADA",
        "meio-de-acesso": "Cabo Metálico"
    },
    {
        "cidade": "Boa Vista",
        "uf": "RR",
        "latitude": 2.823842,
        "longitude": -60.675328,
        "empresa": "CLARO",
        "pf-ou-pj": "Pessoa Jurídica",
        "tecnologia": "FTTH",
        "tipo-de-Produto": "INTERNET",
        "meio-de-acesso": "Fibra"
    },
    {
        "cidade": "Boa Vista",
        "uf": "RR",
        "latitude": 2.823842,
        "longitude": -60.675328,
        "empresa": "CLARO",
        "pf-ou-pj": "Pessoa Jurídica",
        "tecnologia": "FTTH",
        "tipo-de-Produto": "LINHA_DEDICADA",
        "meio-de-acesso": "Fibra"
    },
    {
        "cidade": "Boa Vista",
        "uf": "RR",
        "latitude": 2.823842,
        "longitude": -60.675328,
        "empresa": "CLARO",
        "pf-ou-pj": "Pessoa Jurídica",
        "tecnologia": "FWA",
        "tipo-de-Produto": "INTERNET",
        "meio-de-acesso": "Rádio"
    },
    {
        "cidade": "Boa Vista",
        "uf": "RR",
        "latitude": 2.823842,
        "longitude": -60.675328,
        "empresa": "CLARO",
        "pf-ou-pj": "Pessoa Jurídica",
        "tecnologia": "FWA",
        "tipo-de-Produto": "LINHA_DEDICADA",
        "meio-de-acesso": "Rádio"
    },
    {
        "cidade": "Boa Vista",
        "uf": "RR",
        "latitude": 2.823842,
        "longitude": -60.675328,
        "empresa": "CLARO",
        "pf-ou-pj": "Pessoa Jurídica",
        "tecnologia": "VSAT",
        "tipo-de-Produto": "INTERNET",
        "meio-de-acesso": "Satélite"
    },
    {
        "cidade": "Boa Vista",
        "uf": "RR",
        "latitude": 2.823842,
        "longitude": -60.675328,
        "empresa": "CLARO",
        "pf-ou-pj": "Pessoa Jurídica",
        "tecnologia": "VSAT",
        "tipo-de-Produto": "LINHA_DEDICADA",
        "meio-de-acesso": "Satélite"
    },
    {
        "cidade": "Boa Vista",
        "uf": "RR",
        "latitude": 2.823842,
        "longitude": -60.675328,
        "empresa": "CLARO",
        "pf-ou-pj": "Pessoa Jurídica",
        "tecnologia": "WIMAX",
        "tipo-de-Produto": "OUTROS",
        "meio-de-acesso": "Rádio"
    },
    {
        "cidade": "Bonfim",
        "uf": "RR",
        "latitude": 3.361614,
        "longitude": -59.8333,
        "empresa": "CLARO",
        "pf-ou-pj": "Pessoa Jurídica",
        "tecnologia": "VSAT",
        "tipo-de-Produto": "INTERNET",
        "meio-de-acesso": "Satélite"
    },
    {
        "cidade": "Bonfim",
        "uf": "RR",
        "latitude": 3.361614,
        "longitude": -59.8333,
        "empresa": "CLARO",
        "pf-ou-pj": "Pessoa Jurídica",
        "tecnologia": "VSAT",
        "tipo-de-Produto": "LINHA_DEDICADA",
        "meio-de-acesso": "Satélite"
    },
    {
        "cidade": "Cantá",
        "uf": "RR",
        "latitude": 2.60994,
        "longitude": -60.605827,
        "empresa": "CLARO",
        "pf-ou-pj": "Pessoa Jurídica",
        "tecnologia": "ADSL1",
        "tipo-de-Produto": "LINHA_DEDICADA",
        "meio-de-acesso": "Cabo Metálico"
    },
    {
        "cidade": "Cantá",
        "uf": "RR",
        "latitude": 2.60994,
        "longitude": -60.605827,
        "empresa": "CLARO",
        "pf-ou-pj": "Pessoa Jurídica",
        "tecnologia": "VSAT",
        "tipo-de-Produto": "INTERNET",
        "meio-de-acesso": "Satélite"
    },
    {
        "cidade": "Cantá",
        "uf": "RR",
        "latitude": 2.60994,
        "longitude": -60.605827,
        "empresa": "CLARO",
        "pf-ou-pj": "Pessoa Jurídica",
        "tecnologia": "VSAT",
        "tipo-de-Produto": "LINHA_DEDICADA",
        "meio-de-acesso": "Satélite"
    },
    {
        "cidade": "Caracaraí",
        "uf": "RR",
        "latitude": 1.827659,
        "longitude": -61.130378,
        "empresa": "CLARO",
        "pf-ou-pj": "Pessoa Jurídica",
        "tecnologia": "ADSL1",
        "tipo-de-Produto": "LINHA_DEDICADA",
        "meio-de-acesso": "Cabo Metálico"
    },
    {
        "cidade": "Caracaraí",
        "uf": "RR",
        "latitude": 1.827659,
        "longitude": -61.130378,
        "empresa": "CLARO",
        "pf-ou-pj": "Pessoa Jurídica",
        "tecnologia": "ADSL1",
        "tipo-de-Produto": "OUTROS",
        "meio-de-acesso": "Cabo Metálico"
    },
    {
        "cidade": "Caracaraí",
        "uf": "RR",
        "latitude": 1.827659,
        "longitude": -61.130378,
        "empresa": "CLARO",
        "pf-ou-pj": "Pessoa Jurídica",
        "tecnologia": "FTTH",
        "tipo-de-Produto": "LINHA_DEDICADA",
        "meio-de-acesso": "Fibra"
    },
    {
        "cidade": "Caracaraí",
        "uf": "RR",
        "latitude": 1.827659,
        "longitude": -61.130378,
        "empresa": "CLARO",
        "pf-ou-pj": "Pessoa Jurídica",
        "tecnologia": "VSAT",
        "tipo-de-Produto": "INTERNET",
        "meio-de-acesso": "Satélite"
    },
    {
        "cidade": "Caracaraí",
        "uf": "RR",
        "latitude": 1.827659,
        "longitude": -61.130378,
        "empresa": "CLARO",
        "pf-ou-pj": "Pessoa Jurídica",
        "tecnologia": "VSAT",
        "tipo-de-Produto": "LINHA_DEDICADA",
        "meio-de-acesso": "Satélite"
    },
    {
        "cidade": "Caroebe",
        "uf": "RR",
        "latitude": 0.884203,
        "longitude": -59.695886,
        "empresa": "CLARO",
        "pf-ou-pj": "Pessoa Jurídica",
        "tecnologia": "VSAT",
        "tipo-de-Produto": "INTERNET",
        "meio-de-acesso": "Satélite"
    },
    {
        "cidade": "Caroebe",
        "uf": "RR",
        "latitude": 0.884203,
        "longitude": -59.695886,
        "empresa": "CLARO",
        "pf-ou-pj": "Pessoa Jurídica",
        "tecnologia": "VSAT",
        "tipo-de-Produto": "LINHA_DEDICADA",
        "meio-de-acesso": "Satélite"
    },
    {
        "cidade": "Iracema",
        "uf": "RR",
        "latitude": 2.183046,
        "longitude": -61.041546,
        "empresa": "CLARO",
        "pf-ou-pj": "Pessoa Jurídica",
        "tecnologia": "VSAT",
        "tipo-de-Produto": "INTERNET",
        "meio-de-acesso": "Satélite"
    },
    {
        "cidade": "Iracema",
        "uf": "RR",
        "latitude": 2.183046,
        "longitude": -61.041546,
        "empresa": "CLARO",
        "pf-ou-pj": "Pessoa Jurídica",
        "tecnologia": "VSAT",
        "tipo-de-Produto": "LINHA_DEDICADA",
        "meio-de-acesso": "Satélite"
    },
    {
        "cidade": "Mucajaí",
        "uf": "RR",
        "latitude": 2.439982,
        "longitude": -60.909619,
        "empresa": "CLARO",
        "pf-ou-pj": "Pessoa Jurídica",
        "tecnologia": "FTTH",
        "tipo-de-Produto": "INTERNET",
        "meio-de-acesso": "Fibra"
    },
    {
        "cidade": "Mucajaí",
        "uf": "RR",
        "latitude": 2.439982,
        "longitude": -60.909619,
        "empresa": "CLARO",
        "pf-ou-pj": "Pessoa Jurídica",
        "tecnologia": "VSAT",
        "tipo-de-Produto": "INTERNET",
        "meio-de-acesso": "Satélite"
    },
    {
        "cidade": "Mucajaí",
        "uf": "RR",
        "latitude": 2.439982,
        "longitude": -60.909619,
        "empresa": "CLARO",
        "pf-ou-pj": "Pessoa Jurídica",
        "tecnologia": "VSAT",
        "tipo-de-Produto": "LINHA_DEDICADA",
        "meio-de-acesso": "Satélite"
    },
    {
        "cidade": "Normandia",
        "uf": "RR",
        "latitude": 3.885305,
        "longitude": -59.620402,
        "empresa": "CLARO",
        "pf-ou-pj": "Pessoa Jurídica",
        "tecnologia": "ADSL1",
        "tipo-de-Produto": "LINHA_DEDICADA",
        "meio-de-acesso": "Cabo Metálico"
    },
    {
        "cidade": "Normandia",
        "uf": "RR",
        "latitude": 3.885305,
        "longitude": -59.620402,
        "empresa": "CLARO",
        "pf-ou-pj": "Pessoa Jurídica",
        "tecnologia": "VSAT",
        "tipo-de-Produto": "INTERNET",
        "meio-de-acesso": "Satélite"
    },
    {
        "cidade": "Normandia",
        "uf": "RR",
        "latitude": 3.885305,
        "longitude": -59.620402,
        "empresa": "CLARO",
        "pf-ou-pj": "Pessoa Jurídica",
        "tecnologia": "VSAT",
        "tipo-de-Produto": "LINHA_DEDICADA",
        "meio-de-acesso": "Satélite"
    },
    {
        "cidade": "Pacaraima",
        "uf": "RR",
        "latitude": 4.479895,
        "longitude": -61.147695,
        "empresa": "CLARO",
        "pf-ou-pj": "Pessoa Jurídica",
        "tecnologia": "ADSL1",
        "tipo-de-Produto": "LINHA_DEDICADA",
        "meio-de-acesso": "Cabo Metálico"
    },
    {
        "cidade": "Pacaraima",
        "uf": "RR",
        "latitude": 4.479895,
        "longitude": -61.147695,
        "empresa": "CLARO",
        "pf-ou-pj": "Pessoa Jurídica",
        "tecnologia": "VSAT",
        "tipo-de-Produto": "INTERNET",
        "meio-de-acesso": "Satélite"
    },
    {
        "cidade": "Pacaraima",
        "uf": "RR",
        "latitude": 4.479895,
        "longitude": -61.147695,
        "empresa": "CLARO",
        "pf-ou-pj": "Pessoa Jurídica",
        "tecnologia": "VSAT",
        "tipo-de-Produto": "LINHA_DEDICADA",
        "meio-de-acesso": "Satélite"
    },
    {
        "cidade": "Rorainópolis",
        "uf": "RR",
        "latitude": 0.939956,
        "longitude": -60.438923,
        "empresa": "CLARO",
        "pf-ou-pj": "Pessoa Jurídica",
        "tecnologia": "ADSL1",
        "tipo-de-Produto": "LINHA_DEDICADA",
        "meio-de-acesso": "Cabo Metálico"
    },
    {
        "cidade": "Rorainópolis",
        "uf": "RR",
        "latitude": 0.939956,
        "longitude": -60.438923,
        "empresa": "CLARO",
        "pf-ou-pj": "Pessoa Jurídica",
        "tecnologia": "FTTH",
        "tipo-de-Produto": "LINHA_DEDICADA",
        "meio-de-acesso": "Fibra"
    },
    {
        "cidade": "Rorainópolis",
        "uf": "RR",
        "latitude": 0.939956,
        "longitude": -60.438923,
        "empresa": "CLARO",
        "pf-ou-pj": "Pessoa Jurídica",
        "tecnologia": "VSAT",
        "tipo-de-Produto": "INTERNET",
        "meio-de-acesso": "Satélite"
    },
    {
        "cidade": "Rorainópolis",
        "uf": "RR",
        "latitude": 0.939956,
        "longitude": -60.438923,
        "empresa": "CLARO",
        "pf-ou-pj": "Pessoa Jurídica",
        "tecnologia": "VSAT",
        "tipo-de-Produto": "LINHA_DEDICADA",
        "meio-de-acesso": "Satélite"
    },
    {
        "cidade": "São João da Baliza",
        "uf": "RR",
        "latitude": 0.951659,
        "longitude": -59.913293,
        "empresa": "CLARO",
        "pf-ou-pj": "Pessoa Jurídica",
        "tecnologia": "FTTH",
        "tipo-de-Produto": "LINHA_DEDICADA",
        "meio-de-acesso": "Fibra"
    },
    {
        "cidade": "São João da Baliza",
        "uf": "RR",
        "latitude": 0.951659,
        "longitude": -59.913293,
        "empresa": "CLARO",
        "pf-ou-pj": "Pessoa Jurídica",
        "tecnologia": "VSAT",
        "tipo-de-Produto": "INTERNET",
        "meio-de-acesso": "Satélite"
    },
    {
        "cidade": "São João da Baliza",
        "uf": "RR",
        "latitude": 0.951659,
        "longitude": -59.913293,
        "empresa": "CLARO",
        "pf-ou-pj": "Pessoa Jurídica",
        "tecnologia": "VSAT",
        "tipo-de-Produto": "LINHA_DEDICADA",
        "meio-de-acesso": "Satélite"
    },
    {
        "cidade": "São Luiz",
        "uf": "RR",
        "latitude": 1.010193,
        "longitude": -60.041894,
        "empresa": "CLARO",
        "pf-ou-pj": "Pessoa Jurídica",
        "tecnologia": "ADSL1",
        "tipo-de-Produto": "LINHA_DEDICADA",
        "meio-de-acesso": "Cabo Metálico"
    },
    {
        "cidade": "São Luiz",
        "uf": "RR",
        "latitude": 1.010193,
        "longitude": -60.041894,
        "empresa": "CLARO",
        "pf-ou-pj": "Pessoa Jurídica",
        "tecnologia": "FTTH",
        "tipo-de-Produto": "LINHA_DEDICADA",
        "meio-de-acesso": "Fibra"
    },
    {
        "cidade": "São Luiz",
        "uf": "RR",
        "latitude": 1.010193,
        "longitude": -60.041894,
        "empresa": "CLARO",
        "pf-ou-pj": "Pessoa Jurídica",
        "tecnologia": "VSAT",
        "tipo-de-Produto": "INTERNET",
        "meio-de-acesso": "Satélite"
    },
    {
        "cidade": "São Luiz",
        "uf": "RR",
        "latitude": 1.010193,
        "longitude": -60.041894,
        "empresa": "CLARO",
        "pf-ou-pj": "Pessoa Jurídica",
        "tecnologia": "VSAT",
        "tipo-de-Produto": "LINHA_DEDICADA",
        "meio-de-acesso": "Satélite"
    },
    {
        "cidade": "Uiramutã",
        "uf": "RR",
        "latitude": 4.603144,
        "longitude": -60.181464,
        "empresa": "CLARO",
        "pf-ou-pj": "Pessoa Jurídica",
        "tecnologia": "ADSL1",
        "tipo-de-Produto": "LINHA_DEDICADA",
        "meio-de-acesso": "Cabo Metálico"
    },
    {
        "cidade": "Uiramutã",
        "uf": "RR",
        "latitude": 4.603144,
        "longitude": -60.181464,
        "empresa": "CLARO",
        "pf-ou-pj": "Pessoa Jurídica",
        "tecnologia": "VSAT",
        "tipo-de-Produto": "INTERNET",
        "meio-de-acesso": "Satélite"
    },
    {
        "cidade": "Uiramutã",
        "uf": "RR",
        "latitude": 4.603144,
        "longitude": -60.181464,
        "empresa": "CLARO",
        "pf-ou-pj": "Pessoa Jurídica",
        "tecnologia": "VSAT",
        "tipo-de-Produto": "LINHA_DEDICADA",
        "meio-de-acesso": "Satélite"
    }
]