[
    {
        "cidade": "Abreu e Lima",
        "uf": "PE",
        "latitude": -7.900719,
        "longitude": -34.898389,
        "empresa": "OI",
        "pf-ou-pj": "Pessoa Física",
        "tecnologia": "FTTH",
        "tipo-de-Produto": "INTERNET",
        "meio-de-acesso": "Fibra"
    },
    {
        "cidade": "Cabo de Santo Agostinho",
        "uf": "PE",
        "latitude": -8.28218,
        "longitude": -35.025293,
        "empresa": "OI",
        "pf-ou-pj": "Pessoa Física",
        "tecnologia": "FTTH",
        "tipo-de-Produto": "INTERNET",
        "meio-de-acesso": "Fibra"
    },
    {
        "cidade": "Camaragibe",
        "uf": "PE",
        "latitude": -8.023505,
        "longitude": -34.978152,
        "empresa": "OI",
        "pf-ou-pj": "Pessoa Física",
        "tecnologia": "FTTH",
        "tipo-de-Produto": "INTERNET",
        "meio-de-acesso": "Fibra"
    },
    {
        "cidade": "Caruaru",
        "uf": "PE",
        "latitude": -8.284547,
        "longitude": -35.969863,
        "empresa": "OI",
        "pf-ou-pj": "Pessoa Física",
        "tecnologia": "FTTH",
        "tipo-de-Produto": "INTERNET",
        "meio-de-acesso": "Fibra"
    },
    {
        "cidade": "Goiana",
        "uf": "PE",
        "latitude": -7.560603,
        "longitude": -34.99591,
        "empresa": "OI",
        "pf-ou-pj": "Pessoa Física",
        "tecnologia": "FTTH",
        "tipo-de-Produto": "INTERNET",
        "meio-de-acesso": "Fibra"
    },
    {
        "cidade": "Jaboatão dos Guararapes",
        "uf": "PE",
        "latitude": -8.112982,
        "longitude": -35.014959,
        "empresa": "OI",
        "pf-ou-pj": "Pessoa Física",
        "tecnologia": "FTTH",
        "tipo-de-Produto": "INTERNET",
        "meio-de-acesso": "Fibra"
    },
    {
        "cidade": "Olinda",
        "uf": "PE",
        "latitude": -8.010166,
        "longitude": -34.854504,
        "empresa": "OI",
        "pf-ou-pj": "Pessoa Física",
        "tecnologia": "FTTH",
        "tipo-de-Produto": "INTERNET",
        "meio-de-acesso": "Fibra"
    },
    {
        "cidade": "Paulista",
        "uf": "PE",
        "latitude": -7.934007,
        "longitude": -34.868407,
        "empresa": "OI",
        "pf-ou-pj": "Pessoa Física",
        "tecnologia": "FTTH",
        "tipo-de-Produto": "INTERNET",
        "meio-de-acesso": "Fibra"
    },
    {
        "cidade": "Petrolina",
        "uf": "PE",
        "latitude": -9.388662,
        "longitude": -40.502731,
        "empresa": "OI",
        "pf-ou-pj": "Pessoa Física",
        "tecnologia": "ADSL2",
        "tipo-de-Produto": "INTERNET",
        "meio-de-acesso": "Fibra"
    },
    {
        "cidade": "Petrolina",
        "uf": "PE",
        "latitude": -9.388662,
        "longitude": -40.502731,
        "empresa": "OI",
        "pf-ou-pj": "Pessoa Física",
        "tecnologia": "FTTH",
        "tipo-de-Produto": "INTERNET",
        "meio-de-acesso": "Fibra"
    },
    {
        "cidade": "Recife",
        "uf": "PE",
        "latitude": -8.046658,
        "longitude": -34.877065,
        "empresa": "OI",
        "pf-ou-pj": "Pessoa Física",
        "tecnologia": "ADSL2",
        "tipo-de-Produto": "INTERNET",
        "meio-de-acesso": "Fibra"
    },
    {
        "cidade": "Recife",
        "uf": "PE",
        "latitude": -8.046658,
        "longitude": -34.877065,
        "empresa": "OI",
        "pf-ou-pj": "Pessoa Física",
        "tecnologia": "FTTH",
        "tipo-de-Produto": "INTERNET",
        "meio-de-acesso": "Fibra"
    },
    {
        "cidade": "São Lourenço da Mata",
        "uf": "PE",
        "latitude": -8.00684,
        "longitude": -35.012359,
        "empresa": "OI",
        "pf-ou-pj": "Pessoa Física",
        "tecnologia": "FTTH",
        "tipo-de-Produto": "INTERNET",
        "meio-de-acesso": "Fibra"
    }
]