[
    {
        "cidade": "Mongaguá",
        "uf": "SP",
        "latitude": -24.080901,
        "longitude": -46.626526,
        "empresa": "EB FIBRA",
        "cnpj": 501541000101,
        "pf-ou-pj": "Pessoa Jurídica",
        "info-tecnologia": [
            {
                "tecnologia": "FTTH",
                "tipo-de-Produto": "INTERNET",
                "meio-de-acesso": "Fibra",
                "quantidade-acesso": 453
            }
        ]
    },
    {
        "cidade": "Praia Grande",
        "uf": "SP",
        "latitude": -24.008378,
        "longitude": -46.412057,
        "empresa": "EB FIBRA",
        "cnpj": 501541000101,
        "pf-ou-pj": "Pessoa Jurídica",
        "info-tecnologia": [
            {
                "tecnologia": "FTTH",
                "tipo-de-Produto": "INTERNET",
                "meio-de-acesso": "Fibra",
                "quantidade-acesso": 24
            }
        ]
    },
    {
        "cidade": "Guará",
        "uf": "SP",
        "latitude": -20.430162,
        "longitude": -47.823626,
        "empresa": "EB FIBRA",
        "cnpj": 4483690000138,
        "pf-ou-pj": "Pessoa Jurídica",
        "info-tecnologia": [
            {
                "tecnologia": "FTTH",
                "tipo-de-Produto": "INTERNET",
                "meio-de-acesso": "Fibra",
                "quantidade-acesso": 15
            }
        ]
    },
    {
        "cidade": "Ipuã",
        "uf": "SP",
        "latitude": -20.443785,
        "longitude": -48.012881,
        "empresa": "EB FIBRA",
        "cnpj": 4483690000138,
        "pf-ou-pj": "Pessoa Jurídica",
        "info-tecnologia": [
            {
                "tecnologia": "FTTH",
                "tipo-de-Produto": "INTERNET",
                "meio-de-acesso": "Fibra",
                "quantidade-acesso": 2
            }
        ]
    },
    {
        "cidade": "Ituverava",
        "uf": "SP",
        "latitude": -20.335465,
        "longitude": -47.790207,
        "empresa": "EB FIBRA",
        "cnpj": 4483690000138,
        "pf-ou-pj": "Pessoa Jurídica",
        "info-tecnologia": [
            {
                "tecnologia": "FTTH",
                "tipo-de-Produto": "INTERNET",
                "meio-de-acesso": "Fibra",
                "quantidade-acesso": 1
            }
        ]
    },
    {
        "cidade": "São Joaquim da Barra",
        "uf": "SP",
        "latitude": -20.581158,
        "longitude": -47.859316,
        "empresa": "EB FIBRA",
        "cnpj": 4483690000138,
        "pf-ou-pj": "Pessoa Jurídica",
        "info-tecnologia": [
            {
                "tecnologia": "FTTH",
                "tipo-de-Produto": "INTERNET",
                "meio-de-acesso": "Fibra",
                "quantidade-acesso": 53
            }
        ]
    },
    {
        "cidade": "Bertioga",
        "uf": "SP",
        "latitude": -23.848568,
        "longitude": -46.139586,
        "empresa": "EB FIBRA",
        "cnpj": 7714104000107,
        "pf-ou-pj": "Pessoa Jurídica",
        "info-tecnologia": [
            {
                "tecnologia": "FTTH",
                "tipo-de-Produto": "INTERNET",
                "meio-de-acesso": "Fibra",
                "quantidade-acesso": 6
            }
        ]
    },
    {
        "cidade": "Caraguatatuba",
        "uf": "SP",
        "latitude": -23.612535,
        "longitude": -45.412533,
        "empresa": "EB FIBRA",
        "cnpj": 7714104000107,
        "pf-ou-pj": "Pessoa Jurídica",
        "info-tecnologia": [
            {
                "tecnologia": "FTTH",
                "tipo-de-Produto": "INTERNET",
                "meio-de-acesso": "Fibra",
                "quantidade-acesso": 643
            }
        ]
    },
    {
        "cidade": "Ilhabela",
        "uf": "SP",
        "latitude": -23.778533,
        "longitude": -45.355226,
        "empresa": "EB FIBRA",
        "cnpj": 7714104000107,
        "pf-ou-pj": "Pessoa Jurídica",
        "info-tecnologia": [
            {
                "tecnologia": "FTTH",
                "tipo-de-Produto": "INTERNET",
                "meio-de-acesso": "Fibra",
                "quantidade-acesso": 381
            }
        ]
    },
    {
        "cidade": "Santos",
        "uf": "SP",
        "latitude": -23.953543,
        "longitude": -46.335042,
        "empresa": "EB FIBRA",
        "cnpj": 7714104000107,
        "pf-ou-pj": "Pessoa Jurídica",
        "info-tecnologia": [
            {
                "tecnologia": "FTTH",
                "tipo-de-Produto": "INTERNET",
                "meio-de-acesso": "Fibra",
                "quantidade-acesso": 1
            }
        ]
    },
    {
        "cidade": "São Sebastião",
        "uf": "SP",
        "latitude": -23.795059,
        "longitude": -45.414314,
        "empresa": "EB FIBRA",
        "cnpj": 7714104000107,
        "pf-ou-pj": "Pessoa Jurídica",
        "info-tecnologia": [
            {
                "tecnologia": "FTTH",
                "tipo-de-Produto": "INTERNET",
                "meio-de-acesso": "Fibra",
                "quantidade-acesso": 1371
            }
        ]
    },
    {
        "cidade": "Ubatuba",
        "uf": "SP",
        "latitude": -23.433162,
        "longitude": -45.083415,
        "empresa": "EB FIBRA",
        "cnpj": 7714104000107,
        "pf-ou-pj": "Pessoa Jurídica",
        "info-tecnologia": [
            {
                "tecnologia": "FTTH",
                "tipo-de-Produto": "INTERNET",
                "meio-de-acesso": "Fibra",
                "quantidade-acesso": 2
            }
        ]
    },
    {
        "cidade": "Santos",
        "uf": "SP",
        "latitude": -23.953543,
        "longitude": -46.335042,
        "empresa": "EB FIBRA",
        "cnpj": 7870094000107,
        "pf-ou-pj": "Pessoa Jurídica",
        "info-tecnologia": [
            {
                "tecnologia": "ADSL1",
                "tipo-de-Produto": "INTERNET",
                "meio-de-acesso": "Cabo Metálico",
                "quantidade-acesso": 1
            }
        ]
    },
    {
        "cidade": "Caçapava",
        "uf": "SP",
        "latitude": -23.099204,
        "longitude": -45.707645,
        "empresa": "EB FIBRA",
        "cnpj": 13330765000131,
        "pf-ou-pj": "Pessoa Jurídica",
        "info-tecnologia": [
            {
                "tecnologia": "FTTH",
                "tipo-de-Produto": "INTERNET",
                "meio-de-acesso": "Fibra",
                "quantidade-acesso": 25
            }
        ]
    },
    {
        "cidade": "Diadema",
        "uf": "SP",
        "latitude": -23.681347,
        "longitude": -46.62052,
        "empresa": "EB FIBRA",
        "cnpj": 13330765000131,
        "pf-ou-pj": "Pessoa Jurídica",
        "info-tecnologia": [
            {
                "tecnologia": "FTTH",
                "tipo-de-Produto": "INTERNET",
                "meio-de-acesso": "Fibra",
                "quantidade-acesso": 138
            }
        ]
    },
    {
        "cidade": "Ferraz de Vasconcelos",
        "uf": "SP",
        "latitude": -23.541056,
        "longitude": -46.37097,
        "empresa": "EB FIBRA",
        "cnpj": 13330765000131,
        "pf-ou-pj": "Pessoa Jurídica",
        "info-tecnologia": [
            {
                "tecnologia": "FTTH",
                "tipo-de-Produto": "INTERNET",
                "meio-de-acesso": "Fibra",
                "quantidade-acesso": 71
            }
        ]
    },
    {
        "cidade": "Guarulhos",
        "uf": "SP",
        "latitude": -23.453758,
        "longitude": -46.533347,
        "empresa": "EB FIBRA",
        "cnpj": 13330765000131,
        "pf-ou-pj": "Pessoa Jurídica",
        "info-tecnologia": [
            {
                "tecnologia": "FTTH",
                "tipo-de-Produto": "INTERNET",
                "meio-de-acesso": "Fibra",
                "quantidade-acesso": 566
            }
        ]
    },
    {
        "cidade": "Jacareí",
        "uf": "SP",
        "latitude": -23.29829,
        "longitude": -45.965814,
        "empresa": "EB FIBRA",
        "cnpj": 13330765000131,
        "pf-ou-pj": "Pessoa Jurídica",
        "info-tecnologia": [
            {
                "tecnologia": "FTTH",
                "tipo-de-Produto": "INTERNET",
                "meio-de-acesso": "Fibra",
                "quantidade-acesso": 46
            }
        ]
    },
    {
        "cidade": "Mauá",
        "uf": "SP",
        "latitude": -23.66767,
        "longitude": -46.461263,
        "empresa": "EB FIBRA",
        "cnpj": 13330765000131,
        "pf-ou-pj": "Pessoa Jurídica",
        "info-tecnologia": [
            {
                "tecnologia": "FTTH",
                "tipo-de-Produto": "INTERNET",
                "meio-de-acesso": "Fibra",
                "quantidade-acesso": 724
            }
        ]
    },
    {
        "cidade": "Mogi das Cruzes",
        "uf": "SP",
        "latitude": -23.52082,
        "longitude": -46.18541,
        "empresa": "EB FIBRA",
        "cnpj": 13330765000131,
        "pf-ou-pj": "Pessoa Jurídica",
        "info-tecnologia": [
            {
                "tecnologia": "FTTH",
                "tipo-de-Produto": "INTERNET",
                "meio-de-acesso": "Fibra",
                "quantidade-acesso": 160
            }
        ]
    },
    {
        "cidade": "Ribeirão Pires",
        "uf": "SP",
        "latitude": -23.706669,
        "longitude": -46.405805,
        "empresa": "EB FIBRA",
        "cnpj": 13330765000131,
        "pf-ou-pj": "Pessoa Jurídica",
        "info-tecnologia": [
            {
                "tecnologia": "FTTH",
                "tipo-de-Produto": "INTERNET",
                "meio-de-acesso": "Fibra",
                "quantidade-acesso": 297
            }
        ]
    },
    {
        "cidade": "Rio Grande da Serra",
        "uf": "SP",
        "latitude": -23.743724,
        "longitude": -46.397084,
        "empresa": "EB FIBRA",
        "cnpj": 13330765000131,
        "pf-ou-pj": "Pessoa Jurídica",
        "info-tecnologia": [
            {
                "tecnologia": "FTTH",
                "tipo-de-Produto": "INTERNET",
                "meio-de-acesso": "Fibra",
                "quantidade-acesso": 55
            }
        ]
    },
    {
        "cidade": "Santo André",
        "uf": "SP",
        "latitude": -23.67373,
        "longitude": -46.543154,
        "empresa": "EB FIBRA",
        "cnpj": 13330765000131,
        "pf-ou-pj": "Pessoa Jurídica",
        "info-tecnologia": [
            {
                "tecnologia": "FTTH",
                "tipo-de-Produto": "INTERNET",
                "meio-de-acesso": "Fibra",
                "quantidade-acesso": 8
            }
        ]
    },
    {
        "cidade": "Suzano",
        "uf": "SP",
        "latitude": -23.544828,
        "longitude": -46.311181,
        "empresa": "EB FIBRA",
        "cnpj": 13330765000131,
        "pf-ou-pj": "Pessoa Jurídica",
        "info-tecnologia": [
            {
                "tecnologia": "FTTH",
                "tipo-de-Produto": "INTERNET",
                "meio-de-acesso": "Fibra",
                "quantidade-acesso": 196
            }
        ]
    },
    {
        "cidade": "São Bernardo do Campo",
        "uf": "SP",
        "latitude": -23.691412,
        "longitude": -46.564617,
        "empresa": "EB FIBRA",
        "cnpj": 13330765000131,
        "pf-ou-pj": "Pessoa Jurídica",
        "info-tecnologia": [
            {
                "tecnologia": "FTTH",
                "tipo-de-Produto": "INTERNET",
                "meio-de-acesso": "Fibra",
                "quantidade-acesso": 21
            }
        ]
    },
    {
        "cidade": "São José dos Campos",
        "uf": "SP",
        "latitude": -23.189554,
        "longitude": -45.884115,
        "empresa": "EB FIBRA",
        "cnpj": 13330765000131,
        "pf-ou-pj": "Pessoa Jurídica",
        "info-tecnologia": [
            {
                "tecnologia": "FTTH",
                "tipo-de-Produto": "INTERNET",
                "meio-de-acesso": "Fibra",
                "quantidade-acesso": 46
            }
        ]
    },
    {
        "cidade": "São Paulo",
        "uf": "SP",
        "latitude": -23.532905,
        "longitude": -46.63952,
        "empresa": "EB FIBRA",
        "cnpj": 13330765000131,
        "pf-ou-pj": "Pessoa Jurídica",
        "info-tecnologia": [
            {
                "tecnologia": "FTTH",
                "tipo-de-Produto": "INTERNET",
                "meio-de-acesso": "Fibra",
                "quantidade-acesso": 2057
            }
        ]
    },
    {
        "cidade": "Taubaté",
        "uf": "SP",
        "latitude": -23.010414,
        "longitude": -45.55926,
        "empresa": "EB FIBRA",
        "cnpj": 13330765000131,
        "pf-ou-pj": "Pessoa Jurídica",
        "info-tecnologia": [
            {
                "tecnologia": "FTTH",
                "tipo-de-Produto": "INTERNET",
                "meio-de-acesso": "Fibra",
                "quantidade-acesso": 63
            }
        ]
    },
    {
        "cidade": "Tremembé",
        "uf": "SP",
        "latitude": -22.95714,
        "longitude": -45.547526,
        "empresa": "EB FIBRA",
        "cnpj": 13330765000131,
        "pf-ou-pj": "Pessoa Jurídica",
        "info-tecnologia": [
            {
                "tecnologia": "FTTH",
                "tipo-de-Produto": "INTERNET",
                "meio-de-acesso": "Fibra",
                "quantidade-acesso": 5
            }
        ]
    },
    {
        "cidade": "Bertioga",
        "uf": "SP",
        "latitude": -23.848568,
        "longitude": -46.139586,
        "empresa": "EB FIBRA",
        "cnpj": 15163190000135,
        "pf-ou-pj": "Pessoa Jurídica",
        "info-tecnologia": [
            {
                "tecnologia": "FTTH",
                "tipo-de-Produto": "INTERNET",
                "meio-de-acesso": "Fibra",
                "quantidade-acesso": 123
            }
        ]
    },
    {
        "cidade": "Cubatão",
        "uf": "SP",
        "latitude": -23.891121,
        "longitude": -46.423968,
        "empresa": "EB FIBRA",
        "cnpj": 15163190000135,
        "pf-ou-pj": "Pessoa Jurídica",
        "info-tecnologia": [
            {
                "tecnologia": "FTTH",
                "tipo-de-Produto": "INTERNET",
                "meio-de-acesso": "Fibra",
                "quantidade-acesso": 14
            }
        ]
    },
    {
        "cidade": "Guarujá",
        "uf": "SP",
        "latitude": -23.988798,
        "longitude": -46.257959,
        "empresa": "EB FIBRA",
        "cnpj": 15163190000135,
        "pf-ou-pj": "Pessoa Jurídica",
        "info-tecnologia": [
            {
                "tecnologia": "FTTH",
                "tipo-de-Produto": "INTERNET",
                "meio-de-acesso": "Fibra",
                "quantidade-acesso": 693
            }
        ]
    },
    {
        "cidade": "Itanhaém",
        "uf": "SP",
        "latitude": -24.173633,
        "longitude": -46.787986,
        "empresa": "EB FIBRA",
        "cnpj": 15163190000135,
        "pf-ou-pj": "Pessoa Jurídica",
        "info-tecnologia": [
            {
                "tecnologia": "FTTH",
                "tipo-de-Produto": "INTERNET",
                "meio-de-acesso": "Fibra",
                "quantidade-acesso": 5
            }
        ]
    },
    {
        "cidade": "Peruíbe",
        "uf": "SP",
        "latitude": -24.311974,
        "longitude": -47.0012,
        "empresa": "EB FIBRA",
        "cnpj": 15163190000135,
        "pf-ou-pj": "Pessoa Jurídica",
        "info-tecnologia": [
            {
                "tecnologia": "FTTH",
                "tipo-de-Produto": "INTERNET",
                "meio-de-acesso": "Fibra",
                "quantidade-acesso": 18
            }
        ]
    },
    {
        "cidade": "Praia Grande",
        "uf": "SP",
        "latitude": -24.008378,
        "longitude": -46.412057,
        "empresa": "EB FIBRA",
        "cnpj": 15163190000135,
        "pf-ou-pj": "Pessoa Jurídica",
        "info-tecnologia": [
            {
                "tecnologia": "FTTH",
                "tipo-de-Produto": "INTERNET",
                "meio-de-acesso": "Fibra",
                "quantidade-acesso": 57
            }
        ]
    },
    {
        "cidade": "Ribeirão Preto",
        "uf": "SP",
        "latitude": -21.169923,
        "longitude": -47.809875,
        "empresa": "EB FIBRA",
        "cnpj": 15163190000135,
        "pf-ou-pj": "Pessoa Jurídica",
        "info-tecnologia": [
            {
                "tecnologia": "FTTH",
                "tipo-de-Produto": "INTERNET",
                "meio-de-acesso": "Fibra",
                "quantidade-acesso": 151
            }
        ]
    },
    {
        "cidade": "Santos",
        "uf": "SP",
        "latitude": -23.953543,
        "longitude": -46.335042,
        "empresa": "EB FIBRA",
        "cnpj": 15163190000135,
        "pf-ou-pj": "Pessoa Jurídica",
        "info-tecnologia": [
            {
                "tecnologia": "FTTH",
                "tipo-de-Produto": "INTERNET",
                "meio-de-acesso": "Fibra",
                "quantidade-acesso": 93
            }
        ]
    },
    {
        "cidade": "São Vicente",
        "uf": "SP",
        "latitude": -23.957353,
        "longitude": -46.388333,
        "empresa": "EB FIBRA",
        "cnpj": 15163190000135,
        "pf-ou-pj": "Pessoa Jurídica",
        "info-tecnologia": [
            {
                "tecnologia": "FTTH",
                "tipo-de-Produto": "INTERNET",
                "meio-de-acesso": "Fibra",
                "quantidade-acesso": 65
            }
        ]
    },
    {
        "cidade": "Altinópolis",
        "uf": "SP",
        "latitude": -21.021364,
        "longitude": -47.3712,
        "empresa": "EB FIBRA",
        "cnpj": 20326556000180,
        "pf-ou-pj": "Pessoa Jurídica",
        "info-tecnologia": [
            {
                "tecnologia": "FTTH",
                "tipo-de-Produto": "INTERNET",
                "meio-de-acesso": "Fibra",
                "quantidade-acesso": 16
            }
        ]
    },
    {
        "cidade": "Franca",
        "uf": "SP",
        "latitude": -20.53523,
        "longitude": -47.403861,
        "empresa": "EB FIBRA",
        "cnpj": 20326556000180,
        "pf-ou-pj": "Pessoa Jurídica",
        "info-tecnologia": [
            {
                "tecnologia": "FTTH",
                "tipo-de-Produto": "INTERNET",
                "meio-de-acesso": "Fibra",
                "quantidade-acesso": 101
            }
        ]
    },
    {
        "cidade": "Itirapuã",
        "uf": "SP",
        "latitude": -20.641585,
        "longitude": -47.219446,
        "empresa": "EB FIBRA",
        "cnpj": 20326556000180,
        "pf-ou-pj": "Pessoa Jurídica",
        "info-tecnologia": [
            {
                "tecnologia": "FTTH",
                "tipo-de-Produto": "INTERNET",
                "meio-de-acesso": "Fibra",
                "quantidade-acesso": 12
            }
        ]
    },
    {
        "cidade": "Orlândia",
        "uf": "SP",
        "latitude": -20.716925,
        "longitude": -47.885205,
        "empresa": "EB FIBRA",
        "cnpj": 20326556000180,
        "pf-ou-pj": "Pessoa Jurídica",
        "info-tecnologia": [
            {
                "tecnologia": "FTTH",
                "tipo-de-Produto": "INTERNET",
                "meio-de-acesso": "Fibra",
                "quantidade-acesso": 2
            }
        ]
    },
    {
        "cidade": "Patrocínio Paulista",
        "uf": "SP",
        "latitude": -20.638361,
        "longitude": -47.280124,
        "empresa": "EB FIBRA",
        "cnpj": 20326556000180,
        "pf-ou-pj": "Pessoa Jurídica",
        "info-tecnologia": [
            {
                "tecnologia": "FTTH",
                "tipo-de-Produto": "INTERNET",
                "meio-de-acesso": "Fibra",
                "quantidade-acesso": 14
            }
        ]
    },
    {
        "cidade": "Barueri",
        "uf": "SP",
        "latitude": -23.505689,
        "longitude": -46.879042,
        "empresa": "EB FIBRA",
        "cnpj": 41644220000135,
        "pf-ou-pj": "Pessoa Jurídica",
        "info-tecnologia": [
            {
                "tecnologia": "FTTH",
                "tipo-de-Produto": "INTERNET",
                "meio-de-acesso": "Fibra",
                "quantidade-acesso": 22
            },
            {
                "tecnologia": "FTTH",
                "tipo-de-Produto": "LINHA_DEDICADA",
                "meio-de-acesso": "Fibra",
                "quantidade-acesso": 6
            }
        ]
    },
    {
        "cidade": "Bauru",
        "uf": "SP",
        "latitude": -22.324569,
        "longitude": -49.087142,
        "empresa": "EB FIBRA",
        "cnpj": 41644220000135,
        "pf-ou-pj": "Pessoa Jurídica",
        "info-tecnologia": [
            {
                "tecnologia": "FTTH",
                "tipo-de-Produto": "LINHA_DEDICADA",
                "meio-de-acesso": "Fibra",
                "quantidade-acesso": 1
            }
        ]
    },
    {
        "cidade": "Cotia",
        "uf": "SP",
        "latitude": -23.602177,
        "longitude": -46.91902,
        "empresa": "EB FIBRA",
        "cnpj": 41644220000135,
        "pf-ou-pj": "Pessoa Jurídica",
        "info-tecnologia": [
            {
                "tecnologia": "FTTH",
                "tipo-de-Produto": "INTERNET",
                "meio-de-acesso": "Fibra",
                "quantidade-acesso": 89
            },
            {
                "tecnologia": "FTTH",
                "tipo-de-Produto": "LINHA_DEDICADA",
                "meio-de-acesso": "Fibra",
                "quantidade-acesso": 1
            }
        ]
    },
    {
        "cidade": "Guarujá",
        "uf": "SP",
        "latitude": -23.988798,
        "longitude": -46.257959,
        "empresa": "EB FIBRA",
        "cnpj": 41644220000135,
        "pf-ou-pj": "Pessoa Jurídica",
        "info-tecnologia": [
            {
                "tecnologia": "FTTH",
                "tipo-de-Produto": "LINHA_DEDICADA",
                "meio-de-acesso": "Fibra",
                "quantidade-acesso": 1
            }
        ]
    },
    {
        "cidade": "Guarulhos",
        "uf": "SP",
        "latitude": -23.453758,
        "longitude": -46.533347,
        "empresa": "EB FIBRA",
        "cnpj": 41644220000135,
        "pf-ou-pj": "Pessoa Jurídica",
        "info-tecnologia": [
            {
                "tecnologia": "FTTH",
                "tipo-de-Produto": "LINHA_DEDICADA",
                "meio-de-acesso": "Fibra",
                "quantidade-acesso": 1
            }
        ]
    },
    {
        "cidade": "Mauá",
        "uf": "SP",
        "latitude": -23.66767,
        "longitude": -46.461263,
        "empresa": "EB FIBRA",
        "cnpj": 41644220000135,
        "pf-ou-pj": "Pessoa Jurídica",
        "info-tecnologia": [
            {
                "tecnologia": "FTTH",
                "tipo-de-Produto": "LINHA_DEDICADA",
                "meio-de-acesso": "Fibra",
                "quantidade-acesso": 3
            }
        ]
    },
    {
        "cidade": "Mogi das Cruzes",
        "uf": "SP",
        "latitude": -23.52082,
        "longitude": -46.18541,
        "empresa": "EB FIBRA",
        "cnpj": 41644220000135,
        "pf-ou-pj": "Pessoa Jurídica",
        "info-tecnologia": [
            {
                "tecnologia": "FTTH",
                "tipo-de-Produto": "INTERNET",
                "meio-de-acesso": "Fibra",
                "quantidade-acesso": 1
            }
        ]
    },
    {
        "cidade": "Osasco",
        "uf": "SP",
        "latitude": -23.53239,
        "longitude": -46.791555,
        "empresa": "EB FIBRA",
        "cnpj": 41644220000135,
        "pf-ou-pj": "Pessoa Jurídica",
        "info-tecnologia": [
            {
                "tecnologia": "FTTH",
                "tipo-de-Produto": "LINHA_DEDICADA",
                "meio-de-acesso": "Fibra",
                "quantidade-acesso": 3
            }
        ]
    },
    {
        "cidade": "Paulínia",
        "uf": "SP",
        "latitude": -22.754178,
        "longitude": -47.148776,
        "empresa": "EB FIBRA",
        "cnpj": 41644220000135,
        "pf-ou-pj": "Pessoa Jurídica",
        "info-tecnologia": [
            {
                "tecnologia": "FTTH",
                "tipo-de-Produto": "LINHA_DEDICADA",
                "meio-de-acesso": "Fibra",
                "quantidade-acesso": 1
            }
        ]
    },
    {
        "cidade": "Presidente Prudente",
        "uf": "SP",
        "latitude": -22.120654,
        "longitude": -51.392526,
        "empresa": "EB FIBRA",
        "cnpj": 41644220000135,
        "pf-ou-pj": "Pessoa Jurídica",
        "info-tecnologia": [
            {
                "tecnologia": "FTTH",
                "tipo-de-Produto": "LINHA_DEDICADA",
                "meio-de-acesso": "Fibra",
                "quantidade-acesso": 1
            }
        ]
    },
    {
        "cidade": "Ribeirão Preto",
        "uf": "SP",
        "latitude": -21.169923,
        "longitude": -47.809875,
        "empresa": "EB FIBRA",
        "cnpj": 41644220000135,
        "pf-ou-pj": "Pessoa Jurídica",
        "info-tecnologia": [
            {
                "tecnologia": "FTTH",
                "tipo-de-Produto": "LINHA_DEDICADA",
                "meio-de-acesso": "Fibra",
                "quantidade-acesso": 1
            }
        ]
    },
    {
        "cidade": "Santana de Parnaíba",
        "uf": "SP",
        "latitude": -23.442514,
        "longitude": -46.922215,
        "empresa": "EB FIBRA",
        "cnpj": 41644220000135,
        "pf-ou-pj": "Pessoa Jurídica",
        "info-tecnologia": [
            {
                "tecnologia": "FTTH",
                "tipo-de-Produto": "INTERNET",
                "meio-de-acesso": "Fibra",
                "quantidade-acesso": 3
            }
        ]
    },
    {
        "cidade": "Santos",
        "uf": "SP",
        "latitude": -23.953543,
        "longitude": -46.335042,
        "empresa": "EB FIBRA",
        "cnpj": 41644220000135,
        "pf-ou-pj": "Pessoa Jurídica",
        "info-tecnologia": [
            {
                "tecnologia": "FTTH",
                "tipo-de-Produto": "INTERNET",
                "meio-de-acesso": "Fibra",
                "quantidade-acesso": 2
            }
        ]
    },
    {
        "cidade": "São Bernardo do Campo",
        "uf": "SP",
        "latitude": -23.691412,
        "longitude": -46.564617,
        "empresa": "EB FIBRA",
        "cnpj": 41644220000135,
        "pf-ou-pj": "Pessoa Jurídica",
        "info-tecnologia": [
            {
                "tecnologia": "FTTH",
                "tipo-de-Produto": "LINHA_DEDICADA",
                "meio-de-acesso": "Fibra",
                "quantidade-acesso": 1
            }
        ]
    },
    {
        "cidade": "São José do Rio Preto",
        "uf": "SP",
        "latitude": -20.811289,
        "longitude": -49.375767,
        "empresa": "EB FIBRA",
        "cnpj": 41644220000135,
        "pf-ou-pj": "Pessoa Jurídica",
        "info-tecnologia": [
            {
                "tecnologia": "FTTH",
                "tipo-de-Produto": "LINHA_DEDICADA",
                "meio-de-acesso": "Fibra",
                "quantidade-acesso": 1
            }
        ]
    },
    {
        "cidade": "São José dos Campos",
        "uf": "SP",
        "latitude": -23.189554,
        "longitude": -45.884115,
        "empresa": "EB FIBRA",
        "cnpj": 41644220000135,
        "pf-ou-pj": "Pessoa Jurídica",
        "info-tecnologia": [
            {
                "tecnologia": "FTTH",
                "tipo-de-Produto": "LINHA_DEDICADA",
                "meio-de-acesso": "Fibra",
                "quantidade-acesso": 1
            }
        ]
    },
    {
        "cidade": "São Paulo",
        "uf": "SP",
        "latitude": -23.532905,
        "longitude": -46.63952,
        "empresa": "EB FIBRA",
        "cnpj": 41644220000135,
        "pf-ou-pj": "Pessoa Jurídica",
        "info-tecnologia": [
            {
                "tecnologia": "FTTH",
                "tipo-de-Produto": "INTERNET",
                "meio-de-acesso": "Fibra",
                "quantidade-acesso": 56
            },
            {
                "tecnologia": "FTTH",
                "tipo-de-Produto": "LINHA_DEDICADA",
                "meio-de-acesso": "Fibra",
                "quantidade-acesso": 16
            }
        ]
    },
    {
        "cidade": "Águas de Santa Bárbara",
        "uf": "SP",
        "latitude": -22.881186,
        "longitude": -49.242133,
        "empresa": "EB FIBRA",
        "cnpj": 41644220000135,
        "pf-ou-pj": "Pessoa Jurídica",
        "info-tecnologia": [
            {
                "tecnologia": "FTTH",
                "tipo-de-Produto": "LINHA_DEDICADA",
                "meio-de-acesso": "Fibra",
                "quantidade-acesso": 1
            }
        ]
    }
]