[
    {
        "cidade": "Apucarana",
        "uf": "PR",
        "latitude": -23.549961,
        "longitude": -51.463486,
        "empresa": "EB FIBRA",
        "cnpj": 10442435000140,
        "pf-ou-pj": "Pessoa Física",
        "info-tecnologia": [
            {
                "tecnologia": "FTTH",
                "tipo-de-Produto": "INTERNET",
                "meio-de-acesso": "Fibra",
                "quantidade-acesso": 5551
            }
        ]
    },
    {
        "cidade": "Arapongas",
        "uf": "PR",
        "latitude": -23.415296,
        "longitude": -51.42592,
        "empresa": "EB FIBRA",
        "cnpj": 10442435000140,
        "pf-ou-pj": "Pessoa Física",
        "info-tecnologia": [
            {
                "tecnologia": "FTTH",
                "tipo-de-Produto": "INTERNET",
                "meio-de-acesso": "Fibra",
                "quantidade-acesso": 6985
            }
        ]
    },
    {
        "cidade": "Araruna",
        "uf": "PR",
        "latitude": -23.9315,
        "longitude": -52.502101,
        "empresa": "EB FIBRA",
        "cnpj": 10442435000140,
        "pf-ou-pj": "Pessoa Física",
        "info-tecnologia": [
            {
                "tecnologia": "FTTH",
                "tipo-de-Produto": "INTERNET",
                "meio-de-acesso": "Fibra",
                "quantidade-acesso": 1182
            }
        ]
    },
    {
        "cidade": "Campo Mourão",
        "uf": "PR",
        "latitude": -24.046329,
        "longitude": -52.37802,
        "empresa": "EB FIBRA",
        "cnpj": 10442435000140,
        "pf-ou-pj": "Pessoa Física",
        "info-tecnologia": [
            {
                "tecnologia": "FTTH",
                "tipo-de-Produto": "INTERNET",
                "meio-de-acesso": "Fibra",
                "quantidade-acesso": 11424
            }
        ]
    },
    {
        "cidade": "Cianorte",
        "uf": "PR",
        "latitude": -23.659859,
        "longitude": -52.605444,
        "empresa": "EB FIBRA",
        "cnpj": 10442435000140,
        "pf-ou-pj": "Pessoa Física",
        "info-tecnologia": [
            {
                "tecnologia": "FTTH",
                "tipo-de-Produto": "INTERNET",
                "meio-de-acesso": "Fibra",
                "quantidade-acesso": 7188
            }
        ]
    },
    {
        "cidade": "Doutor Camargo",
        "uf": "PR",
        "latitude": -23.558152,
        "longitude": -52.21781,
        "empresa": "EB FIBRA",
        "cnpj": 10442435000140,
        "pf-ou-pj": "Pessoa Física",
        "info-tecnologia": [
            {
                "tecnologia": "FTTH",
                "tipo-de-Produto": "INTERNET",
                "meio-de-acesso": "Fibra",
                "quantidade-acesso": 228
            }
        ]
    },
    {
        "cidade": "Engenheiro Beltrão",
        "uf": "PR",
        "latitude": -23.797028,
        "longitude": -52.265877,
        "empresa": "EB FIBRA",
        "cnpj": 10442435000140,
        "pf-ou-pj": "Pessoa Física",
        "info-tecnologia": [
            {
                "tecnologia": "FTTH",
                "tipo-de-Produto": "INTERNET",
                "meio-de-acesso": "Fibra",
                "quantidade-acesso": 722
            }
        ]
    },
    {
        "cidade": "Jandaia do Sul",
        "uf": "PR",
        "latitude": -23.601089,
        "longitude": -51.644819,
        "empresa": "EB FIBRA",
        "cnpj": 10442435000140,
        "pf-ou-pj": "Pessoa Física",
        "info-tecnologia": [
            {
                "tecnologia": "FTTH",
                "tipo-de-Produto": "INTERNET",
                "meio-de-acesso": "Fibra",
                "quantidade-acesso": 949
            }
        ]
    },
    {
        "cidade": "Jussara",
        "uf": "PR",
        "latitude": -23.621931,
        "longitude": -52.46931,
        "empresa": "EB FIBRA",
        "cnpj": 10442435000140,
        "pf-ou-pj": "Pessoa Física",
        "info-tecnologia": [
            {
                "tecnologia": "FTTH",
                "tipo-de-Produto": "INTERNET",
                "meio-de-acesso": "Fibra",
                "quantidade-acesso": 470
            }
        ]
    },
    {
        "cidade": "Mandaguari",
        "uf": "PR",
        "latitude": -23.54459,
        "longitude": -51.671027,
        "empresa": "EB FIBRA",
        "cnpj": 10442435000140,
        "pf-ou-pj": "Pessoa Física",
        "info-tecnologia": [
            {
                "tecnologia": "FTTH",
                "tipo-de-Produto": "INTERNET",
                "meio-de-acesso": "Fibra",
                "quantidade-acesso": 1263
            }
        ]
    },
    {
        "cidade": "Marialva",
        "uf": "PR",
        "latitude": -23.484316,
        "longitude": -51.792802,
        "empresa": "EB FIBRA",
        "cnpj": 10442435000140,
        "pf-ou-pj": "Pessoa Física",
        "info-tecnologia": [
            {
                "tecnologia": "FTTH",
                "tipo-de-Produto": "INTERNET",
                "meio-de-acesso": "Fibra",
                "quantidade-acesso": 3201
            }
        ]
    },
    {
        "cidade": "Maringá",
        "uf": "PR",
        "latitude": -23.420545,
        "longitude": -51.933298,
        "empresa": "EB FIBRA",
        "cnpj": 10442435000140,
        "pf-ou-pj": "Pessoa Física",
        "info-tecnologia": [
            {
                "tecnologia": "FTTH",
                "tipo-de-Produto": "INTERNET",
                "meio-de-acesso": "Fibra",
                "quantidade-acesso": 20247
            }
        ]
    },
    {
        "cidade": "Paiçandu",
        "uf": "PR",
        "latitude": -23.455534,
        "longitude": -52.046013,
        "empresa": "EB FIBRA",
        "cnpj": 10442435000140,
        "pf-ou-pj": "Pessoa Física",
        "info-tecnologia": [
            {
                "tecnologia": "FTTH",
                "tipo-de-Produto": "INTERNET",
                "meio-de-acesso": "Fibra",
                "quantidade-acesso": 5550
            }
        ]
    },
    {
        "cidade": "Peabiru",
        "uf": "PR",
        "latitude": -23.914013,
        "longitude": -52.343107,
        "empresa": "EB FIBRA",
        "cnpj": 10442435000140,
        "pf-ou-pj": "Pessoa Física",
        "info-tecnologia": [
            {
                "tecnologia": "FTTH",
                "tipo-de-Produto": "INTERNET",
                "meio-de-acesso": "Fibra",
                "quantidade-acesso": 749
            }
        ]
    },
    {
        "cidade": "Ponta Grossa",
        "uf": "PR",
        "latitude": -25.091622,
        "longitude": -50.166787,
        "empresa": "EB FIBRA",
        "cnpj": 10442435000140,
        "pf-ou-pj": "Pessoa Física",
        "info-tecnologia": [
            {
                "tecnologia": "FTTH",
                "tipo-de-Produto": "INTERNET",
                "meio-de-acesso": "Fibra",
                "quantidade-acesso": 1
            }
        ]
    },
    {
        "cidade": "Rolândia",
        "uf": "PR",
        "latitude": -23.31012,
        "longitude": -51.365928,
        "empresa": "EB FIBRA",
        "cnpj": 10442435000140,
        "pf-ou-pj": "Pessoa Física",
        "info-tecnologia": [
            {
                "tecnologia": "FTTH",
                "tipo-de-Produto": "INTERNET",
                "meio-de-acesso": "Fibra",
                "quantidade-acesso": 3362
            }
        ]
    },
    {
        "cidade": "Telêmaco Borba",
        "uf": "PR",
        "latitude": -24.32452,
        "longitude": -50.617585,
        "empresa": "EB FIBRA",
        "cnpj": 10442435000140,
        "pf-ou-pj": "Pessoa Física",
        "info-tecnologia": [
            {
                "tecnologia": "FTTH",
                "tipo-de-Produto": "INTERNET",
                "meio-de-acesso": "Fibra",
                "quantidade-acesso": 1813
            }
        ]
    },
    {
        "cidade": "Ubiratã",
        "uf": "PR",
        "latitude": -24.539292,
        "longitude": -52.986485,
        "empresa": "EB FIBRA",
        "cnpj": 10442435000140,
        "pf-ou-pj": "Pessoa Física",
        "info-tecnologia": [
            {
                "tecnologia": "FTTH",
                "tipo-de-Produto": "INTERNET",
                "meio-de-acesso": "Fibra",
                "quantidade-acesso": 490
            }
        ]
    }
]