[
    {
        "cidade": "Aquidabã",
        "uf": "SE",
        "latitude": -10.278043,
        "longitude": -37.014768,
        "empresa": "HUGHES",
        "cnpj": 5206385000161,
        "pf-ou-pj": "Pessoa Jurídica",
        "info-tecnologia": [
            {
                "tecnologia": "VSAT",
                "tipo-de-Produto": "INTERNET",
                "meio-de-acesso": "Satélite",
                "quantidade-acesso": 1
            }
        ]
    },
    {
        "cidade": "Aracaju",
        "uf": "SE",
        "latitude": -10.909133,
        "longitude": -37.06766,
        "empresa": "HUGHES",
        "cnpj": 5206385000161,
        "pf-ou-pj": "Pessoa Jurídica",
        "info-tecnologia": [
            {
                "tecnologia": "VSAT",
                "tipo-de-Produto": "INTERNET",
                "meio-de-acesso": "Satélite",
                "quantidade-acesso": 20
            }
        ]
    },
    {
        "cidade": "Arauá",
        "uf": "SE",
        "latitude": -11.261391,
        "longitude": -37.620058,
        "empresa": "HUGHES",
        "cnpj": 5206385000161,
        "pf-ou-pj": "Pessoa Jurídica",
        "info-tecnologia": [
            {
                "tecnologia": "VSAT",
                "tipo-de-Produto": "INTERNET",
                "meio-de-acesso": "Satélite",
                "quantidade-acesso": 5
            }
        ]
    },
    {
        "cidade": "Areia Branca",
        "uf": "SE",
        "latitude": -10.758005,
        "longitude": -37.325063,
        "empresa": "HUGHES",
        "cnpj": 5206385000161,
        "pf-ou-pj": "Pessoa Jurídica",
        "info-tecnologia": [
            {
                "tecnologia": "VSAT",
                "tipo-de-Produto": "INTERNET",
                "meio-de-acesso": "Satélite",
                "quantidade-acesso": 1
            }
        ]
    },
    {
        "cidade": "Barra dos Coqueiros",
        "uf": "SE",
        "latitude": -10.899623,
        "longitude": -37.032317,
        "empresa": "HUGHES",
        "cnpj": 5206385000161,
        "pf-ou-pj": "Pessoa Jurídica",
        "info-tecnologia": [
            {
                "tecnologia": "VSAT",
                "tipo-de-Produto": "INTERNET",
                "meio-de-acesso": "Satélite",
                "quantidade-acesso": 4
            }
        ]
    },
    {
        "cidade": "Boquim",
        "uf": "SE",
        "latitude": -11.13972,
        "longitude": -37.619466,
        "empresa": "HUGHES",
        "cnpj": 5206385000161,
        "pf-ou-pj": "Pessoa Jurídica",
        "info-tecnologia": [
            {
                "tecnologia": "VSAT",
                "tipo-de-Produto": "INTERNET",
                "meio-de-acesso": "Satélite",
                "quantidade-acesso": 3
            }
        ]
    },
    {
        "cidade": "Brejo Grande",
        "uf": "SE",
        "latitude": -10.429713,
        "longitude": -36.461102,
        "empresa": "HUGHES",
        "cnpj": 5206385000161,
        "pf-ou-pj": "Pessoa Jurídica",
        "info-tecnologia": [
            {
                "tecnologia": "VSAT",
                "tipo-de-Produto": "INTERNET",
                "meio-de-acesso": "Satélite",
                "quantidade-acesso": 2
            }
        ]
    },
    {
        "cidade": "Canindé de São Francisco",
        "uf": "SE",
        "latitude": -9.648823,
        "longitude": -37.792294,
        "empresa": "HUGHES",
        "cnpj": 5206385000161,
        "pf-ou-pj": "Pessoa Jurídica",
        "info-tecnologia": [
            {
                "tecnologia": "VSAT",
                "tipo-de-Produto": "INTERNET",
                "meio-de-acesso": "Satélite",
                "quantidade-acesso": 6
            }
        ]
    },
    {
        "cidade": "Capela",
        "uf": "SE",
        "latitude": -10.506928,
        "longitude": -37.062847,
        "empresa": "HUGHES",
        "cnpj": 5206385000161,
        "pf-ou-pj": "Pessoa Jurídica",
        "info-tecnologia": [
            {
                "tecnologia": "VSAT",
                "tipo-de-Produto": "INTERNET",
                "meio-de-acesso": "Satélite",
                "quantidade-acesso": 1
            }
        ]
    },
    {
        "cidade": "Carira",
        "uf": "SE",
        "latitude": -10.352361,
        "longitude": -37.700241,
        "empresa": "HUGHES",
        "cnpj": 5206385000161,
        "pf-ou-pj": "Pessoa Jurídica",
        "info-tecnologia": [
            {
                "tecnologia": "VSAT",
                "tipo-de-Produto": "INTERNET",
                "meio-de-acesso": "Satélite",
                "quantidade-acesso": 2
            }
        ]
    },
    {
        "cidade": "Cristinápolis",
        "uf": "SE",
        "latitude": -11.466778,
        "longitude": -37.758494,
        "empresa": "HUGHES",
        "cnpj": 5206385000161,
        "pf-ou-pj": "Pessoa Jurídica",
        "info-tecnologia": [
            {
                "tecnologia": "VSAT",
                "tipo-de-Produto": "INTERNET",
                "meio-de-acesso": "Satélite",
                "quantidade-acesso": 2
            }
        ]
    },
    {
        "cidade": "Estância",
        "uf": "SE",
        "latitude": -11.265922,
        "longitude": -37.448381,
        "empresa": "HUGHES",
        "cnpj": 5206385000161,
        "pf-ou-pj": "Pessoa Jurídica",
        "info-tecnologia": [
            {
                "tecnologia": "VSAT",
                "tipo-de-Produto": "INTERNET",
                "meio-de-acesso": "Satélite",
                "quantidade-acesso": 5
            }
        ]
    },
    {
        "cidade": "Gararu",
        "uf": "SE",
        "latitude": -9.972202,
        "longitude": -37.086921,
        "empresa": "HUGHES",
        "cnpj": 5206385000161,
        "pf-ou-pj": "Pessoa Jurídica",
        "info-tecnologia": [
            {
                "tecnologia": "VSAT",
                "tipo-de-Produto": "INTERNET",
                "meio-de-acesso": "Satélite",
                "quantidade-acesso": 3
            }
        ]
    },
    {
        "cidade": "Indiaroba",
        "uf": "SE",
        "latitude": -11.515746,
        "longitude": -37.514979,
        "empresa": "HUGHES",
        "cnpj": 5206385000161,
        "pf-ou-pj": "Pessoa Jurídica",
        "info-tecnologia": [
            {
                "tecnologia": "VSAT",
                "tipo-de-Produto": "INTERNET",
                "meio-de-acesso": "Satélite",
                "quantidade-acesso": 17
            }
        ]
    },
    {
        "cidade": "Itabaiana",
        "uf": "SE",
        "latitude": -10.682555,
        "longitude": -37.427287,
        "empresa": "HUGHES",
        "cnpj": 5206385000161,
        "pf-ou-pj": "Pessoa Jurídica",
        "info-tecnologia": [
            {
                "tecnologia": "VSAT",
                "tipo-de-Produto": "INTERNET",
                "meio-de-acesso": "Satélite",
                "quantidade-acesso": 2
            }
        ]
    },
    {
        "cidade": "Itabaianinha",
        "uf": "SE",
        "latitude": -11.269268,
        "longitude": -37.787505,
        "empresa": "HUGHES",
        "cnpj": 5206385000161,
        "pf-ou-pj": "Pessoa Jurídica",
        "info-tecnologia": [
            {
                "tecnologia": "VSAT",
                "tipo-de-Produto": "INTERNET",
                "meio-de-acesso": "Satélite",
                "quantidade-acesso": 3
            }
        ]
    },
    {
        "cidade": "Itabi",
        "uf": "SE",
        "latitude": -10.124808,
        "longitude": -37.105558,
        "empresa": "HUGHES",
        "cnpj": 5206385000161,
        "pf-ou-pj": "Pessoa Jurídica",
        "info-tecnologia": [
            {
                "tecnologia": "VSAT",
                "tipo-de-Produto": "INTERNET",
                "meio-de-acesso": "Satélite",
                "quantidade-acesso": 1
            }
        ]
    },
    {
        "cidade": "Itaporanga d'Ajuda",
        "uf": "SE",
        "latitude": null,
        "longitude": null,
        "empresa": "HUGHES",
        "cnpj": 5206385000161,
        "pf-ou-pj": "Pessoa Jurídica",
        "info-tecnologia": [
            {
                "tecnologia": "VSAT",
                "tipo-de-Produto": "INTERNET",
                "meio-de-acesso": "Satélite",
                "quantidade-acesso": 12
            }
        ]
    },
    {
        "cidade": "Japaratuba",
        "uf": "SE",
        "latitude": -10.584913,
        "longitude": -36.941765,
        "empresa": "HUGHES",
        "cnpj": 5206385000161,
        "pf-ou-pj": "Pessoa Jurídica",
        "info-tecnologia": [
            {
                "tecnologia": "VSAT",
                "tipo-de-Produto": "INTERNET",
                "meio-de-acesso": "Satélite",
                "quantidade-acesso": 13
            }
        ]
    },
    {
        "cidade": "Japoatã",
        "uf": "SE",
        "latitude": -10.347719,
        "longitude": -36.804504,
        "empresa": "HUGHES",
        "cnpj": 5206385000161,
        "pf-ou-pj": "Pessoa Jurídica",
        "info-tecnologia": [
            {
                "tecnologia": "VSAT",
                "tipo-de-Produto": "INTERNET",
                "meio-de-acesso": "Satélite",
                "quantidade-acesso": 4
            }
        ]
    },
    {
        "cidade": "Lagarto",
        "uf": "SE",
        "latitude": -10.913628,
        "longitude": -37.668948,
        "empresa": "HUGHES",
        "cnpj": 5206385000161,
        "pf-ou-pj": "Pessoa Jurídica",
        "info-tecnologia": [
            {
                "tecnologia": "VSAT",
                "tipo-de-Produto": "INTERNET",
                "meio-de-acesso": "Satélite",
                "quantidade-acesso": 3
            }
        ]
    },
    {
        "cidade": "Laranjeiras",
        "uf": "SE",
        "latitude": -10.798121,
        "longitude": -37.173123,
        "empresa": "HUGHES",
        "cnpj": 5206385000161,
        "pf-ou-pj": "Pessoa Jurídica",
        "info-tecnologia": [
            {
                "tecnologia": "VSAT",
                "tipo-de-Produto": "INTERNET",
                "meio-de-acesso": "Satélite",
                "quantidade-acesso": 2
            }
        ]
    },
    {
        "cidade": "Macambira",
        "uf": "SE",
        "latitude": -10.661871,
        "longitude": -37.541303,
        "empresa": "HUGHES",
        "cnpj": 5206385000161,
        "pf-ou-pj": "Pessoa Jurídica",
        "info-tecnologia": [
            {
                "tecnologia": "VSAT",
                "tipo-de-Produto": "INTERNET",
                "meio-de-acesso": "Satélite",
                "quantidade-acesso": 1
            }
        ]
    },
    {
        "cidade": "Monte Alegre de Sergipe",
        "uf": "SE",
        "latitude": -10.025574,
        "longitude": -37.561605,
        "empresa": "HUGHES",
        "cnpj": 5206385000161,
        "pf-ou-pj": "Pessoa Jurídica",
        "info-tecnologia": [
            {
                "tecnologia": "VSAT",
                "tipo-de-Produto": "INTERNET",
                "meio-de-acesso": "Satélite",
                "quantidade-acesso": 1
            }
        ]
    },
    {
        "cidade": "Muribeca",
        "uf": "SE",
        "latitude": -10.427146,
        "longitude": -36.95882,
        "empresa": "HUGHES",
        "cnpj": 5206385000161,
        "pf-ou-pj": "Pessoa Jurídica",
        "info-tecnologia": [
            {
                "tecnologia": "VSAT",
                "tipo-de-Produto": "INTERNET",
                "meio-de-acesso": "Satélite",
                "quantidade-acesso": 1
            }
        ]
    },
    {
        "cidade": "Nossa Senhora Aparecida",
        "uf": "SE",
        "latitude": -10.394387,
        "longitude": -37.451699,
        "empresa": "HUGHES",
        "cnpj": 5206385000161,
        "pf-ou-pj": "Pessoa Jurídica",
        "info-tecnologia": [
            {
                "tecnologia": "VSAT",
                "tipo-de-Produto": "INTERNET",
                "meio-de-acesso": "Satélite",
                "quantidade-acesso": 1
            }
        ]
    },
    {
        "cidade": "Nossa Senhora das Dores",
        "uf": "SE",
        "latitude": -10.48536,
        "longitude": -37.196285,
        "empresa": "HUGHES",
        "cnpj": 5206385000161,
        "pf-ou-pj": "Pessoa Jurídica",
        "info-tecnologia": [
            {
                "tecnologia": "VSAT",
                "tipo-de-Produto": "INTERNET",
                "meio-de-acesso": "Satélite",
                "quantidade-acesso": 1
            }
        ]
    },
    {
        "cidade": "Nossa Senhora do Socorro",
        "uf": "SE",
        "latitude": -10.846822,
        "longitude": -37.123113,
        "empresa": "HUGHES",
        "cnpj": 5206385000161,
        "pf-ou-pj": "Pessoa Jurídica",
        "info-tecnologia": [
            {
                "tecnologia": "VSAT",
                "tipo-de-Produto": "INTERNET",
                "meio-de-acesso": "Satélite",
                "quantidade-acesso": 7
            }
        ]
    },
    {
        "cidade": "Pacatuba",
        "uf": "SE",
        "latitude": -10.453811,
        "longitude": -36.653078,
        "empresa": "HUGHES",
        "cnpj": 5206385000161,
        "pf-ou-pj": "Pessoa Jurídica",
        "info-tecnologia": [
            {
                "tecnologia": "VSAT",
                "tipo-de-Produto": "INTERNET",
                "meio-de-acesso": "Satélite",
                "quantidade-acesso": 33
            }
        ]
    },
    {
        "cidade": "Pirambu",
        "uf": "SE",
        "latitude": -10.721516,
        "longitude": -36.854427,
        "empresa": "HUGHES",
        "cnpj": 5206385000161,
        "pf-ou-pj": "Pessoa Jurídica",
        "info-tecnologia": [
            {
                "tecnologia": "VSAT",
                "tipo-de-Produto": "INTERNET",
                "meio-de-acesso": "Satélite",
                "quantidade-acesso": 2
            }
        ]
    },
    {
        "cidade": "Porto da Folha",
        "uf": "SE",
        "latitude": -9.916264,
        "longitude": -37.284233,
        "empresa": "HUGHES",
        "cnpj": 5206385000161,
        "pf-ou-pj": "Pessoa Jurídica",
        "info-tecnologia": [
            {
                "tecnologia": "VSAT",
                "tipo-de-Produto": "INTERNET",
                "meio-de-acesso": "Satélite",
                "quantidade-acesso": 1
            }
        ]
    },
    {
        "cidade": "Poço Redondo",
        "uf": "SE",
        "latitude": -9.806155,
        "longitude": -37.683263,
        "empresa": "HUGHES",
        "cnpj": 5206385000161,
        "pf-ou-pj": "Pessoa Jurídica",
        "info-tecnologia": [
            {
                "tecnologia": "VSAT",
                "tipo-de-Produto": "INTERNET",
                "meio-de-acesso": "Satélite",
                "quantidade-acesso": 6
            }
        ]
    },
    {
        "cidade": "Poço Verde",
        "uf": "SE",
        "latitude": -10.715129,
        "longitude": -38.181294,
        "empresa": "HUGHES",
        "cnpj": 5206385000161,
        "pf-ou-pj": "Pessoa Jurídica",
        "info-tecnologia": [
            {
                "tecnologia": "VSAT",
                "tipo-de-Produto": "INTERNET",
                "meio-de-acesso": "Satélite",
                "quantidade-acesso": 3
            }
        ]
    },
    {
        "cidade": "Riachuelo",
        "uf": "SE",
        "latitude": -10.735008,
        "longitude": -37.196551,
        "empresa": "HUGHES",
        "cnpj": 5206385000161,
        "pf-ou-pj": "Pessoa Jurídica",
        "info-tecnologia": [
            {
                "tecnologia": "VSAT",
                "tipo-de-Produto": "INTERNET",
                "meio-de-acesso": "Satélite",
                "quantidade-acesso": 1
            }
        ]
    },
    {
        "cidade": "Riachão do Dantas",
        "uf": "SE",
        "latitude": -11.072904,
        "longitude": -37.730985,
        "empresa": "HUGHES",
        "cnpj": 5206385000161,
        "pf-ou-pj": "Pessoa Jurídica",
        "info-tecnologia": [
            {
                "tecnologia": "VSAT",
                "tipo-de-Produto": "INTERNET",
                "meio-de-acesso": "Satélite",
                "quantidade-acesso": 7
            }
        ]
    },
    {
        "cidade": "Rosário do Catete",
        "uf": "SE",
        "latitude": -10.690432,
        "longitude": -37.03569,
        "empresa": "HUGHES",
        "cnpj": 5206385000161,
        "pf-ou-pj": "Pessoa Jurídica",
        "info-tecnologia": [
            {
                "tecnologia": "VSAT",
                "tipo-de-Produto": "INTERNET",
                "meio-de-acesso": "Satélite",
                "quantidade-acesso": 3
            }
        ]
    },
    {
        "cidade": "Salgado",
        "uf": "SE",
        "latitude": -11.028833,
        "longitude": -37.480385,
        "empresa": "HUGHES",
        "cnpj": 5206385000161,
        "pf-ou-pj": "Pessoa Jurídica",
        "info-tecnologia": [
            {
                "tecnologia": "VSAT",
                "tipo-de-Produto": "INTERNET",
                "meio-de-acesso": "Satélite",
                "quantidade-acesso": 20
            }
        ]
    },
    {
        "cidade": "Santa Luzia do Itanhy",
        "uf": "SE",
        "latitude": -11.353596,
        "longitude": -37.458642,
        "empresa": "HUGHES",
        "cnpj": 5206385000161,
        "pf-ou-pj": "Pessoa Jurídica",
        "info-tecnologia": [
            {
                "tecnologia": "VSAT",
                "tipo-de-Produto": "INTERNET",
                "meio-de-acesso": "Satélite",
                "quantidade-acesso": 12
            }
        ]
    },
    {
        "cidade": "Santa Rosa de Lima",
        "uf": "SE",
        "latitude": -10.643362,
        "longitude": -37.193123,
        "empresa": "HUGHES",
        "cnpj": 5206385000161,
        "pf-ou-pj": "Pessoa Jurídica",
        "info-tecnologia": [
            {
                "tecnologia": "VSAT",
                "tipo-de-Produto": "INTERNET",
                "meio-de-acesso": "Satélite",
                "quantidade-acesso": 1
            }
        ]
    },
    {
        "cidade": "Santana do São Francisco",
        "uf": "SE",
        "latitude": -10.292233,
        "longitude": -36.610539,
        "empresa": "HUGHES",
        "cnpj": 5206385000161,
        "pf-ou-pj": "Pessoa Jurídica",
        "info-tecnologia": [
            {
                "tecnologia": "VSAT",
                "tipo-de-Produto": "INTERNET",
                "meio-de-acesso": "Satélite",
                "quantidade-acesso": 2
            }
        ]
    },
    {
        "cidade": "Santo Amaro das Brotas",
        "uf": "SE",
        "latitude": -10.789225,
        "longitude": -37.05643,
        "empresa": "HUGHES",
        "cnpj": 5206385000161,
        "pf-ou-pj": "Pessoa Jurídica",
        "info-tecnologia": [
            {
                "tecnologia": "VSAT",
                "tipo-de-Produto": "INTERNET",
                "meio-de-acesso": "Satélite",
                "quantidade-acesso": 5
            }
        ]
    },
    {
        "cidade": "Simão Dias",
        "uf": "SE",
        "latitude": -10.738652,
        "longitude": -37.809746,
        "empresa": "HUGHES",
        "cnpj": 5206385000161,
        "pf-ou-pj": "Pessoa Jurídica",
        "info-tecnologia": [
            {
                "tecnologia": "VSAT",
                "tipo-de-Produto": "INTERNET",
                "meio-de-acesso": "Satélite",
                "quantidade-acesso": 1
            }
        ]
    },
    {
        "cidade": "São Cristóvão",
        "uf": "SE",
        "latitude": -11.008443,
        "longitude": -37.20436,
        "empresa": "HUGHES",
        "cnpj": 5206385000161,
        "pf-ou-pj": "Pessoa Jurídica",
        "info-tecnologia": [
            {
                "tecnologia": "VSAT",
                "tipo-de-Produto": "INTERNET",
                "meio-de-acesso": "Satélite",
                "quantidade-acesso": 9
            }
        ]
    },
    {
        "cidade": "São Miguel do Aleixo",
        "uf": "SE",
        "latitude": -10.384662,
        "longitude": -37.38356,
        "empresa": "HUGHES",
        "cnpj": 5206385000161,
        "pf-ou-pj": "Pessoa Jurídica",
        "info-tecnologia": [
            {
                "tecnologia": "VSAT",
                "tipo-de-Produto": "INTERNET",
                "meio-de-acesso": "Satélite",
                "quantidade-acesso": 1
            }
        ]
    },
    {
        "cidade": "Telha",
        "uf": "SE",
        "latitude": -10.206424,
        "longitude": -36.881778,
        "empresa": "HUGHES",
        "cnpj": 5206385000161,
        "pf-ou-pj": "Pessoa Jurídica",
        "info-tecnologia": [
            {
                "tecnologia": "VSAT",
                "tipo-de-Produto": "INTERNET",
                "meio-de-acesso": "Satélite",
                "quantidade-acesso": 1
            }
        ]
    },
    {
        "cidade": "Tobias Barreto",
        "uf": "SE",
        "latitude": -11.179799,
        "longitude": -37.999451,
        "empresa": "HUGHES",
        "cnpj": 5206385000161,
        "pf-ou-pj": "Pessoa Jurídica",
        "info-tecnologia": [
            {
                "tecnologia": "VSAT",
                "tipo-de-Produto": "INTERNET",
                "meio-de-acesso": "Satélite",
                "quantidade-acesso": 3
            }
        ]
    },
    {
        "cidade": "Tomar do Geru",
        "uf": "SE",
        "latitude": -11.369391,
        "longitude": -37.843338,
        "empresa": "HUGHES",
        "cnpj": 5206385000161,
        "pf-ou-pj": "Pessoa Jurídica",
        "info-tecnologia": [
            {
                "tecnologia": "VSAT",
                "tipo-de-Produto": "INTERNET",
                "meio-de-acesso": "Satélite",
                "quantidade-acesso": 2
            }
        ]
    },
    {
        "cidade": "Umbaúba",
        "uf": "SE",
        "latitude": -11.380921,
        "longitude": -37.662347,
        "empresa": "HUGHES",
        "cnpj": 5206385000161,
        "pf-ou-pj": "Pessoa Jurídica",
        "info-tecnologia": [
            {
                "tecnologia": "VSAT",
                "tipo-de-Produto": "INTERNET",
                "meio-de-acesso": "Satélite",
                "quantidade-acesso": 5
            }
        ]
    }
]