[
    {
        "cidade": "Abadia dos Dourados",
        "uf": "MG",
        "latitude": -18.483101,
        "longitude": -47.391623,
        "empresa": "HUGHES",
        "cnpj": 5206385000161,
        "pf-ou-pj": "Pessoa Física",
        "info-tecnologia": [
            {
                "tecnologia": "VSAT",
                "tipo-de-Produto": "INTERNET",
                "meio-de-acesso": "Satélite",
                "quantidade-acesso": 3
            }
        ]
    },
    {
        "cidade": "Abaeté",
        "uf": "MG",
        "latitude": -19.155125,
        "longitude": -45.444413,
        "empresa": "HUGHES",
        "cnpj": 5206385000161,
        "pf-ou-pj": "Pessoa Física",
        "info-tecnologia": [
            {
                "tecnologia": "VSAT",
                "tipo-de-Produto": "INTERNET",
                "meio-de-acesso": "Satélite",
                "quantidade-acesso": 47
            }
        ]
    },
    {
        "cidade": "Abre Campo",
        "uf": "MG",
        "latitude": -20.299647,
        "longitude": -42.474304,
        "empresa": "HUGHES",
        "cnpj": 5206385000161,
        "pf-ou-pj": "Pessoa Física",
        "info-tecnologia": [
            {
                "tecnologia": "VSAT",
                "tipo-de-Produto": "INTERNET",
                "meio-de-acesso": "Satélite",
                "quantidade-acesso": 13
            }
        ]
    },
    {
        "cidade": "Acaiaca",
        "uf": "MG",
        "latitude": -20.359034,
        "longitude": -43.143867,
        "empresa": "HUGHES",
        "cnpj": 5206385000161,
        "pf-ou-pj": "Pessoa Física",
        "info-tecnologia": [
            {
                "tecnologia": "VSAT",
                "tipo-de-Produto": "INTERNET",
                "meio-de-acesso": "Satélite",
                "quantidade-acesso": 11
            }
        ]
    },
    {
        "cidade": "Aguanil",
        "uf": "MG",
        "latitude": -20.943942,
        "longitude": -45.391456,
        "empresa": "HUGHES",
        "cnpj": 5206385000161,
        "pf-ou-pj": "Pessoa Física",
        "info-tecnologia": [
            {
                "tecnologia": "VSAT",
                "tipo-de-Produto": "INTERNET",
                "meio-de-acesso": "Satélite",
                "quantidade-acesso": 8
            }
        ]
    },
    {
        "cidade": "Aimorés",
        "uf": "MG",
        "latitude": -19.500684,
        "longitude": -41.074651,
        "empresa": "HUGHES",
        "cnpj": 5206385000161,
        "pf-ou-pj": "Pessoa Física",
        "info-tecnologia": [
            {
                "tecnologia": "VSAT",
                "tipo-de-Produto": "INTERNET",
                "meio-de-acesso": "Satélite",
                "quantidade-acesso": 101
            }
        ]
    },
    {
        "cidade": "Aiuruoca",
        "uf": "MG",
        "latitude": -21.973608,
        "longitude": -44.604212,
        "empresa": "HUGHES",
        "cnpj": 5206385000161,
        "pf-ou-pj": "Pessoa Física",
        "info-tecnologia": [
            {
                "tecnologia": "VSAT",
                "tipo-de-Produto": "INTERNET",
                "meio-de-acesso": "Satélite",
                "quantidade-acesso": 12
            }
        ]
    },
    {
        "cidade": "Alagoa",
        "uf": "MG",
        "latitude": -22.170976,
        "longitude": -44.641344,
        "empresa": "HUGHES",
        "cnpj": 5206385000161,
        "pf-ou-pj": "Pessoa Física",
        "info-tecnologia": [
            {
                "tecnologia": "VSAT",
                "tipo-de-Produto": "INTERNET",
                "meio-de-acesso": "Satélite",
                "quantidade-acesso": 7
            }
        ]
    },
    {
        "cidade": "Alfenas",
        "uf": "MG",
        "latitude": -21.425629,
        "longitude": -45.947727,
        "empresa": "HUGHES",
        "cnpj": 5206385000161,
        "pf-ou-pj": "Pessoa Física",
        "info-tecnologia": [
            {
                "tecnologia": "VSAT",
                "tipo-de-Produto": "INTERNET",
                "meio-de-acesso": "Satélite",
                "quantidade-acesso": 33
            }
        ]
    },
    {
        "cidade": "Alfredo Vasconcelos",
        "uf": "MG",
        "latitude": -21.153521,
        "longitude": -43.771767,
        "empresa": "HUGHES",
        "cnpj": 5206385000161,
        "pf-ou-pj": "Pessoa Física",
        "info-tecnologia": [
            {
                "tecnologia": "VSAT",
                "tipo-de-Produto": "INTERNET",
                "meio-de-acesso": "Satélite",
                "quantidade-acesso": 10
            }
        ]
    },
    {
        "cidade": "Almenara",
        "uf": "MG",
        "latitude": -16.178459,
        "longitude": -40.694163,
        "empresa": "HUGHES",
        "cnpj": 5206385000161,
        "pf-ou-pj": "Pessoa Física",
        "info-tecnologia": [
            {
                "tecnologia": "VSAT",
                "tipo-de-Produto": "INTERNET",
                "meio-de-acesso": "Satélite",
                "quantidade-acesso": 37
            }
        ]
    },
    {
        "cidade": "Alpercata",
        "uf": "MG",
        "latitude": -18.973994,
        "longitude": -41.969998,
        "empresa": "HUGHES",
        "cnpj": 5206385000161,
        "pf-ou-pj": "Pessoa Física",
        "info-tecnologia": [
            {
                "tecnologia": "VSAT",
                "tipo-de-Produto": "INTERNET",
                "meio-de-acesso": "Satélite",
                "quantidade-acesso": 18
            }
        ]
    },
    {
        "cidade": "Alterosa",
        "uf": "MG",
        "latitude": -21.248752,
        "longitude": -46.138666,
        "empresa": "HUGHES",
        "cnpj": 5206385000161,
        "pf-ou-pj": "Pessoa Física",
        "info-tecnologia": [
            {
                "tecnologia": "VSAT",
                "tipo-de-Produto": "INTERNET",
                "meio-de-acesso": "Satélite",
                "quantidade-acesso": 5
            }
        ]
    },
    {
        "cidade": "Alto Jequitibá",
        "uf": "MG",
        "latitude": -20.420845,
        "longitude": -41.966988,
        "empresa": "HUGHES",
        "cnpj": 5206385000161,
        "pf-ou-pj": "Pessoa Física",
        "info-tecnologia": [
            {
                "tecnologia": "VSAT",
                "tipo-de-Produto": "INTERNET",
                "meio-de-acesso": "Satélite",
                "quantidade-acesso": 2
            }
        ]
    },
    {
        "cidade": "Alto Rio Doce",
        "uf": "MG",
        "latitude": -21.028122,
        "longitude": -43.406683,
        "empresa": "HUGHES",
        "cnpj": 5206385000161,
        "pf-ou-pj": "Pessoa Física",
        "info-tecnologia": [
            {
                "tecnologia": "VSAT",
                "tipo-de-Produto": "INTERNET",
                "meio-de-acesso": "Satélite",
                "quantidade-acesso": 18
            }
        ]
    },
    {
        "cidade": "Alvarenga",
        "uf": "MG",
        "latitude": -19.417403,
        "longitude": -41.73174,
        "empresa": "HUGHES",
        "cnpj": 5206385000161,
        "pf-ou-pj": "Pessoa Física",
        "info-tecnologia": [
            {
                "tecnologia": "VSAT",
                "tipo-de-Produto": "INTERNET",
                "meio-de-acesso": "Satélite",
                "quantidade-acesso": 6
            }
        ]
    },
    {
        "cidade": "Alvinópolis",
        "uf": "MG",
        "latitude": -20.109771,
        "longitude": -43.053487,
        "empresa": "HUGHES",
        "cnpj": 5206385000161,
        "pf-ou-pj": "Pessoa Física",
        "info-tecnologia": [
            {
                "tecnologia": "VSAT",
                "tipo-de-Produto": "INTERNET",
                "meio-de-acesso": "Satélite",
                "quantidade-acesso": 45
            }
        ]
    },
    {
        "cidade": "Alvorada de Minas",
        "uf": "MG",
        "latitude": -18.733362,
        "longitude": -43.363807,
        "empresa": "HUGHES",
        "cnpj": 5206385000161,
        "pf-ou-pj": "Pessoa Física",
        "info-tecnologia": [
            {
                "tecnologia": "VSAT",
                "tipo-de-Produto": "INTERNET",
                "meio-de-acesso": "Satélite",
                "quantidade-acesso": 42
            }
        ]
    },
    {
        "cidade": "Além Paraíba",
        "uf": "MG",
        "latitude": -21.879703,
        "longitude": -42.717588,
        "empresa": "HUGHES",
        "cnpj": 5206385000161,
        "pf-ou-pj": "Pessoa Física",
        "info-tecnologia": [
            {
                "tecnologia": "VSAT",
                "tipo-de-Produto": "INTERNET",
                "meio-de-acesso": "Satélite",
                "quantidade-acesso": 67
            }
        ]
    },
    {
        "cidade": "Amparo do Serra",
        "uf": "MG",
        "latitude": null,
        "longitude": null,
        "empresa": "HUGHES",
        "cnpj": 5206385000161,
        "pf-ou-pj": "Pessoa Física",
        "info-tecnologia": [
            {
                "tecnologia": "VSAT",
                "tipo-de-Produto": "INTERNET",
                "meio-de-acesso": "Satélite",
                "quantidade-acesso": 38
            }
        ]
    },
    {
        "cidade": "Andradas",
        "uf": "MG",
        "latitude": -22.069487,
        "longitude": -46.572372,
        "empresa": "HUGHES",
        "cnpj": 5206385000161,
        "pf-ou-pj": "Pessoa Física",
        "info-tecnologia": [
            {
                "tecnologia": "VSAT",
                "tipo-de-Produto": "INTERNET",
                "meio-de-acesso": "Satélite",
                "quantidade-acesso": 39
            }
        ]
    },
    {
        "cidade": "Andrelândia",
        "uf": "MG",
        "latitude": -21.741088,
        "longitude": -44.31169,
        "empresa": "HUGHES",
        "cnpj": 5206385000161,
        "pf-ou-pj": "Pessoa Física",
        "info-tecnologia": [
            {
                "tecnologia": "VSAT",
                "tipo-de-Produto": "INTERNET",
                "meio-de-acesso": "Satélite",
                "quantidade-acesso": 29
            }
        ]
    },
    {
        "cidade": "Angelândia",
        "uf": "MG",
        "latitude": -17.727938,
        "longitude": -42.264123,
        "empresa": "HUGHES",
        "cnpj": 5206385000161,
        "pf-ou-pj": "Pessoa Física",
        "info-tecnologia": [
            {
                "tecnologia": "VSAT",
                "tipo-de-Produto": "INTERNET",
                "meio-de-acesso": "Satélite",
                "quantidade-acesso": 6
            }
        ]
    },
    {
        "cidade": "Antônio Carlos",
        "uf": "MG",
        "latitude": -21.321031,
        "longitude": -43.74513,
        "empresa": "HUGHES",
        "cnpj": 5206385000161,
        "pf-ou-pj": "Pessoa Física",
        "info-tecnologia": [
            {
                "tecnologia": "VSAT",
                "tipo-de-Produto": "INTERNET",
                "meio-de-acesso": "Satélite",
                "quantidade-acesso": 35
            }
        ]
    },
    {
        "cidade": "Antônio Dias",
        "uf": "MG",
        "latitude": -19.649096,
        "longitude": -42.873243,
        "empresa": "HUGHES",
        "cnpj": 5206385000161,
        "pf-ou-pj": "Pessoa Física",
        "info-tecnologia": [
            {
                "tecnologia": "VSAT",
                "tipo-de-Produto": "INTERNET",
                "meio-de-acesso": "Satélite",
                "quantidade-acesso": 55
            }
        ]
    },
    {
        "cidade": "Antônio Prado de Minas",
        "uf": "MG",
        "latitude": -21.019183,
        "longitude": -42.110937,
        "empresa": "HUGHES",
        "cnpj": 5206385000161,
        "pf-ou-pj": "Pessoa Física",
        "info-tecnologia": [
            {
                "tecnologia": "VSAT",
                "tipo-de-Produto": "INTERNET",
                "meio-de-acesso": "Satélite",
                "quantidade-acesso": 2
            }
        ]
    },
    {
        "cidade": "Aracitaba",
        "uf": "MG",
        "latitude": -21.344619,
        "longitude": -43.37362,
        "empresa": "HUGHES",
        "cnpj": 5206385000161,
        "pf-ou-pj": "Pessoa Física",
        "info-tecnologia": [
            {
                "tecnologia": "VSAT",
                "tipo-de-Produto": "INTERNET",
                "meio-de-acesso": "Satélite",
                "quantidade-acesso": 3
            }
        ]
    },
    {
        "cidade": "Araguari",
        "uf": "MG",
        "latitude": -18.645575,
        "longitude": -48.193392,
        "empresa": "HUGHES",
        "cnpj": 5206385000161,
        "pf-ou-pj": "Pessoa Física",
        "info-tecnologia": [
            {
                "tecnologia": "VSAT",
                "tipo-de-Produto": "INTERNET",
                "meio-de-acesso": "Satélite",
                "quantidade-acesso": 85
            }
        ]
    },
    {
        "cidade": "Arantina",
        "uf": "MG",
        "latitude": -21.910171,
        "longitude": -44.255519,
        "empresa": "HUGHES",
        "cnpj": 5206385000161,
        "pf-ou-pj": "Pessoa Física",
        "info-tecnologia": [
            {
                "tecnologia": "VSAT",
                "tipo-de-Produto": "INTERNET",
                "meio-de-acesso": "Satélite",
                "quantidade-acesso": 4
            }
        ]
    },
    {
        "cidade": "Araponga",
        "uf": "MG",
        "latitude": -20.668608,
        "longitude": -42.51785,
        "empresa": "HUGHES",
        "cnpj": 5206385000161,
        "pf-ou-pj": "Pessoa Física",
        "info-tecnologia": [
            {
                "tecnologia": "VSAT",
                "tipo-de-Produto": "INTERNET",
                "meio-de-acesso": "Satélite",
                "quantidade-acesso": 3
            }
        ]
    },
    {
        "cidade": "Araporã",
        "uf": "MG",
        "latitude": -18.435727,
        "longitude": -49.184746,
        "empresa": "HUGHES",
        "cnpj": 5206385000161,
        "pf-ou-pj": "Pessoa Física",
        "info-tecnologia": [
            {
                "tecnologia": "VSAT",
                "tipo-de-Produto": "INTERNET",
                "meio-de-acesso": "Satélite",
                "quantidade-acesso": 1
            }
        ]
    },
    {
        "cidade": "Arapuá",
        "uf": "MG",
        "latitude": -19.026816,
        "longitude": -46.148403,
        "empresa": "HUGHES",
        "cnpj": 5206385000161,
        "pf-ou-pj": "Pessoa Física",
        "info-tecnologia": [
            {
                "tecnologia": "VSAT",
                "tipo-de-Produto": "INTERNET",
                "meio-de-acesso": "Satélite",
                "quantidade-acesso": 1
            }
        ]
    },
    {
        "cidade": "Araxá",
        "uf": "MG",
        "latitude": -19.590176,
        "longitude": -46.943804,
        "empresa": "HUGHES",
        "cnpj": 5206385000161,
        "pf-ou-pj": "Pessoa Física",
        "info-tecnologia": [
            {
                "tecnologia": "VSAT",
                "tipo-de-Produto": "INTERNET",
                "meio-de-acesso": "Satélite",
                "quantidade-acesso": 173
            }
        ]
    },
    {
        "cidade": "Araçaí",
        "uf": "MG",
        "latitude": -19.195507,
        "longitude": -44.249309,
        "empresa": "HUGHES",
        "cnpj": 5206385000161,
        "pf-ou-pj": "Pessoa Física",
        "info-tecnologia": [
            {
                "tecnologia": "VSAT",
                "tipo-de-Produto": "INTERNET",
                "meio-de-acesso": "Satélite",
                "quantidade-acesso": 2
            }
        ]
    },
    {
        "cidade": "Araçuaí",
        "uf": "MG",
        "latitude": -16.85232,
        "longitude": -42.0637,
        "empresa": "HUGHES",
        "cnpj": 5206385000161,
        "pf-ou-pj": "Pessoa Física",
        "info-tecnologia": [
            {
                "tecnologia": "VSAT",
                "tipo-de-Produto": "INTERNET",
                "meio-de-acesso": "Satélite",
                "quantidade-acesso": 42
            }
        ]
    },
    {
        "cidade": "Araújos",
        "uf": "MG",
        "latitude": -19.940519,
        "longitude": -45.167115,
        "empresa": "HUGHES",
        "cnpj": 5206385000161,
        "pf-ou-pj": "Pessoa Física",
        "info-tecnologia": [
            {
                "tecnologia": "VSAT",
                "tipo-de-Produto": "INTERNET",
                "meio-de-acesso": "Satélite",
                "quantidade-acesso": 16
            }
        ]
    },
    {
        "cidade": "Arceburgo",
        "uf": "MG",
        "latitude": -21.358984,
        "longitude": -46.940056,
        "empresa": "HUGHES",
        "cnpj": 5206385000161,
        "pf-ou-pj": "Pessoa Física",
        "info-tecnologia": [
            {
                "tecnologia": "VSAT",
                "tipo-de-Produto": "INTERNET",
                "meio-de-acesso": "Satélite",
                "quantidade-acesso": 4
            }
        ]
    },
    {
        "cidade": "Arcos",
        "uf": "MG",
        "latitude": -20.286333,
        "longitude": -45.537345,
        "empresa": "HUGHES",
        "cnpj": 5206385000161,
        "pf-ou-pj": "Pessoa Física",
        "info-tecnologia": [
            {
                "tecnologia": "VSAT",
                "tipo-de-Produto": "INTERNET",
                "meio-de-acesso": "Satélite",
                "quantidade-acesso": 43
            }
        ]
    },
    {
        "cidade": "Areado",
        "uf": "MG",
        "latitude": -21.357186,
        "longitude": -46.142071,
        "empresa": "HUGHES",
        "cnpj": 5206385000161,
        "pf-ou-pj": "Pessoa Física",
        "info-tecnologia": [
            {
                "tecnologia": "VSAT",
                "tipo-de-Produto": "INTERNET",
                "meio-de-acesso": "Satélite",
                "quantidade-acesso": 3
            }
        ]
    },
    {
        "cidade": "Argirita",
        "uf": "MG",
        "latitude": -21.60827,
        "longitude": -42.829162,
        "empresa": "HUGHES",
        "cnpj": 5206385000161,
        "pf-ou-pj": "Pessoa Física",
        "info-tecnologia": [
            {
                "tecnologia": "VSAT",
                "tipo-de-Produto": "INTERNET",
                "meio-de-acesso": "Satélite",
                "quantidade-acesso": 8
            }
        ]
    },
    {
        "cidade": "Aricanduva",
        "uf": "MG",
        "latitude": -17.866642,
        "longitude": -42.553263,
        "empresa": "HUGHES",
        "cnpj": 5206385000161,
        "pf-ou-pj": "Pessoa Física",
        "info-tecnologia": [
            {
                "tecnologia": "VSAT",
                "tipo-de-Produto": "INTERNET",
                "meio-de-acesso": "Satélite",
                "quantidade-acesso": 6
            }
        ]
    },
    {
        "cidade": "Arinos",
        "uf": "MG",
        "latitude": -15.918743,
        "longitude": -46.104324,
        "empresa": "HUGHES",
        "cnpj": 5206385000161,
        "pf-ou-pj": "Pessoa Física",
        "info-tecnologia": [
            {
                "tecnologia": "VSAT",
                "tipo-de-Produto": "INTERNET",
                "meio-de-acesso": "Satélite",
                "quantidade-acesso": 371
            }
        ]
    },
    {
        "cidade": "Astolfo Dutra",
        "uf": "MG",
        "latitude": -21.318439,
        "longitude": -42.857204,
        "empresa": "HUGHES",
        "cnpj": 5206385000161,
        "pf-ou-pj": "Pessoa Física",
        "info-tecnologia": [
            {
                "tecnologia": "VSAT",
                "tipo-de-Produto": "INTERNET",
                "meio-de-acesso": "Satélite",
                "quantidade-acesso": 5
            }
        ]
    },
    {
        "cidade": "Ataléia",
        "uf": "MG",
        "latitude": -18.043805,
        "longitude": -41.114901,
        "empresa": "HUGHES",
        "cnpj": 5206385000161,
        "pf-ou-pj": "Pessoa Física",
        "info-tecnologia": [
            {
                "tecnologia": "VSAT",
                "tipo-de-Produto": "INTERNET",
                "meio-de-acesso": "Satélite",
                "quantidade-acesso": 77
            }
        ]
    },
    {
        "cidade": "Augusto de Lima",
        "uf": "MG",
        "latitude": -18.099714,
        "longitude": -44.265523,
        "empresa": "HUGHES",
        "cnpj": 5206385000161,
        "pf-ou-pj": "Pessoa Física",
        "info-tecnologia": [
            {
                "tecnologia": "VSAT",
                "tipo-de-Produto": "INTERNET",
                "meio-de-acesso": "Satélite",
                "quantidade-acesso": 13
            }
        ]
    },
    {
        "cidade": "Açucena",
        "uf": "MG",
        "latitude": -19.067105,
        "longitude": -42.541881,
        "empresa": "HUGHES",
        "cnpj": 5206385000161,
        "pf-ou-pj": "Pessoa Física",
        "info-tecnologia": [
            {
                "tecnologia": "VSAT",
                "tipo-de-Produto": "INTERNET",
                "meio-de-acesso": "Satélite",
                "quantidade-acesso": 20
            }
        ]
    },
    {
        "cidade": "Baependi",
        "uf": "MG",
        "latitude": -21.956994,
        "longitude": -44.887426,
        "empresa": "HUGHES",
        "cnpj": 5206385000161,
        "pf-ou-pj": "Pessoa Física",
        "info-tecnologia": [
            {
                "tecnologia": "VSAT",
                "tipo-de-Produto": "INTERNET",
                "meio-de-acesso": "Satélite",
                "quantidade-acesso": 45
            }
        ]
    },
    {
        "cidade": "Baldim",
        "uf": "MG",
        "latitude": -19.283197,
        "longitude": -43.961331,
        "empresa": "HUGHES",
        "cnpj": 5206385000161,
        "pf-ou-pj": "Pessoa Física",
        "info-tecnologia": [
            {
                "tecnologia": "VSAT",
                "tipo-de-Produto": "INTERNET",
                "meio-de-acesso": "Satélite",
                "quantidade-acesso": 39
            }
        ]
    },
    {
        "cidade": "Bambuí",
        "uf": "MG",
        "latitude": -20.016618,
        "longitude": -45.97537,
        "empresa": "HUGHES",
        "cnpj": 5206385000161,
        "pf-ou-pj": "Pessoa Física",
        "info-tecnologia": [
            {
                "tecnologia": "VSAT",
                "tipo-de-Produto": "INTERNET",
                "meio-de-acesso": "Satélite",
                "quantidade-acesso": 71
            }
        ]
    },
    {
        "cidade": "Bandeira",
        "uf": "MG",
        "latitude": -15.878315,
        "longitude": -40.562163,
        "empresa": "HUGHES",
        "cnpj": 5206385000161,
        "pf-ou-pj": "Pessoa Física",
        "info-tecnologia": [
            {
                "tecnologia": "VSAT",
                "tipo-de-Produto": "INTERNET",
                "meio-de-acesso": "Satélite",
                "quantidade-acesso": 2
            }
        ]
    },
    {
        "cidade": "Bandeira do Sul",
        "uf": "MG",
        "latitude": -21.730798,
        "longitude": -46.383347,
        "empresa": "HUGHES",
        "cnpj": 5206385000161,
        "pf-ou-pj": "Pessoa Física",
        "info-tecnologia": [
            {
                "tecnologia": "VSAT",
                "tipo-de-Produto": "INTERNET",
                "meio-de-acesso": "Satélite",
                "quantidade-acesso": 6
            }
        ]
    },
    {
        "cidade": "Barbacena",
        "uf": "MG",
        "latitude": -21.221446,
        "longitude": -43.770266,
        "empresa": "HUGHES",
        "cnpj": 5206385000161,
        "pf-ou-pj": "Pessoa Física",
        "info-tecnologia": [
            {
                "tecnologia": "VSAT",
                "tipo-de-Produto": "INTERNET",
                "meio-de-acesso": "Satélite",
                "quantidade-acesso": 59
            }
        ]
    },
    {
        "cidade": "Barra Longa",
        "uf": "MG",
        "latitude": -20.286866,
        "longitude": -43.040168,
        "empresa": "HUGHES",
        "cnpj": 5206385000161,
        "pf-ou-pj": "Pessoa Física",
        "info-tecnologia": [
            {
                "tecnologia": "VSAT",
                "tipo-de-Produto": "INTERNET",
                "meio-de-acesso": "Satélite",
                "quantidade-acesso": 39
            }
        ]
    },
    {
        "cidade": "Barroso",
        "uf": "MG",
        "latitude": -21.190659,
        "longitude": -43.972039,
        "empresa": "HUGHES",
        "cnpj": 5206385000161,
        "pf-ou-pj": "Pessoa Física",
        "info-tecnologia": [
            {
                "tecnologia": "VSAT",
                "tipo-de-Produto": "INTERNET",
                "meio-de-acesso": "Satélite",
                "quantidade-acesso": 16
            }
        ]
    },
    {
        "cidade": "Barão de Cocais",
        "uf": "MG",
        "latitude": -19.938943,
        "longitude": -43.475524,
        "empresa": "HUGHES",
        "cnpj": 5206385000161,
        "pf-ou-pj": "Pessoa Física",
        "info-tecnologia": [
            {
                "tecnologia": "VSAT",
                "tipo-de-Produto": "INTERNET",
                "meio-de-acesso": "Satélite",
                "quantidade-acesso": 58
            }
        ]
    },
    {
        "cidade": "Barão de Monte Alto",
        "uf": "MG",
        "latitude": -21.244403,
        "longitude": -42.237185,
        "empresa": "HUGHES",
        "cnpj": 5206385000161,
        "pf-ou-pj": "Pessoa Física",
        "info-tecnologia": [
            {
                "tecnologia": "VSAT",
                "tipo-de-Produto": "INTERNET",
                "meio-de-acesso": "Satélite",
                "quantidade-acesso": 1
            }
        ]
    },
    {
        "cidade": "Bela Vista de Minas",
        "uf": "MG",
        "latitude": -19.83021,
        "longitude": -43.092164,
        "empresa": "HUGHES",
        "cnpj": 5206385000161,
        "pf-ou-pj": "Pessoa Física",
        "info-tecnologia": [
            {
                "tecnologia": "VSAT",
                "tipo-de-Produto": "INTERNET",
                "meio-de-acesso": "Satélite",
                "quantidade-acesso": 6
            }
        ]
    },
    {
        "cidade": "Belmiro Braga",
        "uf": "MG",
        "latitude": -21.943992,
        "longitude": -43.408419,
        "empresa": "HUGHES",
        "cnpj": 5206385000161,
        "pf-ou-pj": "Pessoa Física",
        "info-tecnologia": [
            {
                "tecnologia": "VSAT",
                "tipo-de-Produto": "INTERNET",
                "meio-de-acesso": "Satélite",
                "quantidade-acesso": 32
            }
        ]
    },
    {
        "cidade": "Belo Horizonte",
        "uf": "MG",
        "latitude": -19.910183,
        "longitude": -43.926572,
        "empresa": "HUGHES",
        "cnpj": 5206385000161,
        "pf-ou-pj": "Pessoa Física",
        "info-tecnologia": [
            {
                "tecnologia": "VSAT",
                "tipo-de-Produto": "INTERNET",
                "meio-de-acesso": "Satélite",
                "quantidade-acesso": 5
            }
        ]
    },
    {
        "cidade": "Belo Oriente",
        "uf": "MG",
        "latitude": -19.219906,
        "longitude": -42.482795,
        "empresa": "HUGHES",
        "cnpj": 5206385000161,
        "pf-ou-pj": "Pessoa Física",
        "info-tecnologia": [
            {
                "tecnologia": "VSAT",
                "tipo-de-Produto": "INTERNET",
                "meio-de-acesso": "Satélite",
                "quantidade-acesso": 6
            }
        ]
    },
    {
        "cidade": "Belo Vale",
        "uf": "MG",
        "latitude": -20.407725,
        "longitude": -44.027462,
        "empresa": "HUGHES",
        "cnpj": 5206385000161,
        "pf-ou-pj": "Pessoa Física",
        "info-tecnologia": [
            {
                "tecnologia": "VSAT",
                "tipo-de-Produto": "INTERNET",
                "meio-de-acesso": "Satélite",
                "quantidade-acesso": 36
            }
        ]
    },
    {
        "cidade": "Berilo",
        "uf": "MG",
        "latitude": -16.95669,
        "longitude": -42.46062,
        "empresa": "HUGHES",
        "cnpj": 5206385000161,
        "pf-ou-pj": "Pessoa Física",
        "info-tecnologia": [
            {
                "tecnologia": "VSAT",
                "tipo-de-Produto": "INTERNET",
                "meio-de-acesso": "Satélite",
                "quantidade-acesso": 2
            }
        ]
    },
    {
        "cidade": "Berizal",
        "uf": "MG",
        "latitude": -15.610028,
        "longitude": -41.743202,
        "empresa": "HUGHES",
        "cnpj": 5206385000161,
        "pf-ou-pj": "Pessoa Física",
        "info-tecnologia": [
            {
                "tecnologia": "VSAT",
                "tipo-de-Produto": "INTERNET",
                "meio-de-acesso": "Satélite",
                "quantidade-acesso": 1
            }
        ]
    },
    {
        "cidade": "Bertópolis",
        "uf": "MG",
        "latitude": -17.059009,
        "longitude": -40.579973,
        "empresa": "HUGHES",
        "cnpj": 5206385000161,
        "pf-ou-pj": "Pessoa Física",
        "info-tecnologia": [
            {
                "tecnologia": "VSAT",
                "tipo-de-Produto": "INTERNET",
                "meio-de-acesso": "Satélite",
                "quantidade-acesso": 6
            }
        ]
    },
    {
        "cidade": "Betim",
        "uf": "MG",
        "latitude": -19.966827,
        "longitude": -44.200775,
        "empresa": "HUGHES",
        "cnpj": 5206385000161,
        "pf-ou-pj": "Pessoa Física",
        "info-tecnologia": [
            {
                "tecnologia": "VSAT",
                "tipo-de-Produto": "INTERNET",
                "meio-de-acesso": "Satélite",
                "quantidade-acesso": 14
            }
        ]
    },
    {
        "cidade": "Bias Fortes",
        "uf": "MG",
        "latitude": -21.601961,
        "longitude": -43.757366,
        "empresa": "HUGHES",
        "cnpj": 5206385000161,
        "pf-ou-pj": "Pessoa Física",
        "info-tecnologia": [
            {
                "tecnologia": "VSAT",
                "tipo-de-Produto": "INTERNET",
                "meio-de-acesso": "Satélite",
                "quantidade-acesso": 40
            }
        ]
    },
    {
        "cidade": "Bicas",
        "uf": "MG",
        "latitude": -21.723164,
        "longitude": -43.055958,
        "empresa": "HUGHES",
        "cnpj": 5206385000161,
        "pf-ou-pj": "Pessoa Física",
        "info-tecnologia": [
            {
                "tecnologia": "VSAT",
                "tipo-de-Produto": "INTERNET",
                "meio-de-acesso": "Satélite",
                "quantidade-acesso": 23
            }
        ]
    },
    {
        "cidade": "Biquinhas",
        "uf": "MG",
        "latitude": -18.77541,
        "longitude": -45.497372,
        "empresa": "HUGHES",
        "cnpj": 5206385000161,
        "pf-ou-pj": "Pessoa Física",
        "info-tecnologia": [
            {
                "tecnologia": "VSAT",
                "tipo-de-Produto": "INTERNET",
                "meio-de-acesso": "Satélite",
                "quantidade-acesso": 1
            }
        ]
    },
    {
        "cidade": "Boa Esperança",
        "uf": "MG",
        "latitude": -21.092723,
        "longitude": -45.561203,
        "empresa": "HUGHES",
        "cnpj": 5206385000161,
        "pf-ou-pj": "Pessoa Física",
        "info-tecnologia": [
            {
                "tecnologia": "VSAT",
                "tipo-de-Produto": "INTERNET",
                "meio-de-acesso": "Satélite",
                "quantidade-acesso": 18
            }
        ]
    },
    {
        "cidade": "Bocaina de Minas",
        "uf": "MG",
        "latitude": -22.169687,
        "longitude": -44.397181,
        "empresa": "HUGHES",
        "cnpj": 5206385000161,
        "pf-ou-pj": "Pessoa Física",
        "info-tecnologia": [
            {
                "tecnologia": "VSAT",
                "tipo-de-Produto": "INTERNET",
                "meio-de-acesso": "Satélite",
                "quantidade-acesso": 27
            }
        ]
    },
    {
        "cidade": "Bocaiúva",
        "uf": "MG",
        "latitude": -17.113544,
        "longitude": -43.810433,
        "empresa": "HUGHES",
        "cnpj": 5206385000161,
        "pf-ou-pj": "Pessoa Física",
        "info-tecnologia": [
            {
                "tecnologia": "VSAT",
                "tipo-de-Produto": "INTERNET",
                "meio-de-acesso": "Satélite",
                "quantidade-acesso": 19
            }
        ]
    },
    {
        "cidade": "Bom Despacho",
        "uf": "MG",
        "latitude": -19.738621,
        "longitude": -45.262167,
        "empresa": "HUGHES",
        "cnpj": 5206385000161,
        "pf-ou-pj": "Pessoa Física",
        "info-tecnologia": [
            {
                "tecnologia": "VSAT",
                "tipo-de-Produto": "INTERNET",
                "meio-de-acesso": "Satélite",
                "quantidade-acesso": 89
            }
        ]
    },
    {
        "cidade": "Bom Jardim de Minas",
        "uf": "MG",
        "latitude": -21.947875,
        "longitude": -44.188498,
        "empresa": "HUGHES",
        "cnpj": 5206385000161,
        "pf-ou-pj": "Pessoa Física",
        "info-tecnologia": [
            {
                "tecnologia": "VSAT",
                "tipo-de-Produto": "INTERNET",
                "meio-de-acesso": "Satélite",
                "quantidade-acesso": 21
            }
        ]
    },
    {
        "cidade": "Bom Jesus da Penha",
        "uf": "MG",
        "latitude": -21.014786,
        "longitude": -46.517369,
        "empresa": "HUGHES",
        "cnpj": 5206385000161,
        "pf-ou-pj": "Pessoa Física",
        "info-tecnologia": [
            {
                "tecnologia": "VSAT",
                "tipo-de-Produto": "INTERNET",
                "meio-de-acesso": "Satélite",
                "quantidade-acesso": 1
            }
        ]
    },
    {
        "cidade": "Bom Jesus do Amparo",
        "uf": "MG",
        "latitude": -19.70543,
        "longitude": -43.478225,
        "empresa": "HUGHES",
        "cnpj": 5206385000161,
        "pf-ou-pj": "Pessoa Física",
        "info-tecnologia": [
            {
                "tecnologia": "VSAT",
                "tipo-de-Produto": "INTERNET",
                "meio-de-acesso": "Satélite",
                "quantidade-acesso": 36
            }
        ]
    },
    {
        "cidade": "Bom Jesus do Galho",
        "uf": "MG",
        "latitude": -19.836006,
        "longitude": -42.316472,
        "empresa": "HUGHES",
        "cnpj": 5206385000161,
        "pf-ou-pj": "Pessoa Física",
        "info-tecnologia": [
            {
                "tecnologia": "VSAT",
                "tipo-de-Produto": "INTERNET",
                "meio-de-acesso": "Satélite",
                "quantidade-acesso": 3
            }
        ]
    },
    {
        "cidade": "Bom Repouso",
        "uf": "MG",
        "latitude": -22.467494,
        "longitude": -46.144036,
        "empresa": "HUGHES",
        "cnpj": 5206385000161,
        "pf-ou-pj": "Pessoa Física",
        "info-tecnologia": [
            {
                "tecnologia": "VSAT",
                "tipo-de-Produto": "INTERNET",
                "meio-de-acesso": "Satélite",
                "quantidade-acesso": 3
            }
        ]
    },
    {
        "cidade": "Bom Sucesso",
        "uf": "MG",
        "latitude": -21.032875,
        "longitude": -44.753745,
        "empresa": "HUGHES",
        "cnpj": 5206385000161,
        "pf-ou-pj": "Pessoa Física",
        "info-tecnologia": [
            {
                "tecnologia": "VSAT",
                "tipo-de-Produto": "INTERNET",
                "meio-de-acesso": "Satélite",
                "quantidade-acesso": 130
            }
        ]
    },
    {
        "cidade": "Bonfim",
        "uf": "MG",
        "latitude": -20.330215,
        "longitude": -44.236565,
        "empresa": "HUGHES",
        "cnpj": 5206385000161,
        "pf-ou-pj": "Pessoa Física",
        "info-tecnologia": [
            {
                "tecnologia": "VSAT",
                "tipo-de-Produto": "INTERNET",
                "meio-de-acesso": "Satélite",
                "quantidade-acesso": 42
            }
        ]
    },
    {
        "cidade": "Bonfinópolis de Minas",
        "uf": "MG",
        "latitude": -16.568034,
        "longitude": -45.983859,
        "empresa": "HUGHES",
        "cnpj": 5206385000161,
        "pf-ou-pj": "Pessoa Física",
        "info-tecnologia": [
            {
                "tecnologia": "VSAT",
                "tipo-de-Produto": "INTERNET",
                "meio-de-acesso": "Satélite",
                "quantidade-acesso": 69
            }
        ]
    },
    {
        "cidade": "Bonito de Minas",
        "uf": "MG",
        "latitude": -15.323129,
        "longitude": -44.754267,
        "empresa": "HUGHES",
        "cnpj": 5206385000161,
        "pf-ou-pj": "Pessoa Física",
        "info-tecnologia": [
            {
                "tecnologia": "VSAT",
                "tipo-de-Produto": "INTERNET",
                "meio-de-acesso": "Satélite",
                "quantidade-acesso": 246
            }
        ]
    },
    {
        "cidade": "Borda da Mata",
        "uf": "MG",
        "latitude": -22.270701,
        "longitude": -46.165349,
        "empresa": "HUGHES",
        "cnpj": 5206385000161,
        "pf-ou-pj": "Pessoa Física",
        "info-tecnologia": [
            {
                "tecnologia": "VSAT",
                "tipo-de-Produto": "INTERNET",
                "meio-de-acesso": "Satélite",
                "quantidade-acesso": 7
            }
        ]
    },
    {
        "cidade": "Botelhos",
        "uf": "MG",
        "latitude": -21.641157,
        "longitude": -46.391006,
        "empresa": "HUGHES",
        "cnpj": 5206385000161,
        "pf-ou-pj": "Pessoa Física",
        "info-tecnologia": [
            {
                "tecnologia": "VSAT",
                "tipo-de-Produto": "INTERNET",
                "meio-de-acesso": "Satélite",
                "quantidade-acesso": 2
            }
        ]
    },
    {
        "cidade": "Botumirim",
        "uf": "MG",
        "latitude": -16.865741,
        "longitude": -43.008578,
        "empresa": "HUGHES",
        "cnpj": 5206385000161,
        "pf-ou-pj": "Pessoa Física",
        "info-tecnologia": [
            {
                "tecnologia": "VSAT",
                "tipo-de-Produto": "INTERNET",
                "meio-de-acesso": "Satélite",
                "quantidade-acesso": 11
            }
        ]
    },
    {
        "cidade": "Brasilândia de Minas",
        "uf": "MG",
        "latitude": -16.999868,
        "longitude": -46.00811,
        "empresa": "HUGHES",
        "cnpj": 5206385000161,
        "pf-ou-pj": "Pessoa Física",
        "info-tecnologia": [
            {
                "tecnologia": "VSAT",
                "tipo-de-Produto": "INTERNET",
                "meio-de-acesso": "Satélite",
                "quantidade-acesso": 58
            }
        ]
    },
    {
        "cidade": "Brasília de Minas",
        "uf": "MG",
        "latitude": -16.210382,
        "longitude": -44.429897,
        "empresa": "HUGHES",
        "cnpj": 5206385000161,
        "pf-ou-pj": "Pessoa Física",
        "info-tecnologia": [
            {
                "tecnologia": "VSAT",
                "tipo-de-Produto": "INTERNET",
                "meio-de-acesso": "Satélite",
                "quantidade-acesso": 21
            }
        ]
    },
    {
        "cidade": "Brazópolis",
        "uf": "MG",
        "latitude": null,
        "longitude": null,
        "empresa": "HUGHES",
        "cnpj": 5206385000161,
        "pf-ou-pj": "Pessoa Física",
        "info-tecnologia": [
            {
                "tecnologia": "VSAT",
                "tipo-de-Produto": "INTERNET",
                "meio-de-acesso": "Satélite",
                "quantidade-acesso": 1
            }
        ]
    },
    {
        "cidade": "Braúnas",
        "uf": "MG",
        "latitude": -19.05616,
        "longitude": -42.709896,
        "empresa": "HUGHES",
        "cnpj": 5206385000161,
        "pf-ou-pj": "Pessoa Física",
        "info-tecnologia": [
            {
                "tecnologia": "VSAT",
                "tipo-de-Produto": "INTERNET",
                "meio-de-acesso": "Satélite",
                "quantidade-acesso": 22
            }
        ]
    },
    {
        "cidade": "Brumadinho",
        "uf": "MG",
        "latitude": -20.150989,
        "longitude": -44.200675,
        "empresa": "HUGHES",
        "cnpj": 5206385000161,
        "pf-ou-pj": "Pessoa Física",
        "info-tecnologia": [
            {
                "tecnologia": "VSAT",
                "tipo-de-Produto": "INTERNET",
                "meio-de-acesso": "Satélite",
                "quantidade-acesso": 150
            }
        ]
    },
    {
        "cidade": "Brás Pires",
        "uf": "MG",
        "latitude": -20.841912,
        "longitude": -43.240556,
        "empresa": "HUGHES",
        "cnpj": 5206385000161,
        "pf-ou-pj": "Pessoa Física",
        "info-tecnologia": [
            {
                "tecnologia": "VSAT",
                "tipo-de-Produto": "INTERNET",
                "meio-de-acesso": "Satélite",
                "quantidade-acesso": 3
            }
        ]
    },
    {
        "cidade": "Bueno Brandão",
        "uf": "MG",
        "latitude": -22.438321,
        "longitude": -46.349102,
        "empresa": "HUGHES",
        "cnpj": 5206385000161,
        "pf-ou-pj": "Pessoa Física",
        "info-tecnologia": [
            {
                "tecnologia": "VSAT",
                "tipo-de-Produto": "INTERNET",
                "meio-de-acesso": "Satélite",
                "quantidade-acesso": 11
            }
        ]
    },
    {
        "cidade": "Buenópolis",
        "uf": "MG",
        "latitude": -17.874432,
        "longitude": -44.177504,
        "empresa": "HUGHES",
        "cnpj": 5206385000161,
        "pf-ou-pj": "Pessoa Física",
        "info-tecnologia": [
            {
                "tecnologia": "VSAT",
                "tipo-de-Produto": "INTERNET",
                "meio-de-acesso": "Satélite",
                "quantidade-acesso": 7
            }
        ]
    },
    {
        "cidade": "Bugre",
        "uf": "MG",
        "latitude": -19.423063,
        "longitude": -42.255184,
        "empresa": "HUGHES",
        "cnpj": 5206385000161,
        "pf-ou-pj": "Pessoa Física",
        "info-tecnologia": [
            {
                "tecnologia": "VSAT",
                "tipo-de-Produto": "INTERNET",
                "meio-de-acesso": "Satélite",
                "quantidade-acesso": 2
            }
        ]
    },
    {
        "cidade": "Buritis",
        "uf": "MG",
        "latitude": -15.621802,
        "longitude": -46.422078,
        "empresa": "HUGHES",
        "cnpj": 5206385000161,
        "pf-ou-pj": "Pessoa Física",
        "info-tecnologia": [
            {
                "tecnologia": "VSAT",
                "tipo-de-Produto": "INTERNET",
                "meio-de-acesso": "Satélite",
                "quantidade-acesso": 253
            }
        ]
    },
    {
        "cidade": "Buritizeiro",
        "uf": "MG",
        "latitude": -17.365588,
        "longitude": -44.960581,
        "empresa": "HUGHES",
        "cnpj": 5206385000161,
        "pf-ou-pj": "Pessoa Física",
        "info-tecnologia": [
            {
                "tecnologia": "VSAT",
                "tipo-de-Produto": "INTERNET",
                "meio-de-acesso": "Satélite",
                "quantidade-acesso": 114
            }
        ]
    },
    {
        "cidade": "Cabeceira Grande",
        "uf": "MG",
        "latitude": -16.03351,
        "longitude": -47.086153,
        "empresa": "HUGHES",
        "cnpj": 5206385000161,
        "pf-ou-pj": "Pessoa Física",
        "info-tecnologia": [
            {
                "tecnologia": "VSAT",
                "tipo-de-Produto": "INTERNET",
                "meio-de-acesso": "Satélite",
                "quantidade-acesso": 30
            }
        ]
    },
    {
        "cidade": "Cabo Verde",
        "uf": "MG",
        "latitude": -21.469945,
        "longitude": -46.391857,
        "empresa": "HUGHES",
        "cnpj": 5206385000161,
        "pf-ou-pj": "Pessoa Física",
        "info-tecnologia": [
            {
                "tecnologia": "VSAT",
                "tipo-de-Produto": "INTERNET",
                "meio-de-acesso": "Satélite",
                "quantidade-acesso": 12
            }
        ]
    },
    {
        "cidade": "Cachoeira Dourada",
        "uf": "MG",
        "latitude": -18.516147,
        "longitude": -49.503876,
        "empresa": "HUGHES",
        "cnpj": 5206385000161,
        "pf-ou-pj": "Pessoa Física",
        "info-tecnologia": [
            {
                "tecnologia": "VSAT",
                "tipo-de-Produto": "INTERNET",
                "meio-de-acesso": "Satélite",
                "quantidade-acesso": 2
            }
        ]
    },
    {
        "cidade": "Cachoeira da Prata",
        "uf": "MG",
        "latitude": -19.520967,
        "longitude": -44.454383,
        "empresa": "HUGHES",
        "cnpj": 5206385000161,
        "pf-ou-pj": "Pessoa Física",
        "info-tecnologia": [
            {
                "tecnologia": "VSAT",
                "tipo-de-Produto": "INTERNET",
                "meio-de-acesso": "Satélite",
                "quantidade-acesso": 4
            }
        ]
    },
    {
        "cidade": "Cachoeira de Minas",
        "uf": "MG",
        "latitude": -22.351107,
        "longitude": -45.780866,
        "empresa": "HUGHES",
        "cnpj": 5206385000161,
        "pf-ou-pj": "Pessoa Física",
        "info-tecnologia": [
            {
                "tecnologia": "VSAT",
                "tipo-de-Produto": "INTERNET",
                "meio-de-acesso": "Satélite",
                "quantidade-acesso": 4
            }
        ]
    },
    {
        "cidade": "Cachoeira de Pajeú",
        "uf": "MG",
        "latitude": -15.968828,
        "longitude": -41.494766,
        "empresa": "HUGHES",
        "cnpj": 5206385000161,
        "pf-ou-pj": "Pessoa Física",
        "info-tecnologia": [
            {
                "tecnologia": "VSAT",
                "tipo-de-Produto": "INTERNET",
                "meio-de-acesso": "Satélite",
                "quantidade-acesso": 1
            }
        ]
    },
    {
        "cidade": "Caetanópolis",
        "uf": "MG",
        "latitude": -19.297075,
        "longitude": -44.418871,
        "empresa": "HUGHES",
        "cnpj": 5206385000161,
        "pf-ou-pj": "Pessoa Física",
        "info-tecnologia": [
            {
                "tecnologia": "VSAT",
                "tipo-de-Produto": "INTERNET",
                "meio-de-acesso": "Satélite",
                "quantidade-acesso": 17
            }
        ]
    },
    {
        "cidade": "Caeté",
        "uf": "MG",
        "latitude": -19.88261,
        "longitude": -43.670353,
        "empresa": "HUGHES",
        "cnpj": 5206385000161,
        "pf-ou-pj": "Pessoa Física",
        "info-tecnologia": [
            {
                "tecnologia": "VSAT",
                "tipo-de-Produto": "INTERNET",
                "meio-de-acesso": "Satélite",
                "quantidade-acesso": 147
            }
        ]
    },
    {
        "cidade": "Caiana",
        "uf": "MG",
        "latitude": -20.695579,
        "longitude": -41.929208,
        "empresa": "HUGHES",
        "cnpj": 5206385000161,
        "pf-ou-pj": "Pessoa Física",
        "info-tecnologia": [
            {
                "tecnologia": "VSAT",
                "tipo-de-Produto": "INTERNET",
                "meio-de-acesso": "Satélite",
                "quantidade-acesso": 7
            }
        ]
    },
    {
        "cidade": "Cajuri",
        "uf": "MG",
        "latitude": -20.790301,
        "longitude": -42.792504,
        "empresa": "HUGHES",
        "cnpj": 5206385000161,
        "pf-ou-pj": "Pessoa Física",
        "info-tecnologia": [
            {
                "tecnologia": "VSAT",
                "tipo-de-Produto": "INTERNET",
                "meio-de-acesso": "Satélite",
                "quantidade-acesso": 58
            }
        ]
    },
    {
        "cidade": "Caldas",
        "uf": "MG",
        "latitude": -21.918309,
        "longitude": -46.384314,
        "empresa": "HUGHES",
        "cnpj": 5206385000161,
        "pf-ou-pj": "Pessoa Física",
        "info-tecnologia": [
            {
                "tecnologia": "VSAT",
                "tipo-de-Produto": "INTERNET",
                "meio-de-acesso": "Satélite",
                "quantidade-acesso": 20
            }
        ]
    },
    {
        "cidade": "Camacho",
        "uf": "MG",
        "latitude": -20.629367,
        "longitude": -45.159327,
        "empresa": "HUGHES",
        "cnpj": 5206385000161,
        "pf-ou-pj": "Pessoa Física",
        "info-tecnologia": [
            {
                "tecnologia": "VSAT",
                "tipo-de-Produto": "INTERNET",
                "meio-de-acesso": "Satélite",
                "quantidade-acesso": 5
            }
        ]
    },
    {
        "cidade": "Camanducaia",
        "uf": "MG",
        "latitude": -22.751534,
        "longitude": -46.149444,
        "empresa": "HUGHES",
        "cnpj": 5206385000161,
        "pf-ou-pj": "Pessoa Física",
        "info-tecnologia": [
            {
                "tecnologia": "VSAT",
                "tipo-de-Produto": "INTERNET",
                "meio-de-acesso": "Satélite",
                "quantidade-acesso": 46
            }
        ]
    },
    {
        "cidade": "Cambuquira",
        "uf": "MG",
        "latitude": -21.853985,
        "longitude": -45.289572,
        "empresa": "HUGHES",
        "cnpj": 5206385000161,
        "pf-ou-pj": "Pessoa Física",
        "info-tecnologia": [
            {
                "tecnologia": "VSAT",
                "tipo-de-Produto": "INTERNET",
                "meio-de-acesso": "Satélite",
                "quantidade-acesso": 7
            }
        ]
    },
    {
        "cidade": "Cambuí",
        "uf": "MG",
        "latitude": -22.611537,
        "longitude": -46.057228,
        "empresa": "HUGHES",
        "cnpj": 5206385000161,
        "pf-ou-pj": "Pessoa Física",
        "info-tecnologia": [
            {
                "tecnologia": "VSAT",
                "tipo-de-Produto": "INTERNET",
                "meio-de-acesso": "Satélite",
                "quantidade-acesso": 12
            }
        ]
    },
    {
        "cidade": "Campanha",
        "uf": "MG",
        "latitude": -21.835977,
        "longitude": -45.400394,
        "empresa": "HUGHES",
        "cnpj": 5206385000161,
        "pf-ou-pj": "Pessoa Física",
        "info-tecnologia": [
            {
                "tecnologia": "VSAT",
                "tipo-de-Produto": "INTERNET",
                "meio-de-acesso": "Satélite",
                "quantidade-acesso": 25
            }
        ]
    },
    {
        "cidade": "Campanário",
        "uf": "MG",
        "latitude": -18.24271,
        "longitude": -41.735506,
        "empresa": "HUGHES",
        "cnpj": 5206385000161,
        "pf-ou-pj": "Pessoa Física",
        "info-tecnologia": [
            {
                "tecnologia": "VSAT",
                "tipo-de-Produto": "INTERNET",
                "meio-de-acesso": "Satélite",
                "quantidade-acesso": 10
            }
        ]
    },
    {
        "cidade": "Campestre",
        "uf": "MG",
        "latitude": -21.707874,
        "longitude": -46.23808,
        "empresa": "HUGHES",
        "cnpj": 5206385000161,
        "pf-ou-pj": "Pessoa Física",
        "info-tecnologia": [
            {
                "tecnologia": "VSAT",
                "tipo-de-Produto": "INTERNET",
                "meio-de-acesso": "Satélite",
                "quantidade-acesso": 60
            }
        ]
    },
    {
        "cidade": "Campina Verde",
        "uf": "MG",
        "latitude": -19.53815,
        "longitude": -49.486247,
        "empresa": "HUGHES",
        "cnpj": 5206385000161,
        "pf-ou-pj": "Pessoa Física",
        "info-tecnologia": [
            {
                "tecnologia": "VSAT",
                "tipo-de-Produto": "INTERNET",
                "meio-de-acesso": "Satélite",
                "quantidade-acesso": 102
            }
        ]
    },
    {
        "cidade": "Campo Azul",
        "uf": "MG",
        "latitude": -16.502805,
        "longitude": -44.809624,
        "empresa": "HUGHES",
        "cnpj": 5206385000161,
        "pf-ou-pj": "Pessoa Física",
        "info-tecnologia": [
            {
                "tecnologia": "VSAT",
                "tipo-de-Produto": "INTERNET",
                "meio-de-acesso": "Satélite",
                "quantidade-acesso": 4
            }
        ]
    },
    {
        "cidade": "Campo Belo",
        "uf": "MG",
        "latitude": -20.893182,
        "longitude": -45.269892,
        "empresa": "HUGHES",
        "cnpj": 5206385000161,
        "pf-ou-pj": "Pessoa Física",
        "info-tecnologia": [
            {
                "tecnologia": "VSAT",
                "tipo-de-Produto": "INTERNET",
                "meio-de-acesso": "Satélite",
                "quantidade-acesso": 17
            }
        ]
    },
    {
        "cidade": "Campo Florido",
        "uf": "MG",
        "latitude": -19.763085,
        "longitude": -48.571623,
        "empresa": "HUGHES",
        "cnpj": 5206385000161,
        "pf-ou-pj": "Pessoa Física",
        "info-tecnologia": [
            {
                "tecnologia": "VSAT",
                "tipo-de-Produto": "INTERNET",
                "meio-de-acesso": "Satélite",
                "quantidade-acesso": 25
            }
        ]
    },
    {
        "cidade": "Campo do Meio",
        "uf": "MG",
        "latitude": -21.112735,
        "longitude": -45.827333,
        "empresa": "HUGHES",
        "cnpj": 5206385000161,
        "pf-ou-pj": "Pessoa Física",
        "info-tecnologia": [
            {
                "tecnologia": "VSAT",
                "tipo-de-Produto": "INTERNET",
                "meio-de-acesso": "Satélite",
                "quantidade-acesso": 12
            }
        ]
    },
    {
        "cidade": "Campos Altos",
        "uf": "MG",
        "latitude": -19.691378,
        "longitude": -46.172545,
        "empresa": "HUGHES",
        "cnpj": 5206385000161,
        "pf-ou-pj": "Pessoa Física",
        "info-tecnologia": [
            {
                "tecnologia": "VSAT",
                "tipo-de-Produto": "INTERNET",
                "meio-de-acesso": "Satélite",
                "quantidade-acesso": 39
            }
        ]
    },
    {
        "cidade": "Campos Gerais",
        "uf": "MG",
        "latitude": -21.237025,
        "longitude": -45.7569,
        "empresa": "HUGHES",
        "cnpj": 5206385000161,
        "pf-ou-pj": "Pessoa Física",
        "info-tecnologia": [
            {
                "tecnologia": "VSAT",
                "tipo-de-Produto": "INTERNET",
                "meio-de-acesso": "Satélite",
                "quantidade-acesso": 51
            }
        ]
    },
    {
        "cidade": "Cana Verde",
        "uf": "MG",
        "latitude": -21.023207,
        "longitude": -45.180062,
        "empresa": "HUGHES",
        "cnpj": 5206385000161,
        "pf-ou-pj": "Pessoa Física",
        "info-tecnologia": [
            {
                "tecnologia": "VSAT",
                "tipo-de-Produto": "INTERNET",
                "meio-de-acesso": "Satélite",
                "quantidade-acesso": 6
            }
        ]
    },
    {
        "cidade": "Canaã",
        "uf": "MG",
        "latitude": -20.686889,
        "longitude": -42.616676,
        "empresa": "HUGHES",
        "cnpj": 5206385000161,
        "pf-ou-pj": "Pessoa Física",
        "info-tecnologia": [
            {
                "tecnologia": "VSAT",
                "tipo-de-Produto": "INTERNET",
                "meio-de-acesso": "Satélite",
                "quantidade-acesso": 3
            }
        ]
    },
    {
        "cidade": "Candeias",
        "uf": "MG",
        "latitude": -20.769222,
        "longitude": -45.276465,
        "empresa": "HUGHES",
        "cnpj": 5206385000161,
        "pf-ou-pj": "Pessoa Física",
        "info-tecnologia": [
            {
                "tecnologia": "VSAT",
                "tipo-de-Produto": "INTERNET",
                "meio-de-acesso": "Satélite",
                "quantidade-acesso": 13
            }
        ]
    },
    {
        "cidade": "Cantagalo",
        "uf": "MG",
        "latitude": -18.524772,
        "longitude": -42.622259,
        "empresa": "HUGHES",
        "cnpj": 5206385000161,
        "pf-ou-pj": "Pessoa Física",
        "info-tecnologia": [
            {
                "tecnologia": "VSAT",
                "tipo-de-Produto": "INTERNET",
                "meio-de-acesso": "Satélite",
                "quantidade-acesso": 4
            }
        ]
    },
    {
        "cidade": "Canápolis",
        "uf": "MG",
        "latitude": -18.721229,
        "longitude": -49.20355,
        "empresa": "HUGHES",
        "cnpj": 5206385000161,
        "pf-ou-pj": "Pessoa Física",
        "info-tecnologia": [
            {
                "tecnologia": "VSAT",
                "tipo-de-Produto": "INTERNET",
                "meio-de-acesso": "Satélite",
                "quantidade-acesso": 12
            }
        ]
    },
    {
        "cidade": "Capela Nova",
        "uf": "MG",
        "latitude": -20.917906,
        "longitude": -43.621961,
        "empresa": "HUGHES",
        "cnpj": 5206385000161,
        "pf-ou-pj": "Pessoa Física",
        "info-tecnologia": [
            {
                "tecnologia": "VSAT",
                "tipo-de-Produto": "INTERNET",
                "meio-de-acesso": "Satélite",
                "quantidade-acesso": 1
            }
        ]
    },
    {
        "cidade": "Capelinha",
        "uf": "MG",
        "latitude": -17.688792,
        "longitude": -42.514705,
        "empresa": "HUGHES",
        "cnpj": 5206385000161,
        "pf-ou-pj": "Pessoa Física",
        "info-tecnologia": [
            {
                "tecnologia": "VSAT",
                "tipo-de-Produto": "INTERNET",
                "meio-de-acesso": "Satélite",
                "quantidade-acesso": 29
            }
        ]
    },
    {
        "cidade": "Capetinga",
        "uf": "MG",
        "latitude": -20.616314,
        "longitude": -47.057141,
        "empresa": "HUGHES",
        "cnpj": 5206385000161,
        "pf-ou-pj": "Pessoa Física",
        "info-tecnologia": [
            {
                "tecnologia": "VSAT",
                "tipo-de-Produto": "INTERNET",
                "meio-de-acesso": "Satélite",
                "quantidade-acesso": 4
            }
        ]
    },
    {
        "cidade": "Capim Branco",
        "uf": "MG",
        "latitude": -19.547067,
        "longitude": -44.130351,
        "empresa": "HUGHES",
        "cnpj": 5206385000161,
        "pf-ou-pj": "Pessoa Física",
        "info-tecnologia": [
            {
                "tecnologia": "VSAT",
                "tipo-de-Produto": "INTERNET",
                "meio-de-acesso": "Satélite",
                "quantidade-acesso": 31
            }
        ]
    },
    {
        "cidade": "Capinópolis",
        "uf": "MG",
        "latitude": -18.686221,
        "longitude": -49.570618,
        "empresa": "HUGHES",
        "cnpj": 5206385000161,
        "pf-ou-pj": "Pessoa Física",
        "info-tecnologia": [
            {
                "tecnologia": "VSAT",
                "tipo-de-Produto": "INTERNET",
                "meio-de-acesso": "Satélite",
                "quantidade-acesso": 40
            }
        ]
    },
    {
        "cidade": "Capitão Andrade",
        "uf": "MG",
        "latitude": -19.074835,
        "longitude": -41.861414,
        "empresa": "HUGHES",
        "cnpj": 5206385000161,
        "pf-ou-pj": "Pessoa Física",
        "info-tecnologia": [
            {
                "tecnologia": "VSAT",
                "tipo-de-Produto": "INTERNET",
                "meio-de-acesso": "Satélite",
                "quantidade-acesso": 2
            }
        ]
    },
    {
        "cidade": "Capitão Enéas",
        "uf": "MG",
        "latitude": -16.32654,
        "longitude": -43.708443,
        "empresa": "HUGHES",
        "cnpj": 5206385000161,
        "pf-ou-pj": "Pessoa Física",
        "info-tecnologia": [
            {
                "tecnologia": "VSAT",
                "tipo-de-Produto": "INTERNET",
                "meio-de-acesso": "Satélite",
                "quantidade-acesso": 14
            }
        ]
    },
    {
        "cidade": "Capitólio",
        "uf": "MG",
        "latitude": -20.616373,
        "longitude": -46.049257,
        "empresa": "HUGHES",
        "cnpj": 5206385000161,
        "pf-ou-pj": "Pessoa Física",
        "info-tecnologia": [
            {
                "tecnologia": "VSAT",
                "tipo-de-Produto": "INTERNET",
                "meio-de-acesso": "Satélite",
                "quantidade-acesso": 5
            }
        ]
    },
    {
        "cidade": "Caputira",
        "uf": "MG",
        "latitude": -20.170342,
        "longitude": -42.26832,
        "empresa": "HUGHES",
        "cnpj": 5206385000161,
        "pf-ou-pj": "Pessoa Física",
        "info-tecnologia": [
            {
                "tecnologia": "VSAT",
                "tipo-de-Produto": "INTERNET",
                "meio-de-acesso": "Satélite",
                "quantidade-acesso": 3
            }
        ]
    },
    {
        "cidade": "Caranaíba",
        "uf": "MG",
        "latitude": -20.870663,
        "longitude": -43.741716,
        "empresa": "HUGHES",
        "cnpj": 5206385000161,
        "pf-ou-pj": "Pessoa Física",
        "info-tecnologia": [
            {
                "tecnologia": "VSAT",
                "tipo-de-Produto": "INTERNET",
                "meio-de-acesso": "Satélite",
                "quantidade-acesso": 7
            }
        ]
    },
    {
        "cidade": "Carandaí",
        "uf": "MG",
        "latitude": -20.956604,
        "longitude": -43.811002,
        "empresa": "HUGHES",
        "cnpj": 5206385000161,
        "pf-ou-pj": "Pessoa Física",
        "info-tecnologia": [
            {
                "tecnologia": "VSAT",
                "tipo-de-Produto": "INTERNET",
                "meio-de-acesso": "Satélite",
                "quantidade-acesso": 38
            }
        ]
    },
    {
        "cidade": "Carangola",
        "uf": "MG",
        "latitude": -20.734348,
        "longitude": -42.031348,
        "empresa": "HUGHES",
        "cnpj": 5206385000161,
        "pf-ou-pj": "Pessoa Física",
        "info-tecnologia": [
            {
                "tecnologia": "VSAT",
                "tipo-de-Produto": "INTERNET",
                "meio-de-acesso": "Satélite",
                "quantidade-acesso": 22
            }
        ]
    },
    {
        "cidade": "Caratinga",
        "uf": "MG",
        "latitude": -19.786805,
        "longitude": -42.129217,
        "empresa": "HUGHES",
        "cnpj": 5206385000161,
        "pf-ou-pj": "Pessoa Física",
        "info-tecnologia": [
            {
                "tecnologia": "VSAT",
                "tipo-de-Produto": "INTERNET",
                "meio-de-acesso": "Satélite",
                "quantidade-acesso": 39
            }
        ]
    },
    {
        "cidade": "Caraí",
        "uf": "MG",
        "latitude": -17.186161,
        "longitude": -41.700359,
        "empresa": "HUGHES",
        "cnpj": 5206385000161,
        "pf-ou-pj": "Pessoa Física",
        "info-tecnologia": [
            {
                "tecnologia": "VSAT",
                "tipo-de-Produto": "INTERNET",
                "meio-de-acesso": "Satélite",
                "quantidade-acesso": 46
            }
        ]
    },
    {
        "cidade": "Carbonita",
        "uf": "MG",
        "latitude": -17.525492,
        "longitude": -43.013688,
        "empresa": "HUGHES",
        "cnpj": 5206385000161,
        "pf-ou-pj": "Pessoa Física",
        "info-tecnologia": [
            {
                "tecnologia": "VSAT",
                "tipo-de-Produto": "INTERNET",
                "meio-de-acesso": "Satélite",
                "quantidade-acesso": 3
            }
        ]
    },
    {
        "cidade": "Careaçu",
        "uf": "MG",
        "latitude": -22.042379,
        "longitude": -45.696011,
        "empresa": "HUGHES",
        "cnpj": 5206385000161,
        "pf-ou-pj": "Pessoa Física",
        "info-tecnologia": [
            {
                "tecnologia": "VSAT",
                "tipo-de-Produto": "INTERNET",
                "meio-de-acesso": "Satélite",
                "quantidade-acesso": 1
            }
        ]
    },
    {
        "cidade": "Carlos Chagas",
        "uf": "MG",
        "latitude": -17.697335,
        "longitude": -40.772276,
        "empresa": "HUGHES",
        "cnpj": 5206385000161,
        "pf-ou-pj": "Pessoa Física",
        "info-tecnologia": [
            {
                "tecnologia": "VSAT",
                "tipo-de-Produto": "INTERNET",
                "meio-de-acesso": "Satélite",
                "quantidade-acesso": 339
            }
        ]
    },
    {
        "cidade": "Carmo da Cachoeira",
        "uf": "MG",
        "latitude": -21.463291,
        "longitude": -45.220065,
        "empresa": "HUGHES",
        "cnpj": 5206385000161,
        "pf-ou-pj": "Pessoa Física",
        "info-tecnologia": [
            {
                "tecnologia": "VSAT",
                "tipo-de-Produto": "INTERNET",
                "meio-de-acesso": "Satélite",
                "quantidade-acesso": 29
            }
        ]
    },
    {
        "cidade": "Carmo da Mata",
        "uf": "MG",
        "latitude": -20.557532,
        "longitude": -44.8735,
        "empresa": "HUGHES",
        "cnpj": 5206385000161,
        "pf-ou-pj": "Pessoa Física",
        "info-tecnologia": [
            {
                "tecnologia": "VSAT",
                "tipo-de-Produto": "INTERNET",
                "meio-de-acesso": "Satélite",
                "quantidade-acesso": 50
            }
        ]
    },
    {
        "cidade": "Carmo de Minas",
        "uf": "MG",
        "latitude": -22.120366,
        "longitude": -45.13069,
        "empresa": "HUGHES",
        "cnpj": 5206385000161,
        "pf-ou-pj": "Pessoa Física",
        "info-tecnologia": [
            {
                "tecnologia": "VSAT",
                "tipo-de-Produto": "INTERNET",
                "meio-de-acesso": "Satélite",
                "quantidade-acesso": 22
            }
        ]
    },
    {
        "cidade": "Carmo do Cajuru",
        "uf": "MG",
        "latitude": -20.19117,
        "longitude": -44.76643,
        "empresa": "HUGHES",
        "cnpj": 5206385000161,
        "pf-ou-pj": "Pessoa Física",
        "info-tecnologia": [
            {
                "tecnologia": "VSAT",
                "tipo-de-Produto": "INTERNET",
                "meio-de-acesso": "Satélite",
                "quantidade-acesso": 68
            }
        ]
    },
    {
        "cidade": "Carmo do Paranaíba",
        "uf": "MG",
        "latitude": -18.990952,
        "longitude": -46.316735,
        "empresa": "HUGHES",
        "cnpj": 5206385000161,
        "pf-ou-pj": "Pessoa Física",
        "info-tecnologia": [
            {
                "tecnologia": "VSAT",
                "tipo-de-Produto": "INTERNET",
                "meio-de-acesso": "Satélite",
                "quantidade-acesso": 32
            }
        ]
    },
    {
        "cidade": "Carmo do Rio Claro",
        "uf": "MG",
        "latitude": -20.973609,
        "longitude": -46.114925,
        "empresa": "HUGHES",
        "cnpj": 5206385000161,
        "pf-ou-pj": "Pessoa Física",
        "info-tecnologia": [
            {
                "tecnologia": "VSAT",
                "tipo-de-Produto": "INTERNET",
                "meio-de-acesso": "Satélite",
                "quantidade-acesso": 58
            }
        ]
    },
    {
        "cidade": "Carmésia",
        "uf": "MG",
        "latitude": -19.087718,
        "longitude": -43.138248,
        "empresa": "HUGHES",
        "cnpj": 5206385000161,
        "pf-ou-pj": "Pessoa Física",
        "info-tecnologia": [
            {
                "tecnologia": "VSAT",
                "tipo-de-Produto": "INTERNET",
                "meio-de-acesso": "Satélite",
                "quantidade-acesso": 1
            }
        ]
    },
    {
        "cidade": "Carmópolis de Minas",
        "uf": "MG",
        "latitude": -20.539562,
        "longitude": -44.633558,
        "empresa": "HUGHES",
        "cnpj": 5206385000161,
        "pf-ou-pj": "Pessoa Física",
        "info-tecnologia": [
            {
                "tecnologia": "VSAT",
                "tipo-de-Produto": "INTERNET",
                "meio-de-acesso": "Satélite",
                "quantidade-acesso": 85
            }
        ]
    },
    {
        "cidade": "Carneirinho",
        "uf": "MG",
        "latitude": -19.698701,
        "longitude": -50.689441,
        "empresa": "HUGHES",
        "cnpj": 5206385000161,
        "pf-ou-pj": "Pessoa Física",
        "info-tecnologia": [
            {
                "tecnologia": "VSAT",
                "tipo-de-Produto": "INTERNET",
                "meio-de-acesso": "Satélite",
                "quantidade-acesso": 3
            }
        ]
    },
    {
        "cidade": "Carrancas",
        "uf": "MG",
        "latitude": -21.489765,
        "longitude": -44.64457,
        "empresa": "HUGHES",
        "cnpj": 5206385000161,
        "pf-ou-pj": "Pessoa Física",
        "info-tecnologia": [
            {
                "tecnologia": "VSAT",
                "tipo-de-Produto": "INTERNET",
                "meio-de-acesso": "Satélite",
                "quantidade-acesso": 40
            }
        ]
    },
    {
        "cidade": "Carvalhos",
        "uf": "MG",
        "latitude": -22.000003,
        "longitude": -44.463164,
        "empresa": "HUGHES",
        "cnpj": 5206385000161,
        "pf-ou-pj": "Pessoa Física",
        "info-tecnologia": [
            {
                "tecnologia": "VSAT",
                "tipo-de-Produto": "INTERNET",
                "meio-de-acesso": "Satélite",
                "quantidade-acesso": 8
            }
        ]
    },
    {
        "cidade": "Carvalhópolis",
        "uf": "MG",
        "latitude": -21.773534,
        "longitude": -45.842127,
        "empresa": "HUGHES",
        "cnpj": 5206385000161,
        "pf-ou-pj": "Pessoa Física",
        "info-tecnologia": [
            {
                "tecnologia": "VSAT",
                "tipo-de-Produto": "INTERNET",
                "meio-de-acesso": "Satélite",
                "quantidade-acesso": 3
            }
        ]
    },
    {
        "cidade": "Casa Grande",
        "uf": "MG",
        "latitude": -20.792521,
        "longitude": -43.934306,
        "empresa": "HUGHES",
        "cnpj": 5206385000161,
        "pf-ou-pj": "Pessoa Física",
        "info-tecnologia": [
            {
                "tecnologia": "VSAT",
                "tipo-de-Produto": "INTERNET",
                "meio-de-acesso": "Satélite",
                "quantidade-acesso": 3
            }
        ]
    },
    {
        "cidade": "Cascalho Rico",
        "uf": "MG",
        "latitude": -18.577169,
        "longitude": -47.871643,
        "empresa": "HUGHES",
        "cnpj": 5206385000161,
        "pf-ou-pj": "Pessoa Física",
        "info-tecnologia": [
            {
                "tecnologia": "VSAT",
                "tipo-de-Produto": "INTERNET",
                "meio-de-acesso": "Satélite",
                "quantidade-acesso": 4
            }
        ]
    },
    {
        "cidade": "Cataguases",
        "uf": "MG",
        "latitude": -21.39239,
        "longitude": -42.689647,
        "empresa": "HUGHES",
        "cnpj": 5206385000161,
        "pf-ou-pj": "Pessoa Física",
        "info-tecnologia": [
            {
                "tecnologia": "VSAT",
                "tipo-de-Produto": "INTERNET",
                "meio-de-acesso": "Satélite",
                "quantidade-acesso": 36
            }
        ]
    },
    {
        "cidade": "Catas Altas",
        "uf": "MG",
        "latitude": -20.073403,
        "longitude": -43.406115,
        "empresa": "HUGHES",
        "cnpj": 5206385000161,
        "pf-ou-pj": "Pessoa Física",
        "info-tecnologia": [
            {
                "tecnologia": "VSAT",
                "tipo-de-Produto": "INTERNET",
                "meio-de-acesso": "Satélite",
                "quantidade-acesso": 45
            }
        ]
    },
    {
        "cidade": "Catas Altas da Noruega",
        "uf": "MG",
        "latitude": -20.690073,
        "longitude": -43.493876,
        "empresa": "HUGHES",
        "cnpj": 5206385000161,
        "pf-ou-pj": "Pessoa Física",
        "info-tecnologia": [
            {
                "tecnologia": "VSAT",
                "tipo-de-Produto": "INTERNET",
                "meio-de-acesso": "Satélite",
                "quantidade-acesso": 20
            }
        ]
    },
    {
        "cidade": "Catuji",
        "uf": "MG",
        "latitude": -17.301807,
        "longitude": -41.52764,
        "empresa": "HUGHES",
        "cnpj": 5206385000161,
        "pf-ou-pj": "Pessoa Física",
        "info-tecnologia": [
            {
                "tecnologia": "VSAT",
                "tipo-de-Produto": "INTERNET",
                "meio-de-acesso": "Satélite",
                "quantidade-acesso": 45
            }
        ]
    },
    {
        "cidade": "Caxambu",
        "uf": "MG",
        "latitude": -21.975253,
        "longitude": -44.931855,
        "empresa": "HUGHES",
        "cnpj": 5206385000161,
        "pf-ou-pj": "Pessoa Física",
        "info-tecnologia": [
            {
                "tecnologia": "VSAT",
                "tipo-de-Produto": "INTERNET",
                "meio-de-acesso": "Satélite",
                "quantidade-acesso": 5
            }
        ]
    },
    {
        "cidade": "Cedro do Abaeté",
        "uf": "MG",
        "latitude": -19.145767,
        "longitude": -45.711994,
        "empresa": "HUGHES",
        "cnpj": 5206385000161,
        "pf-ou-pj": "Pessoa Física",
        "info-tecnologia": [
            {
                "tecnologia": "VSAT",
                "tipo-de-Produto": "INTERNET",
                "meio-de-acesso": "Satélite",
                "quantidade-acesso": 1
            }
        ]
    },
    {
        "cidade": "Central de Minas",
        "uf": "MG",
        "latitude": -18.761195,
        "longitude": -41.314331,
        "empresa": "HUGHES",
        "cnpj": 5206385000161,
        "pf-ou-pj": "Pessoa Física",
        "info-tecnologia": [
            {
                "tecnologia": "VSAT",
                "tipo-de-Produto": "INTERNET",
                "meio-de-acesso": "Satélite",
                "quantidade-acesso": 9
            }
        ]
    },
    {
        "cidade": "Centralina",
        "uf": "MG",
        "latitude": -18.585217,
        "longitude": -49.201397,
        "empresa": "HUGHES",
        "cnpj": 5206385000161,
        "pf-ou-pj": "Pessoa Física",
        "info-tecnologia": [
            {
                "tecnologia": "VSAT",
                "tipo-de-Produto": "INTERNET",
                "meio-de-acesso": "Satélite",
                "quantidade-acesso": 7
            }
        ]
    },
    {
        "cidade": "Chalé",
        "uf": "MG",
        "latitude": -20.045328,
        "longitude": -41.689714,
        "empresa": "HUGHES",
        "cnpj": 5206385000161,
        "pf-ou-pj": "Pessoa Física",
        "info-tecnologia": [
            {
                "tecnologia": "VSAT",
                "tipo-de-Produto": "INTERNET",
                "meio-de-acesso": "Satélite",
                "quantidade-acesso": 5
            }
        ]
    },
    {
        "cidade": "Chapada do Norte",
        "uf": "MG",
        "latitude": -17.088119,
        "longitude": -42.539187,
        "empresa": "HUGHES",
        "cnpj": 5206385000161,
        "pf-ou-pj": "Pessoa Física",
        "info-tecnologia": [
            {
                "tecnologia": "VSAT",
                "tipo-de-Produto": "INTERNET",
                "meio-de-acesso": "Satélite",
                "quantidade-acesso": 3
            }
        ]
    },
    {
        "cidade": "Chiador",
        "uf": "MG",
        "latitude": -21.999572,
        "longitude": -43.061671,
        "empresa": "HUGHES",
        "cnpj": 5206385000161,
        "pf-ou-pj": "Pessoa Física",
        "info-tecnologia": [
            {
                "tecnologia": "VSAT",
                "tipo-de-Produto": "INTERNET",
                "meio-de-acesso": "Satélite",
                "quantidade-acesso": 16
            }
        ]
    },
    {
        "cidade": "Chácara",
        "uf": "MG",
        "latitude": -21.673256,
        "longitude": -43.21499,
        "empresa": "HUGHES",
        "cnpj": 5206385000161,
        "pf-ou-pj": "Pessoa Física",
        "info-tecnologia": [
            {
                "tecnologia": "VSAT",
                "tipo-de-Produto": "INTERNET",
                "meio-de-acesso": "Satélite",
                "quantidade-acesso": 57
            }
        ]
    },
    {
        "cidade": "Cipotânea",
        "uf": "MG",
        "latitude": -20.902598,
        "longitude": -43.362904,
        "empresa": "HUGHES",
        "cnpj": 5206385000161,
        "pf-ou-pj": "Pessoa Física",
        "info-tecnologia": [
            {
                "tecnologia": "VSAT",
                "tipo-de-Produto": "INTERNET",
                "meio-de-acesso": "Satélite",
                "quantidade-acesso": 2
            }
        ]
    },
    {
        "cidade": "Claraval",
        "uf": "MG",
        "latitude": -20.397011,
        "longitude": -47.276828,
        "empresa": "HUGHES",
        "cnpj": 5206385000161,
        "pf-ou-pj": "Pessoa Física",
        "info-tecnologia": [
            {
                "tecnologia": "VSAT",
                "tipo-de-Produto": "INTERNET",
                "meio-de-acesso": "Satélite",
                "quantidade-acesso": 10
            }
        ]
    },
    {
        "cidade": "Claro dos Poções",
        "uf": "MG",
        "latitude": -17.08203,
        "longitude": -44.206097,
        "empresa": "HUGHES",
        "cnpj": 5206385000161,
        "pf-ou-pj": "Pessoa Física",
        "info-tecnologia": [
            {
                "tecnologia": "VSAT",
                "tipo-de-Produto": "INTERNET",
                "meio-de-acesso": "Satélite",
                "quantidade-acesso": 5
            }
        ]
    },
    {
        "cidade": "Cláudio",
        "uf": "MG",
        "latitude": -20.443672,
        "longitude": -44.767332,
        "empresa": "HUGHES",
        "cnpj": 5206385000161,
        "pf-ou-pj": "Pessoa Física",
        "info-tecnologia": [
            {
                "tecnologia": "VSAT",
                "tipo-de-Produto": "INTERNET",
                "meio-de-acesso": "Satélite",
                "quantidade-acesso": 57
            }
        ]
    },
    {
        "cidade": "Coimbra",
        "uf": "MG",
        "latitude": -20.853505,
        "longitude": -42.800807,
        "empresa": "HUGHES",
        "cnpj": 5206385000161,
        "pf-ou-pj": "Pessoa Física",
        "info-tecnologia": [
            {
                "tecnologia": "VSAT",
                "tipo-de-Produto": "INTERNET",
                "meio-de-acesso": "Satélite",
                "quantidade-acesso": 39
            }
        ]
    },
    {
        "cidade": "Coluna",
        "uf": "MG",
        "latitude": -18.23108,
        "longitude": -42.835185,
        "empresa": "HUGHES",
        "cnpj": 5206385000161,
        "pf-ou-pj": "Pessoa Física",
        "info-tecnologia": [
            {
                "tecnologia": "VSAT",
                "tipo-de-Produto": "INTERNET",
                "meio-de-acesso": "Satélite",
                "quantidade-acesso": 2
            }
        ]
    },
    {
        "cidade": "Comendador Gomes",
        "uf": "MG",
        "latitude": -19.697342,
        "longitude": -49.078894,
        "empresa": "HUGHES",
        "cnpj": 5206385000161,
        "pf-ou-pj": "Pessoa Física",
        "info-tecnologia": [
            {
                "tecnologia": "VSAT",
                "tipo-de-Produto": "INTERNET",
                "meio-de-acesso": "Satélite",
                "quantidade-acesso": 24
            }
        ]
    },
    {
        "cidade": "Comercinho",
        "uf": "MG",
        "latitude": -16.296258,
        "longitude": -41.794536,
        "empresa": "HUGHES",
        "cnpj": 5206385000161,
        "pf-ou-pj": "Pessoa Física",
        "info-tecnologia": [
            {
                "tecnologia": "VSAT",
                "tipo-de-Produto": "INTERNET",
                "meio-de-acesso": "Satélite",
                "quantidade-acesso": 1
            }
        ]
    },
    {
        "cidade": "Conceição da Aparecida",
        "uf": "MG",
        "latitude": -21.096024,
        "longitude": -46.20491,
        "empresa": "HUGHES",
        "cnpj": 5206385000161,
        "pf-ou-pj": "Pessoa Física",
        "info-tecnologia": [
            {
                "tecnologia": "VSAT",
                "tipo-de-Produto": "INTERNET",
                "meio-de-acesso": "Satélite",
                "quantidade-acesso": 8
            }
        ]
    },
    {
        "cidade": "Conceição da Barra de Minas",
        "uf": "MG",
        "latitude": -21.131558,
        "longitude": -44.472901,
        "empresa": "HUGHES",
        "cnpj": 5206385000161,
        "pf-ou-pj": "Pessoa Física",
        "info-tecnologia": [
            {
                "tecnologia": "VSAT",
                "tipo-de-Produto": "INTERNET",
                "meio-de-acesso": "Satélite",
                "quantidade-acesso": 10
            }
        ]
    },
    {
        "cidade": "Conceição das Alagoas",
        "uf": "MG",
        "latitude": -19.917155,
        "longitude": -48.38394,
        "empresa": "HUGHES",
        "cnpj": 5206385000161,
        "pf-ou-pj": "Pessoa Física",
        "info-tecnologia": [
            {
                "tecnologia": "VSAT",
                "tipo-de-Produto": "INTERNET",
                "meio-de-acesso": "Satélite",
                "quantidade-acesso": 76
            }
        ]
    },
    {
        "cidade": "Conceição das Pedras",
        "uf": "MG",
        "latitude": -22.157647,
        "longitude": -45.456238,
        "empresa": "HUGHES",
        "cnpj": 5206385000161,
        "pf-ou-pj": "Pessoa Física",
        "info-tecnologia": [
            {
                "tecnologia": "VSAT",
                "tipo-de-Produto": "INTERNET",
                "meio-de-acesso": "Satélite",
                "quantidade-acesso": 3
            }
        ]
    },
    {
        "cidade": "Conceição de Ipanema",
        "uf": "MG",
        "latitude": -19.932584,
        "longitude": -41.690756,
        "empresa": "HUGHES",
        "cnpj": 5206385000161,
        "pf-ou-pj": "Pessoa Física",
        "info-tecnologia": [
            {
                "tecnologia": "VSAT",
                "tipo-de-Produto": "INTERNET",
                "meio-de-acesso": "Satélite",
                "quantidade-acesso": 10
            }
        ]
    },
    {
        "cidade": "Conceição do Mato Dentro",
        "uf": "MG",
        "latitude": -19.03441,
        "longitude": -43.422082,
        "empresa": "HUGHES",
        "cnpj": 5206385000161,
        "pf-ou-pj": "Pessoa Física",
        "info-tecnologia": [
            {
                "tecnologia": "VSAT",
                "tipo-de-Produto": "INTERNET",
                "meio-de-acesso": "Satélite",
                "quantidade-acesso": 39
            }
        ]
    },
    {
        "cidade": "Conceição do Pará",
        "uf": "MG",
        "latitude": -19.745599,
        "longitude": -44.894511,
        "empresa": "HUGHES",
        "cnpj": 5206385000161,
        "pf-ou-pj": "Pessoa Física",
        "info-tecnologia": [
            {
                "tecnologia": "VSAT",
                "tipo-de-Produto": "INTERNET",
                "meio-de-acesso": "Satélite",
                "quantidade-acesso": 11
            }
        ]
    },
    {
        "cidade": "Conceição do Rio Verde",
        "uf": "MG",
        "latitude": -21.877836,
        "longitude": -45.08703,
        "empresa": "HUGHES",
        "cnpj": 5206385000161,
        "pf-ou-pj": "Pessoa Física",
        "info-tecnologia": [
            {
                "tecnologia": "VSAT",
                "tipo-de-Produto": "INTERNET",
                "meio-de-acesso": "Satélite",
                "quantidade-acesso": 16
            }
        ]
    },
    {
        "cidade": "Conceição dos Ouros",
        "uf": "MG",
        "latitude": -22.407845,
        "longitude": -45.799599,
        "empresa": "HUGHES",
        "cnpj": 5206385000161,
        "pf-ou-pj": "Pessoa Física",
        "info-tecnologia": [
            {
                "tecnologia": "VSAT",
                "tipo-de-Produto": "INTERNET",
                "meio-de-acesso": "Satélite",
                "quantidade-acesso": 3
            }
        ]
    },
    {
        "cidade": "Congonhal",
        "uf": "MG",
        "latitude": -22.148753,
        "longitude": -46.043031,
        "empresa": "HUGHES",
        "cnpj": 5206385000161,
        "pf-ou-pj": "Pessoa Física",
        "info-tecnologia": [
            {
                "tecnologia": "VSAT",
                "tipo-de-Produto": "INTERNET",
                "meio-de-acesso": "Satélite",
                "quantidade-acesso": 2
            }
        ]
    },
    {
        "cidade": "Congonhas",
        "uf": "MG",
        "latitude": -20.495844,
        "longitude": -43.851012,
        "empresa": "HUGHES",
        "cnpj": 5206385000161,
        "pf-ou-pj": "Pessoa Física",
        "info-tecnologia": [
            {
                "tecnologia": "VSAT",
                "tipo-de-Produto": "INTERNET",
                "meio-de-acesso": "Satélite",
                "quantidade-acesso": 35
            }
        ]
    },
    {
        "cidade": "Congonhas do Norte",
        "uf": "MG",
        "latitude": -18.802053,
        "longitude": -43.67672,
        "empresa": "HUGHES",
        "cnpj": 5206385000161,
        "pf-ou-pj": "Pessoa Física",
        "info-tecnologia": [
            {
                "tecnologia": "VSAT",
                "tipo-de-Produto": "INTERNET",
                "meio-de-acesso": "Satélite",
                "quantidade-acesso": 13
            }
        ]
    },
    {
        "cidade": "Conquista",
        "uf": "MG",
        "latitude": -19.931182,
        "longitude": -47.549196,
        "empresa": "HUGHES",
        "cnpj": 5206385000161,
        "pf-ou-pj": "Pessoa Física",
        "info-tecnologia": [
            {
                "tecnologia": "VSAT",
                "tipo-de-Produto": "INTERNET",
                "meio-de-acesso": "Satélite",
                "quantidade-acesso": 12
            }
        ]
    },
    {
        "cidade": "Conselheiro Lafaiete",
        "uf": "MG",
        "latitude": -20.663445,
        "longitude": -43.784609,
        "empresa": "HUGHES",
        "cnpj": 5206385000161,
        "pf-ou-pj": "Pessoa Física",
        "info-tecnologia": [
            {
                "tecnologia": "VSAT",
                "tipo-de-Produto": "INTERNET",
                "meio-de-acesso": "Satélite",
                "quantidade-acesso": 38
            }
        ]
    },
    {
        "cidade": "Conselheiro Pena",
        "uf": "MG",
        "latitude": -19.178914,
        "longitude": -41.473554,
        "empresa": "HUGHES",
        "cnpj": 5206385000161,
        "pf-ou-pj": "Pessoa Física",
        "info-tecnologia": [
            {
                "tecnologia": "VSAT",
                "tipo-de-Produto": "INTERNET",
                "meio-de-acesso": "Satélite",
                "quantidade-acesso": 142
            }
        ]
    },
    {
        "cidade": "Consolação",
        "uf": "MG",
        "latitude": -22.54929,
        "longitude": -45.925459,
        "empresa": "HUGHES",
        "cnpj": 5206385000161,
        "pf-ou-pj": "Pessoa Física",
        "info-tecnologia": [
            {
                "tecnologia": "VSAT",
                "tipo-de-Produto": "INTERNET",
                "meio-de-acesso": "Satélite",
                "quantidade-acesso": 1
            }
        ]
    },
    {
        "cidade": "Contagem",
        "uf": "MG",
        "latitude": -19.932079,
        "longitude": -44.05392,
        "empresa": "HUGHES",
        "cnpj": 5206385000161,
        "pf-ou-pj": "Pessoa Física",
        "info-tecnologia": [
            {
                "tecnologia": "VSAT",
                "tipo-de-Produto": "INTERNET",
                "meio-de-acesso": "Satélite",
                "quantidade-acesso": 7
            }
        ]
    },
    {
        "cidade": "Coqueiral",
        "uf": "MG",
        "latitude": -21.185757,
        "longitude": -45.436568,
        "empresa": "HUGHES",
        "cnpj": 5206385000161,
        "pf-ou-pj": "Pessoa Física",
        "info-tecnologia": [
            {
                "tecnologia": "VSAT",
                "tipo-de-Produto": "INTERNET",
                "meio-de-acesso": "Satélite",
                "quantidade-acesso": 24
            }
        ]
    },
    {
        "cidade": "Coração de Jesus",
        "uf": "MG",
        "latitude": -16.684067,
        "longitude": -44.363517,
        "empresa": "HUGHES",
        "cnpj": 5206385000161,
        "pf-ou-pj": "Pessoa Física",
        "info-tecnologia": [
            {
                "tecnologia": "VSAT",
                "tipo-de-Produto": "INTERNET",
                "meio-de-acesso": "Satélite",
                "quantidade-acesso": 28
            }
        ]
    },
    {
        "cidade": "Cordisburgo",
        "uf": "MG",
        "latitude": -19.122393,
        "longitude": -44.322415,
        "empresa": "HUGHES",
        "cnpj": 5206385000161,
        "pf-ou-pj": "Pessoa Física",
        "info-tecnologia": [
            {
                "tecnologia": "VSAT",
                "tipo-de-Produto": "INTERNET",
                "meio-de-acesso": "Satélite",
                "quantidade-acesso": 15
            }
        ]
    },
    {
        "cidade": "Cordislândia",
        "uf": "MG",
        "latitude": -21.789099,
        "longitude": -45.699879,
        "empresa": "HUGHES",
        "cnpj": 5206385000161,
        "pf-ou-pj": "Pessoa Física",
        "info-tecnologia": [
            {
                "tecnologia": "VSAT",
                "tipo-de-Produto": "INTERNET",
                "meio-de-acesso": "Satélite",
                "quantidade-acesso": 2
            }
        ]
    },
    {
        "cidade": "Corinto",
        "uf": "MG",
        "latitude": -18.368967,
        "longitude": -44.454181,
        "empresa": "HUGHES",
        "cnpj": 5206385000161,
        "pf-ou-pj": "Pessoa Física",
        "info-tecnologia": [
            {
                "tecnologia": "VSAT",
                "tipo-de-Produto": "INTERNET",
                "meio-de-acesso": "Satélite",
                "quantidade-acesso": 53
            }
        ]
    },
    {
        "cidade": "Coroaci",
        "uf": "MG",
        "latitude": -18.61557,
        "longitude": -42.279099,
        "empresa": "HUGHES",
        "cnpj": 5206385000161,
        "pf-ou-pj": "Pessoa Física",
        "info-tecnologia": [
            {
                "tecnologia": "VSAT",
                "tipo-de-Produto": "INTERNET",
                "meio-de-acesso": "Satélite",
                "quantidade-acesso": 65
            }
        ]
    },
    {
        "cidade": "Coromandel",
        "uf": "MG",
        "latitude": -18.473364,
        "longitude": -47.193348,
        "empresa": "HUGHES",
        "cnpj": 5206385000161,
        "pf-ou-pj": "Pessoa Física",
        "info-tecnologia": [
            {
                "tecnologia": "VSAT",
                "tipo-de-Produto": "INTERNET",
                "meio-de-acesso": "Satélite",
                "quantidade-acesso": 235
            }
        ]
    },
    {
        "cidade": "Coronel Fabriciano",
        "uf": "MG",
        "latitude": -19.517879,
        "longitude": -42.627585,
        "empresa": "HUGHES",
        "cnpj": 5206385000161,
        "pf-ou-pj": "Pessoa Física",
        "info-tecnologia": [
            {
                "tecnologia": "VSAT",
                "tipo-de-Produto": "INTERNET",
                "meio-de-acesso": "Satélite",
                "quantidade-acesso": 8
            }
        ]
    },
    {
        "cidade": "Coronel Murta",
        "uf": "MG",
        "latitude": -16.614847,
        "longitude": -42.183952,
        "empresa": "HUGHES",
        "cnpj": 5206385000161,
        "pf-ou-pj": "Pessoa Física",
        "info-tecnologia": [
            {
                "tecnologia": "VSAT",
                "tipo-de-Produto": "INTERNET",
                "meio-de-acesso": "Satélite",
                "quantidade-acesso": 7
            }
        ]
    },
    {
        "cidade": "Coronel Pacheco",
        "uf": "MG",
        "latitude": -21.589751,
        "longitude": -43.255989,
        "empresa": "HUGHES",
        "cnpj": 5206385000161,
        "pf-ou-pj": "Pessoa Física",
        "info-tecnologia": [
            {
                "tecnologia": "VSAT",
                "tipo-de-Produto": "INTERNET",
                "meio-de-acesso": "Satélite",
                "quantidade-acesso": 6
            }
        ]
    },
    {
        "cidade": "Coronel Xavier Chaves",
        "uf": "MG",
        "latitude": -21.027724,
        "longitude": -44.2206,
        "empresa": "HUGHES",
        "cnpj": 5206385000161,
        "pf-ou-pj": "Pessoa Física",
        "info-tecnologia": [
            {
                "tecnologia": "VSAT",
                "tipo-de-Produto": "INTERNET",
                "meio-de-acesso": "Satélite",
                "quantidade-acesso": 32
            }
        ]
    },
    {
        "cidade": "Couto de Magalhães de Minas",
        "uf": "MG",
        "latitude": -18.07272,
        "longitude": -43.464821,
        "empresa": "HUGHES",
        "cnpj": 5206385000161,
        "pf-ou-pj": "Pessoa Física",
        "info-tecnologia": [
            {
                "tecnologia": "VSAT",
                "tipo-de-Produto": "INTERNET",
                "meio-de-acesso": "Satélite",
                "quantidade-acesso": 8
            }
        ]
    },
    {
        "cidade": "Cristais",
        "uf": "MG",
        "latitude": -20.87328,
        "longitude": -45.516727,
        "empresa": "HUGHES",
        "cnpj": 5206385000161,
        "pf-ou-pj": "Pessoa Física",
        "info-tecnologia": [
            {
                "tecnologia": "VSAT",
                "tipo-de-Produto": "INTERNET",
                "meio-de-acesso": "Satélite",
                "quantidade-acesso": 56
            }
        ]
    },
    {
        "cidade": "Cristiano Otoni",
        "uf": "MG",
        "latitude": -20.832421,
        "longitude": -43.816552,
        "empresa": "HUGHES",
        "cnpj": 5206385000161,
        "pf-ou-pj": "Pessoa Física",
        "info-tecnologia": [
            {
                "tecnologia": "VSAT",
                "tipo-de-Produto": "INTERNET",
                "meio-de-acesso": "Satélite",
                "quantidade-acesso": 7
            }
        ]
    },
    {
        "cidade": "Cristina",
        "uf": "MG",
        "latitude": -22.207982,
        "longitude": -45.267266,
        "empresa": "HUGHES",
        "cnpj": 5206385000161,
        "pf-ou-pj": "Pessoa Física",
        "info-tecnologia": [
            {
                "tecnologia": "VSAT",
                "tipo-de-Produto": "INTERNET",
                "meio-de-acesso": "Satélite",
                "quantidade-acesso": 4
            }
        ]
    },
    {
        "cidade": "Cristália",
        "uf": "MG",
        "latitude": -16.716014,
        "longitude": -42.85712,
        "empresa": "HUGHES",
        "cnpj": 5206385000161,
        "pf-ou-pj": "Pessoa Física",
        "info-tecnologia": [
            {
                "tecnologia": "VSAT",
                "tipo-de-Produto": "INTERNET",
                "meio-de-acesso": "Satélite",
                "quantidade-acesso": 1
            }
        ]
    },
    {
        "cidade": "Crisólita",
        "uf": "MG",
        "latitude": -17.238124,
        "longitude": -40.918392,
        "empresa": "HUGHES",
        "cnpj": 5206385000161,
        "pf-ou-pj": "Pessoa Física",
        "info-tecnologia": [
            {
                "tecnologia": "VSAT",
                "tipo-de-Produto": "INTERNET",
                "meio-de-acesso": "Satélite",
                "quantidade-acesso": 39
            }
        ]
    },
    {
        "cidade": "Crucilândia",
        "uf": "MG",
        "latitude": -20.392314,
        "longitude": -44.333425,
        "empresa": "HUGHES",
        "cnpj": 5206385000161,
        "pf-ou-pj": "Pessoa Física",
        "info-tecnologia": [
            {
                "tecnologia": "VSAT",
                "tipo-de-Produto": "INTERNET",
                "meio-de-acesso": "Satélite",
                "quantidade-acesso": 23
            }
        ]
    },
    {
        "cidade": "Cruzeiro da Fortaleza",
        "uf": "MG",
        "latitude": -18.944029,
        "longitude": -46.666891,
        "empresa": "HUGHES",
        "cnpj": 5206385000161,
        "pf-ou-pj": "Pessoa Física",
        "info-tecnologia": [
            {
                "tecnologia": "VSAT",
                "tipo-de-Produto": "INTERNET",
                "meio-de-acesso": "Satélite",
                "quantidade-acesso": 6
            }
        ]
    },
    {
        "cidade": "Cruzília",
        "uf": "MG",
        "latitude": -21.839985,
        "longitude": -44.806678,
        "empresa": "HUGHES",
        "cnpj": 5206385000161,
        "pf-ou-pj": "Pessoa Física",
        "info-tecnologia": [
            {
                "tecnologia": "VSAT",
                "tipo-de-Produto": "INTERNET",
                "meio-de-acesso": "Satélite",
                "quantidade-acesso": 40
            }
        ]
    },
    {
        "cidade": "Cuparaque",
        "uf": "MG",
        "latitude": -18.964827,
        "longitude": -41.098621,
        "empresa": "HUGHES",
        "cnpj": 5206385000161,
        "pf-ou-pj": "Pessoa Física",
        "info-tecnologia": [
            {
                "tecnologia": "VSAT",
                "tipo-de-Produto": "INTERNET",
                "meio-de-acesso": "Satélite",
                "quantidade-acesso": 17
            }
        ]
    },