[
    {
        "cidade": "Abaré",
        "uf": "BA",
        "latitude": -8.720734,
        "longitude": -39.116178,
        "empresa": "HUGHES",
        "cnpj": 5206385000161,
        "pf-ou-pj": "Pessoa Jurídica",
        "info-tecnologia": [
            {
                "tecnologia": "VSAT",
                "tipo-de-Produto": "INTERNET",
                "meio-de-acesso": "Satélite",
                "quantidade-acesso": 12
            }
        ]
    },
    {
        "cidade": "Acajutiba",
        "uf": "BA",
        "latitude": -11.657522,
        "longitude": -38.019737,
        "empresa": "HUGHES",
        "cnpj": 5206385000161,
        "pf-ou-pj": "Pessoa Jurídica",
        "info-tecnologia": [
            {
                "tecnologia": "VSAT",
                "tipo-de-Produto": "INTERNET",
                "meio-de-acesso": "Satélite",
                "quantidade-acesso": 1
            }
        ]
    },
    {
        "cidade": "Aiquara",
        "uf": "BA",
        "latitude": -14.126918,
        "longitude": -39.893653,
        "empresa": "HUGHES",
        "cnpj": 5206385000161,
        "pf-ou-pj": "Pessoa Jurídica",
        "info-tecnologia": [
            {
                "tecnologia": "VSAT",
                "tipo-de-Produto": "INTERNET",
                "meio-de-acesso": "Satélite",
                "quantidade-acesso": 6
            }
        ]
    },
    {
        "cidade": "Alagoinhas",
        "uf": "BA",
        "latitude": -12.133526,
        "longitude": -38.420772,
        "empresa": "HUGHES",
        "cnpj": 5206385000161,
        "pf-ou-pj": "Pessoa Jurídica",
        "info-tecnologia": [
            {
                "tecnologia": "VSAT",
                "tipo-de-Produto": "INTERNET",
                "meio-de-acesso": "Satélite",
                "quantidade-acesso": 10
            }
        ]
    },
    {
        "cidade": "Alcobaça",
        "uf": "BA",
        "latitude": -17.519468,
        "longitude": -39.203609,
        "empresa": "HUGHES",
        "cnpj": 5206385000161,
        "pf-ou-pj": "Pessoa Jurídica",
        "info-tecnologia": [
            {
                "tecnologia": "VSAT",
                "tipo-de-Produto": "INTERNET",
                "meio-de-acesso": "Satélite",
                "quantidade-acesso": 147
            }
        ]
    },
    {
        "cidade": "Almadina",
        "uf": "BA",
        "latitude": -14.708869,
        "longitude": -39.641491,
        "empresa": "HUGHES",
        "cnpj": 5206385000161,
        "pf-ou-pj": "Pessoa Jurídica",
        "info-tecnologia": [
            {
                "tecnologia": "VSAT",
                "tipo-de-Produto": "INTERNET",
                "meio-de-acesso": "Satélite",
                "quantidade-acesso": 2
            }
        ]
    },
    {
        "cidade": "Amargosa",
        "uf": "BA",
        "latitude": -13.021462,
        "longitude": -39.601966,
        "empresa": "HUGHES",
        "cnpj": 5206385000161,
        "pf-ou-pj": "Pessoa Jurídica",
        "info-tecnologia": [
            {
                "tecnologia": "VSAT",
                "tipo-de-Produto": "INTERNET",
                "meio-de-acesso": "Satélite",
                "quantidade-acesso": 2
            }
        ]
    },
    {
        "cidade": "América Dourada",
        "uf": "BA",
        "latitude": -11.442938,
        "longitude": -41.439007,
        "empresa": "HUGHES",
        "cnpj": 5206385000161,
        "pf-ou-pj": "Pessoa Jurídica",
        "info-tecnologia": [
            {
                "tecnologia": "VSAT",
                "tipo-de-Produto": "INTERNET",
                "meio-de-acesso": "Satélite",
                "quantidade-acesso": 4
            }
        ]
    },
    {
        "cidade": "Anagé",
        "uf": "BA",
        "latitude": -14.61512,
        "longitude": -41.135569,
        "empresa": "HUGHES",
        "cnpj": 5206385000161,
        "pf-ou-pj": "Pessoa Jurídica",
        "info-tecnologia": [
            {
                "tecnologia": "VSAT",
                "tipo-de-Produto": "INTERNET",
                "meio-de-acesso": "Satélite",
                "quantidade-acesso": 3
            }
        ]
    },
    {
        "cidade": "Andaraí",
        "uf": "BA",
        "latitude": -12.804916,
        "longitude": -41.329658,
        "empresa": "HUGHES",
        "cnpj": 5206385000161,
        "pf-ou-pj": "Pessoa Jurídica",
        "info-tecnologia": [
            {
                "tecnologia": "VSAT",
                "tipo-de-Produto": "INTERNET",
                "meio-de-acesso": "Satélite",
                "quantidade-acesso": 1
            }
        ]
    },
    {
        "cidade": "Andorinha",
        "uf": "BA",
        "latitude": -10.348214,
        "longitude": -39.839142,
        "empresa": "HUGHES",
        "cnpj": 5206385000161,
        "pf-ou-pj": "Pessoa Jurídica",
        "info-tecnologia": [
            {
                "tecnologia": "VSAT",
                "tipo-de-Produto": "INTERNET",
                "meio-de-acesso": "Satélite",
                "quantidade-acesso": 3
            }
        ]
    },
    {
        "cidade": "Angical",
        "uf": "BA",
        "latitude": -12.006313,
        "longitude": -44.700272,
        "empresa": "HUGHES",
        "cnpj": 5206385000161,
        "pf-ou-pj": "Pessoa Jurídica",
        "info-tecnologia": [
            {
                "tecnologia": "VSAT",
                "tipo-de-Produto": "INTERNET",
                "meio-de-acesso": "Satélite",
                "quantidade-acesso": 1
            }
        ]
    },
    {
        "cidade": "Antas",
        "uf": "BA",
        "latitude": -10.385621,
        "longitude": -38.340118,
        "empresa": "HUGHES",
        "cnpj": 5206385000161,
        "pf-ou-pj": "Pessoa Jurídica",
        "info-tecnologia": [
            {
                "tecnologia": "VSAT",
                "tipo-de-Produto": "INTERNET",
                "meio-de-acesso": "Satélite",
                "quantidade-acesso": 2
            }
        ]
    },
    {
        "cidade": "Antônio Cardoso",
        "uf": "BA",
        "latitude": -12.433493,
        "longitude": -39.117555,
        "empresa": "HUGHES",
        "cnpj": 5206385000161,
        "pf-ou-pj": "Pessoa Jurídica",
        "info-tecnologia": [
            {
                "tecnologia": "VSAT",
                "tipo-de-Produto": "INTERNET",
                "meio-de-acesso": "Satélite",
                "quantidade-acesso": 2
            }
        ]
    },
    {
        "cidade": "Antônio Gonçalves",
        "uf": "BA",
        "latitude": -10.576686,
        "longitude": -40.278489,
        "empresa": "HUGHES",
        "cnpj": 5206385000161,
        "pf-ou-pj": "Pessoa Jurídica",
        "info-tecnologia": [
            {
                "tecnologia": "VSAT",
                "tipo-de-Produto": "INTERNET",
                "meio-de-acesso": "Satélite",
                "quantidade-acesso": 4
            }
        ]
    },
    {
        "cidade": "Aporá",
        "uf": "BA",
        "latitude": -11.657708,
        "longitude": -38.081418,
        "empresa": "HUGHES",
        "cnpj": 5206385000161,
        "pf-ou-pj": "Pessoa Jurídica",
        "info-tecnologia": [
            {
                "tecnologia": "VSAT",
                "tipo-de-Produto": "INTERNET",
                "meio-de-acesso": "Satélite",
                "quantidade-acesso": 3
            }
        ]
    },
    {
        "cidade": "Apuarema",
        "uf": "BA",
        "latitude": -13.854241,
        "longitude": -39.750148,
        "empresa": "HUGHES",
        "cnpj": 5206385000161,
        "pf-ou-pj": "Pessoa Jurídica",
        "info-tecnologia": [
            {
                "tecnologia": "VSAT",
                "tipo-de-Produto": "INTERNET",
                "meio-de-acesso": "Satélite",
                "quantidade-acesso": 12
            }
        ]
    },
    {
        "cidade": "Araci",
        "uf": "BA",
        "latitude": -11.325316,
        "longitude": -38.958385,
        "empresa": "HUGHES",
        "cnpj": 5206385000161,
        "pf-ou-pj": "Pessoa Jurídica",
        "info-tecnologia": [
            {
                "tecnologia": "VSAT",
                "tipo-de-Produto": "INTERNET",
                "meio-de-acesso": "Satélite",
                "quantidade-acesso": 5
            }
        ]
    },
    {
        "cidade": "Aramari",
        "uf": "BA",
        "latitude": -12.088399,
        "longitude": -38.496937,
        "empresa": "HUGHES",
        "cnpj": 5206385000161,
        "pf-ou-pj": "Pessoa Jurídica",
        "info-tecnologia": [
            {
                "tecnologia": "VSAT",
                "tipo-de-Produto": "INTERNET",
                "meio-de-acesso": "Satélite",
                "quantidade-acesso": 8
            }
        ]
    },
    {
        "cidade": "Arataca",
        "uf": "BA",
        "latitude": -15.265099,
        "longitude": -39.419017,
        "empresa": "HUGHES",
        "cnpj": 5206385000161,
        "pf-ou-pj": "Pessoa Jurídica",
        "info-tecnologia": [
            {
                "tecnologia": "VSAT",
                "tipo-de-Produto": "INTERNET",
                "meio-de-acesso": "Satélite",
                "quantidade-acesso": 23
            }
        ]
    },
    {
        "cidade": "Aratuípe",
        "uf": "BA",
        "latitude": -13.071595,
        "longitude": -39.003763,
        "empresa": "HUGHES",
        "cnpj": 5206385000161,
        "pf-ou-pj": "Pessoa Jurídica",
        "info-tecnologia": [
            {
                "tecnologia": "VSAT",
                "tipo-de-Produto": "INTERNET",
                "meio-de-acesso": "Satélite",
                "quantidade-acesso": 7
            }
        ]
    },
    {
        "cidade": "Araças",
        "uf": "BA",
        "latitude": -12.220038,
        "longitude": -38.202658,
        "empresa": "HUGHES",
        "cnpj": 5206385000161,
        "pf-ou-pj": "Pessoa Jurídica",
        "info-tecnologia": [
            {
                "tecnologia": "VSAT",
                "tipo-de-Produto": "INTERNET",
                "meio-de-acesso": "Satélite",
                "quantidade-acesso": 71
            }
        ]
    },
    {
        "cidade": "Aurelino Leal",
        "uf": "BA",
        "latitude": -14.320954,
        "longitude": -39.329035,
        "empresa": "HUGHES",
        "cnpj": 5206385000161,
        "pf-ou-pj": "Pessoa Jurídica",
        "info-tecnologia": [
            {
                "tecnologia": "VSAT",
                "tipo-de-Produto": "INTERNET",
                "meio-de-acesso": "Satélite",
                "quantidade-acesso": 5
            }
        ]
    },
    {
        "cidade": "Baianópolis",
        "uf": "BA",
        "latitude": -12.301641,
        "longitude": -44.538829,
        "empresa": "HUGHES",
        "cnpj": 5206385000161,
        "pf-ou-pj": "Pessoa Jurídica",
        "info-tecnologia": [
            {
                "tecnologia": "VSAT",
                "tipo-de-Produto": "INTERNET",
                "meio-de-acesso": "Satélite",
                "quantidade-acesso": 6
            }
        ]
    },
    {
        "cidade": "Baixa Grande",
        "uf": "BA",
        "latitude": -11.951884,
        "longitude": -40.16897,
        "empresa": "HUGHES",
        "cnpj": 5206385000161,
        "pf-ou-pj": "Pessoa Jurídica",
        "info-tecnologia": [
            {
                "tecnologia": "VSAT",
                "tipo-de-Produto": "INTERNET",
                "meio-de-acesso": "Satélite",
                "quantidade-acesso": 11
            }
        ]
    },
    {
        "cidade": "Banzaê",
        "uf": "BA",
        "latitude": -10.578784,
        "longitude": -38.621243,
        "empresa": "HUGHES",
        "cnpj": 5206385000161,
        "pf-ou-pj": "Pessoa Jurídica",
        "info-tecnologia": [
            {
                "tecnologia": "VSAT",
                "tipo-de-Produto": "INTERNET",
                "meio-de-acesso": "Satélite",
                "quantidade-acesso": 3
            }
        ]
    },
    {
        "cidade": "Barra",
        "uf": "BA",
        "latitude": -11.0859,
        "longitude": -43.145913,
        "empresa": "HUGHES",
        "cnpj": 5206385000161,
        "pf-ou-pj": "Pessoa Jurídica",
        "info-tecnologia": [
            {
                "tecnologia": "VSAT",
                "tipo-de-Produto": "INTERNET",
                "meio-de-acesso": "Satélite",
                "quantidade-acesso": 1
            }
        ]
    },
    {
        "cidade": "Barra da Estiva",
        "uf": "BA",
        "latitude": -13.623699,
        "longitude": -41.334697,
        "empresa": "HUGHES",
        "cnpj": 5206385000161,
        "pf-ou-pj": "Pessoa Jurídica",
        "info-tecnologia": [
            {
                "tecnologia": "VSAT",
                "tipo-de-Produto": "INTERNET",
                "meio-de-acesso": "Satélite",
                "quantidade-acesso": 9
            }
        ]
    },
    {
        "cidade": "Barra do Choça",
        "uf": "BA",
        "latitude": -14.865423,
        "longitude": -40.579058,
        "empresa": "HUGHES",
        "cnpj": 5206385000161,
        "pf-ou-pj": "Pessoa Jurídica",
        "info-tecnologia": [
            {
                "tecnologia": "VSAT",
                "tipo-de-Produto": "INTERNET",
                "meio-de-acesso": "Satélite",
                "quantidade-acesso": 3
            }
        ]
    },
    {
        "cidade": "Barra do Mendes",
        "uf": "BA",
        "latitude": -11.81,
        "longitude": -42.058999,
        "empresa": "HUGHES",
        "cnpj": 5206385000161,
        "pf-ou-pj": "Pessoa Jurídica",
        "info-tecnologia": [
            {
                "tecnologia": "VSAT",
                "tipo-de-Produto": "INTERNET",
                "meio-de-acesso": "Satélite",
                "quantidade-acesso": 109
            }
        ]
    },
    {
        "cidade": "Barra do Rocha",
        "uf": "BA",
        "latitude": -14.199994,
        "longitude": -39.599098,
        "empresa": "HUGHES",
        "cnpj": 5206385000161,
        "pf-ou-pj": "Pessoa Jurídica",
        "info-tecnologia": [
            {
                "tecnologia": "VSAT",
                "tipo-de-Produto": "INTERNET",
                "meio-de-acesso": "Satélite",
                "quantidade-acesso": 16
            }
        ]
    },
    {
        "cidade": "Barreiras",
        "uf": "BA",
        "latitude": -12.143864,
        "longitude": -44.996838,
        "empresa": "HUGHES",
        "cnpj": 5206385000161,
        "pf-ou-pj": "Pessoa Jurídica",
        "info-tecnologia": [
            {
                "tecnologia": "VSAT",
                "tipo-de-Produto": "INTERNET",
                "meio-de-acesso": "Satélite",
                "quantidade-acesso": 18
            }
        ]
    },
    {
        "cidade": "Barro Alto",
        "uf": "BA",
        "latitude": -11.760493,
        "longitude": -41.905441,
        "empresa": "HUGHES",
        "cnpj": 5206385000161,
        "pf-ou-pj": "Pessoa Jurídica",
        "info-tecnologia": [
            {
                "tecnologia": "VSAT",
                "tipo-de-Produto": "INTERNET",
                "meio-de-acesso": "Satélite",
                "quantidade-acesso": 6
            }
        ]
    },
    {
        "cidade": "Barro Preto",
        "uf": "BA",
        "latitude": -14.794773,
        "longitude": -39.476029,
        "empresa": "HUGHES",
        "cnpj": 5206385000161,
        "pf-ou-pj": "Pessoa Jurídica",
        "info-tecnologia": [
            {
                "tecnologia": "VSAT",
                "tipo-de-Produto": "INTERNET",
                "meio-de-acesso": "Satélite",
                "quantidade-acesso": 13
            }
        ]
    },
    {
        "cidade": "Belmonte",
        "uf": "BA",
        "latitude": -15.860789,
        "longitude": -38.87578,
        "empresa": "HUGHES",
        "cnpj": 5206385000161,
        "pf-ou-pj": "Pessoa Jurídica",
        "info-tecnologia": [
            {
                "tecnologia": "VSAT",
                "tipo-de-Produto": "INTERNET",
                "meio-de-acesso": "Satélite",
                "quantidade-acesso": 18
            }
        ]
    },
    {
        "cidade": "Belo Campo",
        "uf": "BA",
        "latitude": -15.033362,
        "longitude": -41.265172,
        "empresa": "HUGHES",
        "cnpj": 5206385000161,
        "pf-ou-pj": "Pessoa Jurídica",
        "info-tecnologia": [
            {
                "tecnologia": "VSAT",
                "tipo-de-Produto": "INTERNET",
                "meio-de-acesso": "Satélite",
                "quantidade-acesso": 5
            }
        ]
    },
    {
        "cidade": "Biritinga",
        "uf": "BA",
        "latitude": -11.607156,
        "longitude": -38.805055,
        "empresa": "HUGHES",
        "cnpj": 5206385000161,
        "pf-ou-pj": "Pessoa Jurídica",
        "info-tecnologia": [
            {
                "tecnologia": "VSAT",
                "tipo-de-Produto": "INTERNET",
                "meio-de-acesso": "Satélite",
                "quantidade-acesso": 4
            }
        ]
    },
    {
        "cidade": "Boa Nova",
        "uf": "BA",
        "latitude": -14.359754,
        "longitude": -40.206444,
        "empresa": "HUGHES",
        "cnpj": 5206385000161,
        "pf-ou-pj": "Pessoa Jurídica",
        "info-tecnologia": [
            {
                "tecnologia": "VSAT",
                "tipo-de-Produto": "INTERNET",
                "meio-de-acesso": "Satélite",
                "quantidade-acesso": 3
            }
        ]
    },
    {
        "cidade": "Boa Vista do Tupim",
        "uf": "BA",
        "latitude": -12.649774,
        "longitude": -40.606376,
        "empresa": "HUGHES",
        "cnpj": 5206385000161,
        "pf-ou-pj": "Pessoa Jurídica",
        "info-tecnologia": [
            {
                "tecnologia": "VSAT",
                "tipo-de-Produto": "INTERNET",
                "meio-de-acesso": "Satélite",
                "quantidade-acesso": 92
            }
        ]
    },
    {
        "cidade": "Bom Jesus da Lapa",
        "uf": "BA",
        "latitude": -13.250571,
        "longitude": -43.410754,
        "empresa": "HUGHES",
        "cnpj": 5206385000161,
        "pf-ou-pj": "Pessoa Jurídica",
        "info-tecnologia": [
            {
                "tecnologia": "VSAT",
                "tipo-de-Produto": "INTERNET",
                "meio-de-acesso": "Satélite",
                "quantidade-acesso": 2
            }
        ]
    },
    {
        "cidade": "Bom Jesus da Serra",
        "uf": "BA",
        "latitude": -14.366312,
        "longitude": -40.512556,
        "empresa": "HUGHES",
        "cnpj": 5206385000161,
        "pf-ou-pj": "Pessoa Jurídica",
        "info-tecnologia": [
            {
                "tecnologia": "VSAT",
                "tipo-de-Produto": "INTERNET",
                "meio-de-acesso": "Satélite",
                "quantidade-acesso": 3
            }
        ]
    },
    {
        "cidade": "Boninal",
        "uf": "BA",
        "latitude": -12.706887,
        "longitude": -41.828604,
        "empresa": "HUGHES",
        "cnpj": 5206385000161,
        "pf-ou-pj": "Pessoa Jurídica",
        "info-tecnologia": [
            {
                "tecnologia": "VSAT",
                "tipo-de-Produto": "INTERNET",
                "meio-de-acesso": "Satélite",
                "quantidade-acesso": 4
            }
        ]
    },
    {
        "cidade": "Bonito",
        "uf": "BA",
        "latitude": -11.966768,
        "longitude": -41.264698,
        "empresa": "HUGHES",
        "cnpj": 5206385000161,
        "pf-ou-pj": "Pessoa Jurídica",
        "info-tecnologia": [
            {
                "tecnologia": "VSAT",
                "tipo-de-Produto": "INTERNET",
                "meio-de-acesso": "Satélite",
                "quantidade-acesso": 3
            }
        ]
    },
    {
        "cidade": "Brejolândia",
        "uf": "BA",
        "latitude": -12.481547,
        "longitude": -43.967855,
        "empresa": "HUGHES",
        "cnpj": 5206385000161,
        "pf-ou-pj": "Pessoa Jurídica",
        "info-tecnologia": [
            {
                "tecnologia": "VSAT",
                "tipo-de-Produto": "INTERNET",
                "meio-de-acesso": "Satélite",
                "quantidade-acesso": 9
            }
        ]
    },
    {
        "cidade": "Brejões",
        "uf": "BA",
        "latitude": -13.103948,
        "longitude": -39.798797,
        "empresa": "HUGHES",
        "cnpj": 5206385000161,
        "pf-ou-pj": "Pessoa Jurídica",
        "info-tecnologia": [
            {
                "tecnologia": "VSAT",
                "tipo-de-Produto": "INTERNET",
                "meio-de-acesso": "Satélite",
                "quantidade-acesso": 9
            }
        ]
    },
    {
        "cidade": "Brotas de Macaúbas",
        "uf": "BA",
        "latitude": -11.991452,
        "longitude": -42.632609,
        "empresa": "HUGHES",
        "cnpj": 5206385000161,
        "pf-ou-pj": "Pessoa Jurídica",
        "info-tecnologia": [
            {
                "tecnologia": "VSAT",
                "tipo-de-Produto": "INTERNET",
                "meio-de-acesso": "Satélite",
                "quantidade-acesso": 3
            }
        ]
    },
    {
        "cidade": "Brumado",
        "uf": "BA",
        "latitude": -14.202127,
        "longitude": -41.669592,
        "empresa": "HUGHES",
        "cnpj": 5206385000161,
        "pf-ou-pj": "Pessoa Jurídica",
        "info-tecnologia": [
            {
                "tecnologia": "VSAT",
                "tipo-de-Produto": "INTERNET",
                "meio-de-acesso": "Satélite",
                "quantidade-acesso": 2
            }
        ]
    },
    {
        "cidade": "Buerarema",
        "uf": "BA",
        "latitude": -14.959497,
        "longitude": -39.302849,
        "empresa": "HUGHES",
        "cnpj": 5206385000161,
        "pf-ou-pj": "Pessoa Jurídica",
        "info-tecnologia": [
            {
                "tecnologia": "VSAT",
                "tipo-de-Produto": "INTERNET",
                "meio-de-acesso": "Satélite",
                "quantidade-acesso": 7
            }
        ]
    },
    {
        "cidade": "Buritirama",
        "uf": "BA",
        "latitude": -10.717055,
        "longitude": -43.630231,
        "empresa": "HUGHES",
        "cnpj": 5206385000161,
        "pf-ou-pj": "Pessoa Jurídica",
        "info-tecnologia": [
            {
                "tecnologia": "VSAT",
                "tipo-de-Produto": "INTERNET",
                "meio-de-acesso": "Satélite",
                "quantidade-acesso": 3
            }
        ]
    },
    {
        "cidade": "Caatiba",
        "uf": "BA",
        "latitude": -14.969854,
        "longitude": -40.409156,
        "empresa": "HUGHES",
        "cnpj": 5206385000161,
        "pf-ou-pj": "Pessoa Jurídica",
        "info-tecnologia": [
            {
                "tecnologia": "VSAT",
                "tipo-de-Produto": "INTERNET",
                "meio-de-acesso": "Satélite",
                "quantidade-acesso": 14
            }
        ]
    },
    {
        "cidade": "Cabaceiras do Paraguaçu",
        "uf": "BA",
        "latitude": -12.531694,
        "longitude": -39.190231,
        "empresa": "HUGHES",
        "cnpj": 5206385000161,
        "pf-ou-pj": "Pessoa Jurídica",
        "info-tecnologia": [
            {
                "tecnologia": "VSAT",
                "tipo-de-Produto": "INTERNET",
                "meio-de-acesso": "Satélite",
                "quantidade-acesso": 4
            }
        ]
    },
    {
        "cidade": "Cachoeira",
        "uf": "BA",
        "latitude": -12.599443,
        "longitude": -38.958695,
        "empresa": "HUGHES",
        "cnpj": 5206385000161,
        "pf-ou-pj": "Pessoa Jurídica",
        "info-tecnologia": [
            {
                "tecnologia": "VSAT",
                "tipo-de-Produto": "INTERNET",
                "meio-de-acesso": "Satélite",
                "quantidade-acesso": 2
            }
        ]
    },
    {
        "cidade": "Caetanos",
        "uf": "BA",
        "latitude": -14.334745,
        "longitude": -40.917506,
        "empresa": "HUGHES",
        "cnpj": 5206385000161,
        "pf-ou-pj": "Pessoa Jurídica",
        "info-tecnologia": [
            {
                "tecnologia": "VSAT",
                "tipo-de-Produto": "INTERNET",
                "meio-de-acesso": "Satélite",
                "quantidade-acesso": 2
            }
        ]
    },
    {
        "cidade": "Caetité",
        "uf": "BA",
        "latitude": -14.068422,
        "longitude": -42.486133,
        "empresa": "HUGHES",
        "cnpj": 5206385000161,
        "pf-ou-pj": "Pessoa Jurídica",
        "info-tecnologia": [
            {
                "tecnologia": "VSAT",
                "tipo-de-Produto": "INTERNET",
                "meio-de-acesso": "Satélite",
                "quantidade-acesso": 3
            }
        ]
    },
    {
        "cidade": "Cafarnaum",
        "uf": "BA",
        "latitude": -11.691399,
        "longitude": -41.468823,
        "empresa": "HUGHES",
        "cnpj": 5206385000161,
        "pf-ou-pj": "Pessoa Jurídica",
        "info-tecnologia": [
            {
                "tecnologia": "VSAT",
                "tipo-de-Produto": "INTERNET",
                "meio-de-acesso": "Satélite",
                "quantidade-acesso": 4
            }
        ]
    },
    {
        "cidade": "Cairu",
        "uf": "BA",
        "latitude": -13.490377,
        "longitude": -39.046525,
        "empresa": "HUGHES",
        "cnpj": 5206385000161,
        "pf-ou-pj": "Pessoa Jurídica",
        "info-tecnologia": [
            {
                "tecnologia": "VSAT",
                "tipo-de-Produto": "INTERNET",
                "meio-de-acesso": "Satélite",
                "quantidade-acesso": 4
            }
        ]
    },
    {
        "cidade": "Caldeirão Grande",
        "uf": "BA",
        "latitude": -11.020798,
        "longitude": -40.295577,
        "empresa": "HUGHES",
        "cnpj": 5206385000161,
        "pf-ou-pj": "Pessoa Jurídica",
        "info-tecnologia": [
            {
                "tecnologia": "VSAT",
                "tipo-de-Produto": "INTERNET",
                "meio-de-acesso": "Satélite",
                "quantidade-acesso": 1
            }
        ]
    },
    {
        "cidade": "Camacan",
        "uf": "BA",
        "latitude": -15.414157,
        "longitude": -39.491937,
        "empresa": "HUGHES",
        "cnpj": 5206385000161,
        "pf-ou-pj": "Pessoa Jurídica",
        "info-tecnologia": [
            {
                "tecnologia": "VSAT",
                "tipo-de-Produto": "INTERNET",
                "meio-de-acesso": "Satélite",
                "quantidade-acesso": 5
            }
        ]
    },
    {
        "cidade": "Camamu",
        "uf": "BA",
        "latitude": -13.939773,
        "longitude": -39.107082,
        "empresa": "HUGHES",
        "cnpj": 5206385000161,
        "pf-ou-pj": "Pessoa Jurídica",
        "info-tecnologia": [
            {
                "tecnologia": "VSAT",
                "tipo-de-Produto": "INTERNET",
                "meio-de-acesso": "Satélite",
                "quantidade-acesso": 73
            }
        ]
    },
    {
        "cidade": "Camaçari",
        "uf": "BA",
        "latitude": -12.699638,
        "longitude": -38.326265,
        "empresa": "HUGHES",
        "cnpj": 5206385000161,
        "pf-ou-pj": "Pessoa Jurídica",
        "info-tecnologia": [
            {
                "tecnologia": "VSAT",
                "tipo-de-Produto": "INTERNET",
                "meio-de-acesso": "Satélite",
                "quantidade-acesso": 34
            }
        ]
    },
    {
        "cidade": "Campo Alegre de Lourdes",
        "uf": "BA",
        "latitude": -9.522212,
        "longitude": -43.01258,
        "empresa": "HUGHES",
        "cnpj": 5206385000161,
        "pf-ou-pj": "Pessoa Jurídica",
        "info-tecnologia": [
            {
                "tecnologia": "VSAT",
                "tipo-de-Produto": "INTERNET",
                "meio-de-acesso": "Satélite",
                "quantidade-acesso": 3
            }
        ]
    },
    {
        "cidade": "Campo Formoso",
        "uf": "BA",
        "latitude": -10.51055,
        "longitude": -40.320031,
        "empresa": "HUGHES",
        "cnpj": 5206385000161,
        "pf-ou-pj": "Pessoa Jurídica",
        "info-tecnologia": [
            {
                "tecnologia": "VSAT",
                "tipo-de-Produto": "INTERNET",
                "meio-de-acesso": "Satélite",
                "quantidade-acesso": 8
            }
        ]
    },
    {
        "cidade": "Canarana",
        "uf": "BA",
        "latitude": -11.685831,
        "longitude": -41.767705,
        "empresa": "HUGHES",
        "cnpj": 5206385000161,
        "pf-ou-pj": "Pessoa Jurídica",
        "info-tecnologia": [
            {
                "tecnologia": "VSAT",
                "tipo-de-Produto": "INTERNET",
                "meio-de-acesso": "Satélite",
                "quantidade-acesso": 13
            }
        ]
    },
    {
        "cidade": "Canavieiras",
        "uf": "BA",
        "latitude": -15.672205,
        "longitude": -38.953648,
        "empresa": "HUGHES",
        "cnpj": 5206385000161,
        "pf-ou-pj": "Pessoa Jurídica",
        "info-tecnologia": [
            {
                "tecnologia": "VSAT",
                "tipo-de-Produto": "INTERNET",
                "meio-de-acesso": "Satélite",
                "quantidade-acesso": 10
            }
        ]
    },
    {
        "cidade": "Candeias",
        "uf": "BA",
        "latitude": -12.671566,
        "longitude": -38.547152,
        "empresa": "HUGHES",
        "cnpj": 5206385000161,
        "pf-ou-pj": "Pessoa Jurídica",
        "info-tecnologia": [
            {
                "tecnologia": "VSAT",
                "tipo-de-Produto": "INTERNET",
                "meio-de-acesso": "Satélite",
                "quantidade-acesso": 9
            }
        ]
    },
    {
        "cidade": "Cansanção",
        "uf": "BA",
        "latitude": -10.664713,
        "longitude": -39.494388,
        "empresa": "HUGHES",
        "cnpj": 5206385000161,
        "pf-ou-pj": "Pessoa Jurídica",
        "info-tecnologia": [
            {
                "tecnologia": "VSAT",
                "tipo-de-Produto": "INTERNET",
                "meio-de-acesso": "Satélite",
                "quantidade-acesso": 2
            }
        ]
    },
    {
        "cidade": "Capim Grosso",
        "uf": "BA",
        "latitude": -11.379659,
        "longitude": -40.008951,
        "empresa": "HUGHES",
        "cnpj": 5206385000161,
        "pf-ou-pj": "Pessoa Jurídica",
        "info-tecnologia": [
            {
                "tecnologia": "VSAT",
                "tipo-de-Produto": "INTERNET",
                "meio-de-acesso": "Satélite",
                "quantidade-acesso": 7
            }
        ]
    },
    {
        "cidade": "Caravelas",
        "uf": "BA",
        "latitude": -17.726839,
        "longitude": -39.259679,
        "empresa": "HUGHES",
        "cnpj": 5206385000161,
        "pf-ou-pj": "Pessoa Jurídica",
        "info-tecnologia": [
            {
                "tecnologia": "VSAT",
                "tipo-de-Produto": "INTERNET",
                "meio-de-acesso": "Satélite",
                "quantidade-acesso": 62
            }
        ]
    },
    {
        "cidade": "Cardeal da Silva",
        "uf": "BA",
        "latitude": -11.947191,
        "longitude": -37.946905,
        "empresa": "HUGHES",
        "cnpj": 5206385000161,
        "pf-ou-pj": "Pessoa Jurídica",
        "info-tecnologia": [
            {
                "tecnologia": "VSAT",
                "tipo-de-Produto": "INTERNET",
                "meio-de-acesso": "Satélite",
                "quantidade-acesso": 43
            }
        ]
    },
    {
        "cidade": "Casa Nova",
        "uf": "BA",
        "latitude": -9.164083,
        "longitude": -40.973977,
        "empresa": "HUGHES",
        "cnpj": 5206385000161,
        "pf-ou-pj": "Pessoa Jurídica",
        "info-tecnologia": [
            {
                "tecnologia": "VSAT",
                "tipo-de-Produto": "INTERNET",
                "meio-de-acesso": "Satélite",
                "quantidade-acesso": 4
            }
        ]
    },
    {
        "cidade": "Castro Alves",
        "uf": "BA",
        "latitude": -12.75795,
        "longitude": -39.424753,
        "empresa": "HUGHES",
        "cnpj": 5206385000161,
        "pf-ou-pj": "Pessoa Jurídica",
        "info-tecnologia": [
            {
                "tecnologia": "VSAT",
                "tipo-de-Produto": "INTERNET",
                "meio-de-acesso": "Satélite",
                "quantidade-acesso": 1
            }
        ]
    },
    {
        "cidade": "Catolândia",
        "uf": "BA",
        "latitude": -12.310013,
        "longitude": -44.864808,
        "empresa": "HUGHES",
        "cnpj": 5206385000161,
        "pf-ou-pj": "Pessoa Jurídica",
        "info-tecnologia": [
            {
                "tecnologia": "VSAT",
                "tipo-de-Produto": "INTERNET",
                "meio-de-acesso": "Satélite",
                "quantidade-acesso": 1
            }
        ]
    },
    {
        "cidade": "Catu",
        "uf": "BA",
        "latitude": -12.351274,
        "longitude": -38.379108,
        "empresa": "HUGHES",
        "cnpj": 5206385000161,
        "pf-ou-pj": "Pessoa Jurídica",
        "info-tecnologia": [
            {
                "tecnologia": "VSAT",
                "tipo-de-Produto": "INTERNET",
                "meio-de-acesso": "Satélite",
                "quantidade-acesso": 9
            }
        ]
    },
    {
        "cidade": "Caturama",
        "uf": "BA",
        "latitude": -13.323938,
        "longitude": -42.290385,
        "empresa": "HUGHES",
        "cnpj": 5206385000161,
        "pf-ou-pj": "Pessoa Jurídica",
        "info-tecnologia": [
            {
                "tecnologia": "VSAT",
                "tipo-de-Produto": "INTERNET",
                "meio-de-acesso": "Satélite",
                "quantidade-acesso": 3
            }
        ]
    },
    {
        "cidade": "Caém",
        "uf": "BA",
        "latitude": -11.067693,
        "longitude": -40.432039,
        "empresa": "HUGHES",
        "cnpj": 5206385000161,
        "pf-ou-pj": "Pessoa Jurídica",
        "info-tecnologia": [
            {
                "tecnologia": "VSAT",
                "tipo-de-Produto": "INTERNET",
                "meio-de-acesso": "Satélite",
                "quantidade-acesso": 6
            }
        ]
    },
    {
        "cidade": "Central",
        "uf": "BA",
        "latitude": -11.137576,
        "longitude": -42.111625,
        "empresa": "HUGHES",
        "cnpj": 5206385000161,
        "pf-ou-pj": "Pessoa Jurídica",
        "info-tecnologia": [
            {
                "tecnologia": "VSAT",
                "tipo-de-Produto": "INTERNET",
                "meio-de-acesso": "Satélite",
                "quantidade-acesso": 2
            }
        ]
    },
    {
        "cidade": "Chorrochó",
        "uf": "BA",
        "latitude": -8.969498,
        "longitude": -39.097942,
        "empresa": "HUGHES",
        "cnpj": 5206385000161,
        "pf-ou-pj": "Pessoa Jurídica",
        "info-tecnologia": [
            {
                "tecnologia": "VSAT",
                "tipo-de-Produto": "INTERNET",
                "meio-de-acesso": "Satélite",
                "quantidade-acesso": 2
            }
        ]
    },
    {
        "cidade": "Coaraci",
        "uf": "BA",
        "latitude": -14.636996,
        "longitude": -39.555609,
        "empresa": "HUGHES",
        "cnpj": 5206385000161,
        "pf-ou-pj": "Pessoa Jurídica",
        "info-tecnologia": [
            {
                "tecnologia": "VSAT",
                "tipo-de-Produto": "INTERNET",
                "meio-de-acesso": "Satélite",
                "quantidade-acesso": 11
            }
        ]
    },
    {
        "cidade": "Cocos",
        "uf": "BA",
        "latitude": -14.18136,
        "longitude": -44.53522,
        "empresa": "HUGHES",
        "cnpj": 5206385000161,
        "pf-ou-pj": "Pessoa Jurídica",
        "info-tecnologia": [
            {
                "tecnologia": "VSAT",
                "tipo-de-Produto": "INTERNET",
                "meio-de-acesso": "Satélite",
                "quantidade-acesso": 3
            }
        ]
    },
    {
        "cidade": "Conceição do Almeida",
        "uf": "BA",
        "latitude": -12.783579,
        "longitude": -39.171466,
        "empresa": "HUGHES",
        "cnpj": 5206385000161,
        "pf-ou-pj": "Pessoa Jurídica",
        "info-tecnologia": [
            {
                "tecnologia": "VSAT",
                "tipo-de-Produto": "INTERNET",
                "meio-de-acesso": "Satélite",
                "quantidade-acesso": 1
            }
        ]
    },
    {
        "cidade": "Conceição do Coité",
        "uf": "BA",
        "latitude": -11.559953,
        "longitude": -39.280827,
        "empresa": "HUGHES",
        "cnpj": 5206385000161,
        "pf-ou-pj": "Pessoa Jurídica",
        "info-tecnologia": [
            {
                "tecnologia": "VSAT",
                "tipo-de-Produto": "INTERNET",
                "meio-de-acesso": "Satélite",
                "quantidade-acesso": 1
            }
        ]
    },
    {
        "cidade": "Conceição do Jacuípe",
        "uf": "BA",
        "latitude": -12.326831,
        "longitude": -38.768433,
        "empresa": "HUGHES",
        "cnpj": 5206385000161,
        "pf-ou-pj": "Pessoa Jurídica",
        "info-tecnologia": [
            {
                "tecnologia": "VSAT",
                "tipo-de-Produto": "INTERNET",
                "meio-de-acesso": "Satélite",
                "quantidade-acesso": 1
            }
        ]
    },
    {
        "cidade": "Conde",
        "uf": "BA",
        "latitude": -11.817937,
        "longitude": -37.613094,
        "empresa": "HUGHES",
        "cnpj": 5206385000161,
        "pf-ou-pj": "Pessoa Jurídica",
        "info-tecnologia": [
            {
                "tecnologia": "VSAT",
                "tipo-de-Produto": "INTERNET",
                "meio-de-acesso": "Satélite",
                "quantidade-acesso": 10
            }
        ]
    },
    {
        "cidade": "Condeúba",
        "uf": "BA",
        "latitude": -14.902227,
        "longitude": -41.971829,
        "empresa": "HUGHES",
        "cnpj": 5206385000161,
        "pf-ou-pj": "Pessoa Jurídica",
        "info-tecnologia": [
            {
                "tecnologia": "VSAT",
                "tipo-de-Produto": "INTERNET",
                "meio-de-acesso": "Satélite",
                "quantidade-acesso": 13
            }
        ]
    },
    {
        "cidade": "Contendas do Sincorá",
        "uf": "BA",
        "latitude": -13.75369,
        "longitude": -41.047953,
        "empresa": "HUGHES",
        "cnpj": 5206385000161,
        "pf-ou-pj": "Pessoa Jurídica",
        "info-tecnologia": [
            {
                "tecnologia": "VSAT",
                "tipo-de-Produto": "INTERNET",
                "meio-de-acesso": "Satélite",
                "quantidade-acesso": 4
            }
        ]
    },
    {
        "cidade": "Coração de Maria",
        "uf": "BA",
        "latitude": -12.233332,
        "longitude": -38.748654,
        "empresa": "HUGHES",
        "cnpj": 5206385000161,
        "pf-ou-pj": "Pessoa Jurídica",
        "info-tecnologia": [
            {
                "tecnologia": "VSAT",
                "tipo-de-Produto": "INTERNET",
                "meio-de-acesso": "Satélite",
                "quantidade-acesso": 9
            }
        ]
    },
    {
        "cidade": "Cordeiros",
        "uf": "BA",
        "latitude": -15.035641,
        "longitude": -41.930796,
        "empresa": "HUGHES",
        "cnpj": 5206385000161,
        "pf-ou-pj": "Pessoa Jurídica",
        "info-tecnologia": [
            {
                "tecnologia": "VSAT",
                "tipo-de-Produto": "INTERNET",
                "meio-de-acesso": "Satélite",
                "quantidade-acesso": 4
            }
        ]
    },
    {
        "cidade": "Coribe",
        "uf": "BA",
        "latitude": -13.823216,
        "longitude": -44.458593,
        "empresa": "HUGHES",
        "cnpj": 5206385000161,
        "pf-ou-pj": "Pessoa Jurídica",
        "info-tecnologia": [
            {
                "tecnologia": "VSAT",
                "tipo-de-Produto": "INTERNET",
                "meio-de-acesso": "Satélite",
                "quantidade-acesso": 2
            }
        ]
    },
    {
        "cidade": "Coronel João Sá",
        "uf": "BA",
        "latitude": -10.2847,
        "longitude": -37.919825,
        "empresa": "HUGHES",
        "cnpj": 5206385000161,
        "pf-ou-pj": "Pessoa Jurídica",
        "info-tecnologia": [
            {
                "tecnologia": "VSAT",
                "tipo-de-Produto": "INTERNET",
                "meio-de-acesso": "Satélite",
                "quantidade-acesso": 7
            }
        ]
    },
    {
        "cidade": "Correntina",
        "uf": "BA",
        "latitude": -13.347674,
        "longitude": -44.633335,
        "empresa": "HUGHES",
        "cnpj": 5206385000161,
        "pf-ou-pj": "Pessoa Jurídica",
        "info-tecnologia": [
            {
                "tecnologia": "VSAT",
                "tipo-de-Produto": "INTERNET",
                "meio-de-acesso": "Satélite",
                "quantidade-acesso": 25
            }
        ]
    },
    {
        "cidade": "Cravolândia",
        "uf": "BA",
        "latitude": -13.353063,
        "longitude": -39.803083,
        "empresa": "HUGHES",
        "cnpj": 5206385000161,
        "pf-ou-pj": "Pessoa Jurídica",
        "info-tecnologia": [
            {
                "tecnologia": "VSAT",
                "tipo-de-Produto": "INTERNET",
                "meio-de-acesso": "Satélite",
                "quantidade-acesso": 13
            }
        ]
    },
    {
        "cidade": "Cristópolis",
        "uf": "BA",
        "latitude": -12.224899,
        "longitude": -44.421358,
        "empresa": "HUGHES",
        "cnpj": 5206385000161,
        "pf-ou-pj": "Pessoa Jurídica",
        "info-tecnologia": [
            {
                "tecnologia": "VSAT",
                "tipo-de-Produto": "INTERNET",
                "meio-de-acesso": "Satélite",
                "quantidade-acesso": 2
            }
        ]
    },
    {
        "cidade": "Crisópolis",
        "uf": "BA",
        "latitude": -11.505929,
        "longitude": -38.15148,
        "empresa": "HUGHES",
        "cnpj": 5206385000161,
        "pf-ou-pj": "Pessoa Jurídica",
        "info-tecnologia": [
            {
                "tecnologia": "VSAT",
                "tipo-de-Produto": "INTERNET",
                "meio-de-acesso": "Satélite",
                "quantidade-acesso": 3
            }
        ]
    },
    {
        "cidade": "Cruz das Almas",
        "uf": "BA",
        "latitude": -12.667516,
        "longitude": -39.100787,
        "empresa": "HUGHES",
        "cnpj": 5206385000161,
        "pf-ou-pj": "Pessoa Jurídica",
        "info-tecnologia": [
            {
                "tecnologia": "VSAT",
                "tipo-de-Produto": "INTERNET",
                "meio-de-acesso": "Satélite",
                "quantidade-acesso": 1
            }
        ]
    },
    {
        "cidade": "Curaçá",
        "uf": "BA",
        "latitude": -8.984577,
        "longitude": -39.899671,
        "empresa": "HUGHES",
        "cnpj": 5206385000161,
        "pf-ou-pj": "Pessoa Jurídica",
        "info-tecnologia": [
            {
                "tecnologia": "VSAT",
                "tipo-de-Produto": "INTERNET",
                "meio-de-acesso": "Satélite",
                "quantidade-acesso": 3
            }
        ]
    },
    {
        "cidade": "Cândido Sales",
        "uf": "BA",
        "latitude": -15.499309,
        "longitude": -41.241438,
        "empresa": "HUGHES",
        "cnpj": 5206385000161,
        "pf-ou-pj": "Pessoa Jurídica",
        "info-tecnologia": [
            {
                "tecnologia": "VSAT",
                "tipo-de-Produto": "INTERNET",
                "meio-de-acesso": "Satélite",
                "quantidade-acesso": 2
            }
        ]
    },
    {
        "cidade": "Cícero Dantas",
        "uf": "BA",
        "latitude": -10.589664,
        "longitude": -38.379377,
        "empresa": "HUGHES",
        "cnpj": 5206385000161,
        "pf-ou-pj": "Pessoa Jurídica",
        "info-tecnologia": [
            {
                "tecnologia": "VSAT",
                "tipo-de-Produto": "INTERNET",
                "meio-de-acesso": "Satélite",
                "quantidade-acesso": 2
            }
        ]
    },
    {
        "cidade": "Dias d'Ávila",
        "uf": "BA",
        "latitude": null,
        "longitude": null,
        "empresa": "HUGHES",
        "cnpj": 5206385000161,
        "pf-ou-pj": "Pessoa Jurídica",
        "info-tecnologia": [
            {
                "tecnologia": "VSAT",
                "tipo-de-Produto": "INTERNET",
                "meio-de-acesso": "Satélite",
                "quantidade-acesso": 7
            }
        ]
    },
    {
        "cidade": "Dom Basílio",
        "uf": "BA",
        "latitude": -13.756499,
        "longitude": -41.767663,
        "empresa": "HUGHES",
        "cnpj": 5206385000161,
        "pf-ou-pj": "Pessoa Jurídica",
        "info-tecnologia": [
            {
                "tecnologia": "VSAT",
                "tipo-de-Produto": "INTERNET",
                "meio-de-acesso": "Satélite",
                "quantidade-acesso": 1
            }
        ]
    },
    {
        "cidade": "Dário Meira",
        "uf": "BA",
        "latitude": -14.4229,
        "longitude": -39.903129,
        "empresa": "HUGHES",
        "cnpj": 5206385000161,
        "pf-ou-pj": "Pessoa Jurídica",
        "info-tecnologia": [
            {
                "tecnologia": "VSAT",
                "tipo-de-Produto": "INTERNET",
                "meio-de-acesso": "Satélite",
                "quantidade-acesso": 11
            }
        ]
    },
    {
        "cidade": "Encruzilhada",
        "uf": "BA",
        "latitude": -15.530168,
        "longitude": -40.912432,
        "empresa": "HUGHES",
        "cnpj": 5206385000161,
        "pf-ou-pj": "Pessoa Jurídica",
        "info-tecnologia": [
            {
                "tecnologia": "VSAT",
                "tipo-de-Produto": "INTERNET",
                "meio-de-acesso": "Satélite",
                "quantidade-acesso": 7
            }
        ]
    },
    {
        "cidade": "Entre Rios",
        "uf": "BA",
        "latitude": -11.939164,
        "longitude": -38.087125,
        "empresa": "HUGHES",
        "cnpj": 5206385000161,
        "pf-ou-pj": "Pessoa Jurídica",
        "info-tecnologia": [
            {
                "tecnologia": "VSAT",
                "tipo-de-Produto": "INTERNET",
                "meio-de-acesso": "Satélite",
                "quantidade-acesso": 17
            }
        ]
    },
    {
        "cidade": "Esplanada",
        "uf": "BA",
        "latitude": -11.794215,
        "longitude": -37.943216,
        "empresa": "HUGHES",
        "cnpj": 5206385000161,
        "pf-ou-pj": "Pessoa Jurídica",
        "info-tecnologia": [
            {
                "tecnologia": "VSAT",
                "tipo-de-Produto": "INTERNET",
                "meio-de-acesso": "Satélite",
                "quantidade-acesso": 10
            }
        ]
    },
    {
        "cidade": "Euclides da Cunha",
        "uf": "BA",
        "latitude": -10.507754,
        "longitude": -39.015286,
        "empresa": "HUGHES",
        "cnpj": 5206385000161,
        "pf-ou-pj": "Pessoa Jurídica",
        "info-tecnologia": [
            {
                "tecnologia": "VSAT",
                "tipo-de-Produto": "INTERNET",
                "meio-de-acesso": "Satélite",
                "quantidade-acesso": 17
            }
        ]
    },
    {
        "cidade": "Eunápolis",
        "uf": "BA",
        "latitude": -16.371498,
        "longitude": -39.582122,
        "empresa": "HUGHES",
        "cnpj": 5206385000161,
        "pf-ou-pj": "Pessoa Jurídica",
        "info-tecnologia": [
            {
                "tecnologia": "VSAT",
                "tipo-de-Produto": "INTERNET",
                "meio-de-acesso": "Satélite",
                "quantidade-acesso": 9
            }
        ]
    },
    {
        "cidade": "Feira de Santana",
        "uf": "BA",
        "latitude": -12.266429,
        "longitude": -38.966293,
        "empresa": "HUGHES",
        "cnpj": 5206385000161,
        "pf-ou-pj": "Pessoa Jurídica",
        "info-tecnologia": [
            {
                "tecnologia": "VSAT",
                "tipo-de-Produto": "INTERNET",
                "meio-de-acesso": "Satélite",
                "quantidade-acesso": 26
            }
        ]
    },
    {
        "cidade": "Filadélfia",
        "uf": "BA",
        "latitude": -10.740475,
        "longitude": -40.14371,
        "empresa": "HUGHES",
        "cnpj": 5206385000161,
        "pf-ou-pj": "Pessoa Jurídica",
        "info-tecnologia": [
            {
                "tecnologia": "VSAT",
                "tipo-de-Produto": "INTERNET",
                "meio-de-acesso": "Satélite",
                "quantidade-acesso": 2
            }
        ]
    },
    {
        "cidade": "Firmino Alves",
        "uf": "BA",
        "latitude": -14.982334,
        "longitude": -39.926859,
        "empresa": "HUGHES",
        "cnpj": 5206385000161,
        "pf-ou-pj": "Pessoa Jurídica",
        "info-tecnologia": [
            {
                "tecnologia": "VSAT",
                "tipo-de-Produto": "INTERNET",
                "meio-de-acesso": "Satélite",
                "quantidade-acesso": 4
            }
        ]
    },
    {
        "cidade": "Floresta Azul",
        "uf": "BA",
        "latitude": -14.862934,
        "longitude": -39.657877,
        "empresa": "HUGHES",
        "cnpj": 5206385000161,
        "pf-ou-pj": "Pessoa Jurídica",
        "info-tecnologia": [
            {
                "tecnologia": "VSAT",
                "tipo-de-Produto": "INTERNET",
                "meio-de-acesso": "Satélite",
                "quantidade-acesso": 22
            }
        ]
    },
    {
        "cidade": "Formosa do Rio Preto",
        "uf": "BA",
        "latitude": -11.032812,
        "longitude": -45.19298,
        "empresa": "HUGHES",
        "cnpj": 5206385000161,
        "pf-ou-pj": "Pessoa Jurídica",
        "info-tecnologia": [
            {
                "tecnologia": "VSAT",
                "tipo-de-Produto": "INTERNET",
                "meio-de-acesso": "Satélite",
                "quantidade-acesso": 8
            }
        ]
    },
    {
        "cidade": "Gentio do Ouro",
        "uf": "BA",
        "latitude": -11.434233,
        "longitude": -42.507652,
        "empresa": "HUGHES",
        "cnpj": 5206385000161,
        "pf-ou-pj": "Pessoa Jurídica",
        "info-tecnologia": [
            {
                "tecnologia": "VSAT",
                "tipo-de-Produto": "INTERNET",
                "meio-de-acesso": "Satélite",
                "quantidade-acesso": 26
            }
        ]
    },
    {
        "cidade": "Glória",
        "uf": "BA",
        "latitude": -9.343822,
        "longitude": -38.254397,
        "empresa": "HUGHES",
        "cnpj": 5206385000161,
        "pf-ou-pj": "Pessoa Jurídica",
        "info-tecnologia": [
            {
                "tecnologia": "VSAT",
                "tipo-de-Produto": "INTERNET",
                "meio-de-acesso": "Satélite",
                "quantidade-acesso": 10
            }
        ]
    },
    {
        "cidade": "Gongogi",
        "uf": "BA",
        "latitude": -14.319481,
        "longitude": -39.46899,
        "empresa": "HUGHES",
        "cnpj": 5206385000161,
        "pf-ou-pj": "Pessoa Jurídica",
        "info-tecnologia": [
            {
                "tecnologia": "VSAT",
                "tipo-de-Produto": "INTERNET",
                "meio-de-acesso": "Satélite",
                "quantidade-acesso": 5
            }
        ]
    },
    {
        "cidade": "Guanambi",
        "uf": "BA",
        "latitude": -14.223066,
        "longitude": -42.779943,
        "empresa": "HUGHES",
        "cnpj": 5206385000161,
        "pf-ou-pj": "Pessoa Jurídica",
        "info-tecnologia": [
            {
                "tecnologia": "VSAT",
                "tipo-de-Produto": "INTERNET",
                "meio-de-acesso": "Satélite",
                "quantidade-acesso": 6
            }
        ]
    },
    {
        "cidade": "Guaratinga",
        "uf": "BA",
        "latitude": -16.583276,
        "longitude": -39.784713,
        "empresa": "HUGHES",
        "cnpj": 5206385000161,
        "pf-ou-pj": "Pessoa Jurídica",
        "info-tecnologia": [
            {
                "tecnologia": "VSAT",
                "tipo-de-Produto": "INTERNET",
                "meio-de-acesso": "Satélite",
                "quantidade-acesso": 6
            }
        ]
    },
    {
        "cidade": "Heliópolis",
        "uf": "BA",
        "latitude": -10.682539,
        "longitude": -38.290664,
        "empresa": "HUGHES",
        "cnpj": 5206385000161,
        "pf-ou-pj": "Pessoa Jurídica",
        "info-tecnologia": [
            {
                "tecnologia": "VSAT",
                "tipo-de-Produto": "INTERNET",
                "meio-de-acesso": "Satélite",
                "quantidade-acesso": 1
            }
        ]
    },
    {
        "cidade": "Iaçu",
        "uf": "BA",
        "latitude": -12.766637,
        "longitude": -40.205609,
        "empresa": "HUGHES",
        "cnpj": 5206385000161,
        "pf-ou-pj": "Pessoa Jurídica",
        "info-tecnologia": [
            {
                "tecnologia": "VSAT",
                "tipo-de-Produto": "INTERNET",
                "meio-de-acesso": "Satélite",
                "quantidade-acesso": 3
            }
        ]
    },
    {
        "cidade": "Ibicaraí",
        "uf": "BA",
        "latitude": -14.857877,
        "longitude": -39.591434,
        "empresa": "HUGHES",
        "cnpj": 5206385000161,
        "pf-ou-pj": "Pessoa Jurídica",
        "info-tecnologia": [
            {
                "tecnologia": "VSAT",
                "tipo-de-Produto": "INTERNET",
                "meio-de-acesso": "Satélite",
                "quantidade-acesso": 3
            }
        ]
    },
    {
        "cidade": "Ibicoara",
        "uf": "BA",
        "latitude": -13.405918,
        "longitude": -41.283989,
        "empresa": "HUGHES",
        "cnpj": 5206385000161,
        "pf-ou-pj": "Pessoa Jurídica",
        "info-tecnologia": [
            {
                "tecnologia": "VSAT",
                "tipo-de-Produto": "INTERNET",
                "meio-de-acesso": "Satélite",
                "quantidade-acesso": 9
            }
        ]
    },
    {
        "cidade": "Ibicuí",
        "uf": "BA",
        "latitude": -14.84496,
        "longitude": -39.987915,
        "empresa": "HUGHES",
        "cnpj": 5206385000161,
        "pf-ou-pj": "Pessoa Jurídica",
        "info-tecnologia": [
            {
                "tecnologia": "VSAT",
                "tipo-de-Produto": "INTERNET",
                "meio-de-acesso": "Satélite",
                "quantidade-acesso": 21
            }
        ]
    },
    {
        "cidade": "Ibipeba",
        "uf": "BA",
        "latitude": -11.643775,
        "longitude": -42.019515,
        "empresa": "HUGHES",
        "cnpj": 5206385000161,
        "pf-ou-pj": "Pessoa Jurídica",
        "info-tecnologia": [
            {
                "tecnologia": "VSAT",
                "tipo-de-Produto": "INTERNET",
                "meio-de-acesso": "Satélite",
                "quantidade-acesso": 4
            }
        ]
    },
    {
        "cidade": "Ibipitanga",
        "uf": "BA",
        "latitude": -12.880435,
        "longitude": -42.485568,
        "empresa": "HUGHES",
        "cnpj": 5206385000161,
        "pf-ou-pj": "Pessoa Jurídica",
        "info-tecnologia": [
            {
                "tecnologia": "VSAT",
                "tipo-de-Produto": "INTERNET",
                "meio-de-acesso": "Satélite",
                "quantidade-acesso": 4
            }
        ]
    },
    {
        "cidade": "Ibiquera",
        "uf": "BA",
        "latitude": -12.644354,
        "longitude": -40.933774,
        "empresa": "HUGHES",
        "cnpj": 5206385000161,
        "pf-ou-pj": "Pessoa Jurídica",
        "info-tecnologia": [
            {
                "tecnologia": "VSAT",
                "tipo-de-Produto": "INTERNET",
                "meio-de-acesso": "Satélite",
                "quantidade-acesso": 10
            }
        ]
    },
    {
        "cidade": "Ibirapitanga",
        "uf": "BA",
        "latitude": -14.164898,
        "longitude": -39.378737,
        "empresa": "HUGHES",
        "cnpj": 5206385000161,
        "pf-ou-pj": "Pessoa Jurídica",
        "info-tecnologia": [
            {
                "tecnologia": "VSAT",
                "tipo-de-Produto": "INTERNET",
                "meio-de-acesso": "Satélite",
                "quantidade-acesso": 6
            }
        ]
    },
    {
        "cidade": "Ibirapuã",
        "uf": "BA",
        "latitude": -17.683151,
        "longitude": -40.112907,
        "empresa": "HUGHES",
        "cnpj": 5206385000161,
        "pf-ou-pj": "Pessoa Jurídica",
        "info-tecnologia": [
            {
                "tecnologia": "VSAT",
                "tipo-de-Produto": "INTERNET",
                "meio-de-acesso": "Satélite",
                "quantidade-acesso": 53
            }
        ]
    },
    {
        "cidade": "Ibirataia",
        "uf": "BA",
        "latitude": -14.064316,
        "longitude": -39.645935,
        "empresa": "HUGHES",
        "cnpj": 5206385000161,
        "pf-ou-pj": "Pessoa Jurídica",
        "info-tecnologia": [
            {
                "tecnologia": "VSAT",
                "tipo-de-Produto": "INTERNET",
                "meio-de-acesso": "Satélite",
                "quantidade-acesso": 4
            }
        ]
    },
    {
        "cidade": "Ibitiara",
        "uf": "BA",
        "latitude": -12.650181,
        "longitude": -42.217946,
        "empresa": "HUGHES",
        "cnpj": 5206385000161,
        "pf-ou-pj": "Pessoa Jurídica",
        "info-tecnologia": [
            {
                "tecnologia": "VSAT",
                "tipo-de-Produto": "INTERNET",
                "meio-de-acesso": "Satélite",
                "quantidade-acesso": 71
            }
        ]
    },
    {
        "cidade": "Ibititá",
        "uf": "BA",
        "latitude": -11.541426,
        "longitude": -41.97481,
        "empresa": "HUGHES",
        "cnpj": 5206385000161,
        "pf-ou-pj": "Pessoa Jurídica",
        "info-tecnologia": [
            {
                "tecnologia": "VSAT",
                "tipo-de-Produto": "INTERNET",
                "meio-de-acesso": "Satélite",
                "quantidade-acesso": 2
            }
        ]
    },
    {
        "cidade": "Igrapiúna",
        "uf": "BA",
        "latitude": -13.829543,
        "longitude": -39.136129,
        "empresa": "HUGHES",
        "cnpj": 5206385000161,
        "pf-ou-pj": "Pessoa Jurídica",
        "info-tecnologia": [
            {
                "tecnologia": "VSAT",
                "tipo-de-Produto": "INTERNET",
                "meio-de-acesso": "Satélite",
                "quantidade-acesso": 12
            }
        ]
    },
    {
        "cidade": "Iguaí",
        "uf": "BA",
        "latitude": -14.752754,
        "longitude": -40.089417,
        "empresa": "HUGHES",
        "cnpj": 5206385000161,
        "pf-ou-pj": "Pessoa Jurídica",
        "info-tecnologia": [
            {
                "tecnologia": "VSAT",
                "tipo-de-Produto": "INTERNET",
                "meio-de-acesso": "Satélite",
                "quantidade-acesso": 2
            }
        ]
    },
    {
        "cidade": "Ilhéus",
        "uf": "BA",
        "latitude": -14.793045,
        "longitude": -39.04602,
        "empresa": "HUGHES",
        "cnpj": 5206385000161,
        "pf-ou-pj": "Pessoa Jurídica",
        "info-tecnologia": [
            {
                "tecnologia": "VSAT",
                "tipo-de-Produto": "INTERNET",
                "meio-de-acesso": "Satélite",
                "quantidade-acesso": 19
            }
        ]
    },
    {
        "cidade": "Inhambupe",
        "uf": "BA",
        "latitude": -11.780955,
        "longitude": -38.355048,
        "empresa": "HUGHES",
        "cnpj": 5206385000161,
        "pf-ou-pj": "Pessoa Jurídica",
        "info-tecnologia": [
            {
                "tecnologia": "VSAT",
                "tipo-de-Produto": "INTERNET",
                "meio-de-acesso": "Satélite",
                "quantidade-acesso": 3
            }
        ]
    },
    {
        "cidade": "Ipecaetá",
        "uf": "BA",
        "latitude": -12.302846,
        "longitude": -39.306921,
        "empresa": "HUGHES",
        "cnpj": 5206385000161,
        "pf-ou-pj": "Pessoa Jurídica",
        "info-tecnologia": [
            {
                "tecnologia": "VSAT",
                "tipo-de-Produto": "INTERNET",
                "meio-de-acesso": "Satélite",
                "quantidade-acesso": 3
            }
        ]
    },
    {
        "cidade": "Ipirá",
        "uf": "BA",
        "latitude": -12.156057,
        "longitude": -39.735941,
        "empresa": "HUGHES",
        "cnpj": 5206385000161,
        "pf-ou-pj": "Pessoa Jurídica",
        "info-tecnologia": [
            {
                "tecnologia": "VSAT",
                "tipo-de-Produto": "INTERNET",
                "meio-de-acesso": "Satélite",
                "quantidade-acesso": 1
            }
        ]
    },
    {
        "cidade": "Ipupiara",
        "uf": "BA",
        "latitude": -11.821881,
        "longitude": -42.617913,
        "empresa": "HUGHES",
        "cnpj": 5206385000161,
        "pf-ou-pj": "Pessoa Jurídica",
        "info-tecnologia": [
            {
                "tecnologia": "VSAT",
                "tipo-de-Produto": "INTERNET",
                "meio-de-acesso": "Satélite",
                "quantidade-acesso": 12
            }
        ]
    },
    {
        "cidade": "Irajuba",
        "uf": "BA",
        "latitude": -13.256331,
        "longitude": -40.08482,
        "empresa": "HUGHES",
        "cnpj": 5206385000161,
        "pf-ou-pj": "Pessoa Jurídica",
        "info-tecnologia": [
            {
                "tecnologia": "VSAT",
                "tipo-de-Produto": "INTERNET",
                "meio-de-acesso": "Satélite",
                "quantidade-acesso": 2
            }
        ]
    },
    {
        "cidade": "Iramaia",
        "uf": "BA",
        "latitude": -13.290186,
        "longitude": -40.959471,
        "empresa": "HUGHES",
        "cnpj": 5206385000161,
        "pf-ou-pj": "Pessoa Jurídica",
        "info-tecnologia": [
            {
                "tecnologia": "VSAT",
                "tipo-de-Produto": "INTERNET",
                "meio-de-acesso": "Satélite",
                "quantidade-acesso": 16
            }
        ]
    },
    {
        "cidade": "Iraquara",
        "uf": "BA",
        "latitude": -12.24288,
        "longitude": -41.615504,
        "empresa": "HUGHES",
        "cnpj": 5206385000161,
        "pf-ou-pj": "Pessoa Jurídica",
        "info-tecnologia": [
            {
                "tecnologia": "VSAT",
                "tipo-de-Produto": "INTERNET",
                "meio-de-acesso": "Satélite",
                "quantidade-acesso": 12
            }
        ]
    },
    {
        "cidade": "Irará",
        "uf": "BA",
        "latitude": -12.050449,
        "longitude": -38.763139,
        "empresa": "HUGHES",
        "cnpj": 5206385000161,
        "pf-ou-pj": "Pessoa Jurídica",
        "info-tecnologia": [
            {
                "tecnologia": "VSAT",
                "tipo-de-Produto": "INTERNET",
                "meio-de-acesso": "Satélite",
                "quantidade-acesso": 1
            }
        ]
    },
    {
        "cidade": "Irecê",
        "uf": "BA",
        "latitude": -11.303317,
        "longitude": -41.853462,
        "empresa": "HUGHES",
        "cnpj": 5206385000161,
        "pf-ou-pj": "Pessoa Jurídica",
        "info-tecnologia": [
            {
                "tecnologia": "VSAT",
                "tipo-de-Produto": "INTERNET",
                "meio-de-acesso": "Satélite",
                "quantidade-acesso": 5
            }
        ]
    },
    {
        "cidade": "Itabela",
        "uf": "BA",
        "latitude": -16.573188,
        "longitude": -39.559318,
        "empresa": "HUGHES",
        "cnpj": 5206385000161,
        "pf-ou-pj": "Pessoa Jurídica",
        "info-tecnologia": [
            {
                "tecnologia": "VSAT",
                "tipo-de-Produto": "INTERNET",
                "meio-de-acesso": "Satélite",
                "quantidade-acesso": 5
            }
        ]
    },
    {
        "cidade": "Itaberaba",
        "uf": "BA",
        "latitude": -12.524182,
        "longitude": -40.305897,
        "empresa": "HUGHES",
        "cnpj": 5206385000161,
        "pf-ou-pj": "Pessoa Jurídica",
        "info-tecnologia": [
            {
                "tecnologia": "VSAT",
                "tipo-de-Produto": "INTERNET",
                "meio-de-acesso": "Satélite",
                "quantidade-acesso": 8
            }
        ]
    },
    {
        "cidade": "Itabuna",
        "uf": "BA",
        "latitude": -14.787573,
        "longitude": -39.278056,
        "empresa": "HUGHES",
        "cnpj": 5206385000161,
        "pf-ou-pj": "Pessoa Jurídica",
        "info-tecnologia": [
            {
                "tecnologia": "VSAT",
                "tipo-de-Produto": "INTERNET",
                "meio-de-acesso": "Satélite",
                "quantidade-acesso": 9
            }
        ]
    },
    {
        "cidade": "Itacaré",
        "uf": "BA",
        "latitude": -14.278422,
        "longitude": -38.99591,
        "empresa": "HUGHES",
        "cnpj": 5206385000161,
        "pf-ou-pj": "Pessoa Jurídica",
        "info-tecnologia": [
            {
                "tecnologia": "VSAT",
                "tipo-de-Produto": "INTERNET",
                "meio-de-acesso": "Satélite",
                "quantidade-acesso": 130
            }
        ]
    },
    {
        "cidade": "Itaeté",
        "uf": "BA",
        "latitude": -12.983121,
        "longitude": -40.96774,
        "empresa": "HUGHES",
        "cnpj": 5206385000161,
        "pf-ou-pj": "Pessoa Jurídica",
        "info-tecnologia": [
            {
                "tecnologia": "VSAT",
                "tipo-de-Produto": "INTERNET",
                "meio-de-acesso": "Satélite",
                "quantidade-acesso": 2
            }
        ]
    },
    {
        "cidade": "Itagi",
        "uf": "BA",
        "latitude": -14.1615,
        "longitude": -40.013112,
        "empresa": "HUGHES",
        "cnpj": 5206385000161,
        "pf-ou-pj": "Pessoa Jurídica",
        "info-tecnologia": [
            {
                "tecnologia": "VSAT",
                "tipo-de-Produto": "INTERNET",
                "meio-de-acesso": "Satélite",
                "quantidade-acesso": 1
            }
        ]
    },
    {
        "cidade": "Itagibá",
        "uf": "BA",
        "latitude": -14.278239,
        "longitude": -39.844945,
        "empresa": "HUGHES",
        "cnpj": 5206385000161,
        "pf-ou-pj": "Pessoa Jurídica",
        "info-tecnologia": [
            {
                "tecnologia": "VSAT",
                "tipo-de-Produto": "INTERNET",
                "meio-de-acesso": "Satélite",
                "quantidade-acesso": 1
            }
        ]
    },
    {
        "cidade": "Itaguaçu da Bahia",
        "uf": "BA",
        "latitude": -11.014672,
        "longitude": -42.399671,
        "empresa": "HUGHES",
        "cnpj": 5206385000161,
        "pf-ou-pj": "Pessoa Jurídica",
        "info-tecnologia": [
            {
                "tecnologia": "VSAT",
                "tipo-de-Produto": "INTERNET",
                "meio-de-acesso": "Satélite",
                "quantidade-acesso": 2
            }
        ]
    },
    {
        "cidade": "Itaju do Colônia",
        "uf": "BA",
        "latitude": -15.136598,
        "longitude": -39.728298,
        "empresa": "HUGHES",
        "cnpj": 5206385000161,
        "pf-ou-pj": "Pessoa Jurídica",
        "info-tecnologia": [
            {
                "tecnologia": "VSAT",
                "tipo-de-Produto": "INTERNET",
                "meio-de-acesso": "Satélite",
                "quantidade-acesso": 19
            }
        ]
    },
    {
        "cidade": "Itajuípe",
        "uf": "BA",
        "latitude": -14.678766,
        "longitude": -39.369823,
        "empresa": "HUGHES",
        "cnpj": 5206385000161,
        "pf-ou-pj": "Pessoa Jurídica",
        "info-tecnologia": [
            {
                "tecnologia": "VSAT",
                "tipo-de-Produto": "INTERNET",
                "meio-de-acesso": "Satélite",
                "quantidade-acesso": 11
            }
        ]
    },
    {
        "cidade": "Itamaraju",
        "uf": "BA",
        "latitude": -17.03782,
        "longitude": -39.538569,
        "empresa": "HUGHES",
        "cnpj": 5206385000161,
        "pf-ou-pj": "Pessoa Jurídica",
        "info-tecnologia": [
            {
                "tecnologia": "VSAT",
                "tipo-de-Produto": "INTERNET",
                "meio-de-acesso": "Satélite",
                "quantidade-acesso": 4
            }
        ]
    },
    {
        "cidade": "Itambé",
        "uf": "BA",
        "latitude": -15.242913,
        "longitude": -40.629955,
        "empresa": "HUGHES",
        "cnpj": 5206385000161,
        "pf-ou-pj": "Pessoa Jurídica",
        "info-tecnologia": [
            {
                "tecnologia": "VSAT",
                "tipo-de-Produto": "INTERNET",
                "meio-de-acesso": "Satélite",
                "quantidade-acesso": 2
            }
        ]
    },
    {
        "cidade": "Itanagra",
        "uf": "BA",
        "latitude": -12.261435,
        "longitude": -38.043595,
        "empresa": "HUGHES",
        "cnpj": 5206385000161,
        "pf-ou-pj": "Pessoa Jurídica",
        "info-tecnologia": [
            {
                "tecnologia": "VSAT",
                "tipo-de-Produto": "INTERNET",
                "meio-de-acesso": "Satélite",
                "quantidade-acesso": 14
            }
        ]
    },
    {
        "cidade": "Itanhém",
        "uf": "BA",
        "latitude": -17.164207,
        "longitude": -40.332139,
        "empresa": "HUGHES",
        "cnpj": 5206385000161,
        "pf-ou-pj": "Pessoa Jurídica",
        "info-tecnologia": [
            {
                "tecnologia": "VSAT",
                "tipo-de-Produto": "INTERNET",
                "meio-de-acesso": "Satélite",
                "quantidade-acesso": 4
            }
        ]
    },
    {
        "cidade": "Itaparica",
        "uf": "BA",
        "latitude": -12.893205,
        "longitude": -38.67995,
        "empresa": "HUGHES",
        "cnpj": 5206385000161,
        "pf-ou-pj": "Pessoa Jurídica",
        "info-tecnologia": [
            {
                "tecnologia": "VSAT",
                "tipo-de-Produto": "INTERNET",
                "meio-de-acesso": "Satélite",
                "quantidade-acesso": 2
            }
        ]
    },
    {
        "cidade": "Itapebi",
        "uf": "BA",
        "latitude": -15.955063,
        "longitude": -39.532863,
        "empresa": "HUGHES",
        "cnpj": 5206385000161,
        "pf-ou-pj": "Pessoa Jurídica",
        "info-tecnologia": [
            {
                "tecnologia": "VSAT",
                "tipo-de-Produto": "INTERNET",
                "meio-de-acesso": "Satélite",
                "quantidade-acesso": 10
            }
        ]
    },
    {
        "cidade": "Itapetinga",
        "uf": "BA",
        "latitude": -15.247533,
        "longitude": -40.248236,
        "empresa": "HUGHES",
        "cnpj": 5206385000161,
        "pf-ou-pj": "Pessoa Jurídica",
        "info-tecnologia": [
            {
                "tecnologia": "VSAT",
                "tipo-de-Produto": "INTERNET",
                "meio-de-acesso": "Satélite",
                "quantidade-acesso": 5
            }
        ]
    },
    {
        "cidade": "Itapicuru",
        "uf": "BA",
        "latitude": -11.308836,
        "longitude": -38.226229,
        "empresa": "HUGHES",
        "cnpj": 5206385000161,
        "pf-ou-pj": "Pessoa Jurídica",
        "info-tecnologia": [
            {
                "tecnologia": "VSAT",
                "tipo-de-Produto": "INTERNET",
                "meio-de-acesso": "Satélite",
                "quantidade-acesso": 4
            }
        ]
    },
    {
        "cidade": "Itapitanga",
        "uf": "BA",
        "latitude": -14.413932,
        "longitude": -39.565654,
        "empresa": "HUGHES",
        "cnpj": 5206385000161,
        "pf-ou-pj": "Pessoa Jurídica",
        "info-tecnologia": [
            {
                "tecnologia": "VSAT",
                "tipo-de-Produto": "INTERNET",
                "meio-de-acesso": "Satélite",
                "quantidade-acesso": 2
            }
        ]
    },
    {
        "cidade": "Itapé",
        "uf": "BA",
        "latitude": -14.887641,
        "longitude": -39.423858,
        "empresa": "HUGHES",
        "cnpj": 5206385000161,
        "pf-ou-pj": "Pessoa Jurídica",
        "info-tecnologia": [
            {
                "tecnologia": "VSAT",
                "tipo-de-Produto": "INTERNET",
                "meio-de-acesso": "Satélite",
                "quantidade-acesso": 14
            }
        ]
    },
    {
        "cidade": "Itaquara",
        "uf": "BA",
        "latitude": -13.44589,
        "longitude": -39.937767,
        "empresa": "HUGHES",
        "cnpj": 5206385000161,
        "pf-ou-pj": "Pessoa Jurídica",
        "info-tecnologia": [
            {
                "tecnologia": "VSAT",
                "tipo-de-Produto": "INTERNET",
                "meio-de-acesso": "Satélite",
                "quantidade-acesso": 17
            }
        ]
    },
    {
        "cidade": "Itarantim",
        "uf": "BA",
        "latitude": -15.652819,
        "longitude": -40.06496,
        "empresa": "HUGHES",
        "cnpj": 5206385000161,
        "pf-ou-pj": "Pessoa Jurídica",
        "info-tecnologia": [
            {
                "tecnologia": "VSAT",
                "tipo-de-Produto": "INTERNET",
                "meio-de-acesso": "Satélite",
                "quantidade-acesso": 1
            }
        ]
    },
    {
        "cidade": "Itatim",
        "uf": "BA",
        "latitude": -12.709888,
        "longitude": -39.695199,
        "empresa": "HUGHES",
        "cnpj": 5206385000161,
        "pf-ou-pj": "Pessoa Jurídica",
        "info-tecnologia": [
            {
                "tecnologia": "VSAT",
                "tipo-de-Produto": "INTERNET",
                "meio-de-acesso": "Satélite",
                "quantidade-acesso": 3
            }
        ]
    },
    {
        "cidade": "Itiúba",
        "uf": "BA",
        "latitude": -10.694761,
        "longitude": -39.844616,
        "empresa": "HUGHES",
        "cnpj": 5206385000161,
        "pf-ou-pj": "Pessoa Jurídica",
        "info-tecnologia": [
            {
                "tecnologia": "VSAT",
                "tipo-de-Produto": "INTERNET",
                "meio-de-acesso": "Satélite",
                "quantidade-acesso": 3
            }
        ]
    },
    {
        "cidade": "Itororó",
        "uf": "BA",
        "latitude": -15.109988,
        "longitude": -40.068401,
        "empresa": "HUGHES",
        "cnpj": 5206385000161,
        "pf-ou-pj": "Pessoa Jurídica",
        "info-tecnologia": [
            {
                "tecnologia": "VSAT",
                "tipo-de-Produto": "INTERNET",
                "meio-de-acesso": "Satélite",
                "quantidade-acesso": 2
            }
        ]
    },
    {
        "cidade": "Ituaçu",
        "uf": "BA",
        "latitude": -13.810651,
        "longitude": -41.300284,
        "empresa": "HUGHES",
        "cnpj": 5206385000161,
        "pf-ou-pj": "Pessoa Jurídica",
        "info-tecnologia": [
            {
                "tecnologia": "VSAT",
                "tipo-de-Produto": "INTERNET",
                "meio-de-acesso": "Satélite",
                "quantidade-acesso": 1
            }
        ]
    },
    {
        "cidade": "Iuiú",
        "uf": "BA",
        "latitude": -14.405424,
        "longitude": -43.559547,
        "empresa": "HUGHES",
        "cnpj": 5206385000161,
        "pf-ou-pj": "Pessoa Jurídica",
        "info-tecnologia": [
            {
                "tecnologia": "VSAT",
                "tipo-de-Produto": "INTERNET",
                "meio-de-acesso": "Satélite",
                "quantidade-acesso": 1
            }
        ]
    },
    {
        "cidade": "Jaborandi",
        "uf": "BA",
        "latitude": -13.607082,
        "longitude": -44.425537,
        "empresa": "HUGHES",
        "cnpj": 5206385000161,
        "pf-ou-pj": "Pessoa Jurídica",
        "info-tecnologia": [
            {
                "tecnologia": "VSAT",
                "tipo-de-Produto": "INTERNET",
                "meio-de-acesso": "Satélite",
                "quantidade-acesso": 5
            }
        ]
    },
    {
        "cidade": "Jacaraci",
        "uf": "BA",
        "latitude": -14.85409,
        "longitude": -42.432878,
        "empresa": "HUGHES",
        "cnpj": 5206385000161,
        "pf-ou-pj": "Pessoa Jurídica",
        "info-tecnologia": [
            {
                "tecnologia": "VSAT",
                "tipo-de-Produto": "INTERNET",
                "meio-de-acesso": "Satélite",
                "quantidade-acesso": 4
            }
        ]
    },
    {
        "cidade": "Jacobina",
        "uf": "BA",
        "latitude": -11.181217,
        "longitude": -40.511693,
        "empresa": "HUGHES",
        "cnpj": 5206385000161,
        "pf-ou-pj": "Pessoa Jurídica",
        "info-tecnologia": [
            {
                "tecnologia": "VSAT",
                "tipo-de-Produto": "INTERNET",
                "meio-de-acesso": "Satélite",
                "quantidade-acesso": 13
            }
        ]
    },
    {
        "cidade": "Jaguaquara",
        "uf": "BA",
        "latitude": -13.524834,
        "longitude": -39.964009,
        "empresa": "HUGHES",
        "cnpj": 5206385000161,
        "pf-ou-pj": "Pessoa Jurídica",
        "info-tecnologia": [
            {
                "tecnologia": "VSAT",
                "tipo-de-Produto": "INTERNET",
                "meio-de-acesso": "Satélite",
                "quantidade-acesso": 3
            }
        ]
    },
    {
        "cidade": "Jaguarari",
        "uf": "BA",
        "latitude": -10.256859,
        "longitude": -40.199938,
        "empresa": "HUGHES",
        "cnpj": 5206385000161,
        "pf-ou-pj": "Pessoa Jurídica",
        "info-tecnologia": [
            {
                "tecnologia": "VSAT",
                "tipo-de-Produto": "INTERNET",
                "meio-de-acesso": "Satélite",
                "quantidade-acesso": 4
            }
        ]
    },
    {
        "cidade": "Jaguaripe",
        "uf": "BA",
        "latitude": -13.110924,
        "longitude": -38.893891,
        "empresa": "HUGHES",
        "cnpj": 5206385000161,
        "pf-ou-pj": "Pessoa Jurídica",
        "info-tecnologia": [
            {
                "tecnologia": "VSAT",
                "tipo-de-Produto": "INTERNET",
                "meio-de-acesso": "Satélite",
                "quantidade-acesso": 26
            }
        ]
    },
    {
        "cidade": "Jandaíra",
        "uf": "BA",
        "latitude": -11.561614,
        "longitude": -37.785274,
        "empresa": "HUGHES",
        "cnpj": 5206385000161,
        "pf-ou-pj": "Pessoa Jurídica",
        "info-tecnologia": [
            {
                "tecnologia": "VSAT",
                "tipo-de-Produto": "INTERNET",
                "meio-de-acesso": "Satélite",
                "quantidade-acesso": 20
            }
        ]
    },
    {
        "cidade": "Jequié",
        "uf": "BA",
        "latitude": -13.850888,
        "longitude": -40.087704,
        "empresa": "HUGHES",
        "cnpj": 5206385000161,
        "pf-ou-pj": "Pessoa Jurídica",
        "info-tecnologia": [
            {
                "tecnologia": "VSAT",
                "tipo-de-Produto": "INTERNET",
                "meio-de-acesso": "Satélite",
                "quantidade-acesso": 10
            }
        ]
    },
    {
        "cidade": "Jeremoabo",
        "uf": "BA",
        "latitude": -10.06848,
        "longitude": -38.347097,
        "empresa": "HUGHES",
        "cnpj": 5206385000161,
        "pf-ou-pj": "Pessoa Jurídica",
        "info-tecnologia": [
            {
                "tecnologia": "VSAT",
                "tipo-de-Produto": "INTERNET",
                "meio-de-acesso": "Satélite",
                "quantidade-acesso": 17
            }
        ]
    },
    {
        "cidade": "Jiquiriçá",
        "uf": "BA",
        "latitude": -13.262101,
        "longitude": -39.57365,
        "empresa": "HUGHES",
        "cnpj": 5206385000161,
        "pf-ou-pj": "Pessoa Jurídica",
        "info-tecnologia": [
            {
                "tecnologia": "VSAT",
                "tipo-de-Produto": "INTERNET",
                "meio-de-acesso": "Satélite",
                "quantidade-acesso": 5
            }
        ]
    },
    {
        "cidade": "Jitaúna",
        "uf": "BA",
        "latitude": -14.013085,
        "longitude": -39.896892,
        "empresa": "HUGHES",
        "cnpj": 5206385000161,
        "pf-ou-pj": "Pessoa Jurídica",
        "info-tecnologia": [
            {
                "tecnologia": "VSAT",
                "tipo-de-Produto": "INTERNET",
                "meio-de-acesso": "Satélite",
                "quantidade-acesso": 17
            }
        ]
    },
    {
        "cidade": "João Dourado",
        "uf": "BA",
        "latitude": -11.348642,
        "longitude": -41.654799,
        "empresa": "HUGHES",
        "cnpj": 5206385000161,
        "pf-ou-pj": "Pessoa Jurídica",
        "info-tecnologia": [
            {
                "tecnologia": "VSAT",
                "tipo-de-Produto": "INTERNET",
                "meio-de-acesso": "Satélite",
                "quantidade-acesso": 1
            }
        ]
    },
    {
        "cidade": "Juazeiro",
        "uf": "BA",
        "latitude": -9.416217,
        "longitude": -40.503251,
        "empresa": "HUGHES",
        "cnpj": 5206385000161,
        "pf-ou-pj": "Pessoa Jurídica",
        "info-tecnologia": [
            {
                "tecnologia": "VSAT",
                "tipo-de-Produto": "INTERNET",
                "meio-de-acesso": "Satélite",
                "quantidade-acesso": 10
            }
        ]
    },
    {
        "cidade": "Jucuruçu",
        "uf": "BA",
        "latitude": -16.848752,
        "longitude": -40.164074,
        "empresa": "HUGHES",
        "cnpj": 5206385000161,
        "pf-ou-pj": "Pessoa Jurídica",
        "info-tecnologia": [
            {
                "tecnologia": "VSAT",
                "tipo-de-Produto": "INTERNET",
                "meio-de-acesso": "Satélite",
                "quantidade-acesso": 15
            }
        ]
    },
    {
        "cidade": "Jussara",
        "uf": "BA",
        "latitude": -11.043084,
        "longitude": -41.970235,
        "empresa": "HUGHES",
        "cnpj": 5206385000161,
        "pf-ou-pj": "Pessoa Jurídica",
        "info-tecnologia": [
            {
                "tecnologia": "VSAT",
                "tipo-de-Produto": "INTERNET",
                "meio-de-acesso": "Satélite",
                "quantidade-acesso": 1
            }
        ]
    },
    {
        "cidade": "Jussari",
        "uf": "BA",
        "latitude": -15.19201,
        "longitude": -39.490962,
        "empresa": "HUGHES",
        "cnpj": 5206385000161,
        "pf-ou-pj": "Pessoa Jurídica",
        "info-tecnologia": [
            {
                "tecnologia": "VSAT",
                "tipo-de-Produto": "INTERNET",
                "meio-de-acesso": "Satélite",
                "quantidade-acesso": 11
            }
        ]
    },
    {
        "cidade": "Lafaiete Coutinho",
        "uf": "BA",
        "latitude": -13.6541,
        "longitude": -40.21189,
        "empresa": "HUGHES",
        "cnpj": 5206385000161,
        "pf-ou-pj": "Pessoa Jurídica",
        "info-tecnologia": [
            {
                "tecnologia": "VSAT",
                "tipo-de-Produto": "INTERNET",
                "meio-de-acesso": "Satélite",
                "quantidade-acesso": 11
            }
        ]
    },
    {
        "cidade": "Lagoa Real",
        "uf": "BA",
        "latitude": -14.033443,
        "longitude": -42.132764,
        "empresa": "HUGHES",
        "cnpj": 5206385000161,
        "pf-ou-pj": "Pessoa Jurídica",
        "info-tecnologia": [
            {
                "tecnologia": "VSAT",
                "tipo-de-Produto": "INTERNET",
                "meio-de-acesso": "Satélite",
                "quantidade-acesso": 5
            }
        ]
    },
    {
        "cidade": "Laje",
        "uf": "BA",
        "latitude": -13.167327,
        "longitude": -39.421264,
        "empresa": "HUGHES",
        "cnpj": 5206385000161,
        "pf-ou-pj": "Pessoa Jurídica",
        "info-tecnologia": [
            {
                "tecnologia": "VSAT",
                "tipo-de-Produto": "INTERNET",
                "meio-de-acesso": "Satélite",
                "quantidade-acesso": 4
            }
        ]
    },
    {
        "cidade": "Lajedinho",
        "uf": "BA",
        "latitude": -12.352889,
        "longitude": -40.904752,
        "empresa": "HUGHES",
        "cnpj": 5206385000161,
        "pf-ou-pj": "Pessoa Jurídica",
        "info-tecnologia": [
            {
                "tecnologia": "VSAT",
                "tipo-de-Produto": "INTERNET",
                "meio-de-acesso": "Satélite",
                "quantidade-acesso": 14
            }
        ]
    },
    {
        "cidade": "Lajedo do Tabocal",
        "uf": "BA",
        "latitude": -13.466286,
        "longitude": -40.220429,
        "empresa": "HUGHES",
        "cnpj": 5206385000161,
        "pf-ou-pj": "Pessoa Jurídica",
        "info-tecnologia": [
            {
                "tecnologia": "VSAT",
                "tipo-de-Produto": "INTERNET",
                "meio-de-acesso": "Satélite",
                "quantidade-acesso": 7
            }
        ]
    },
    {
        "cidade": "Lajedão",
        "uf": "BA",
        "latitude": -17.605641,
        "longitude": -40.338307,
        "empresa": "HUGHES",
        "cnpj": 5206385000161,
        "pf-ou-pj": "Pessoa Jurídica",
        "info-tecnologia": [
            {
                "tecnologia": "VSAT",
                "tipo-de-Produto": "INTERNET",
                "meio-de-acesso": "Satélite",
                "quantidade-acesso": 7
            }
        ]
    },
    {
        "cidade": "Lapão",
        "uf": "BA",
        "latitude": -11.385096,
        "longitude": -41.828615,
        "empresa": "HUGHES",
        "cnpj": 5206385000161,
        "pf-ou-pj": "Pessoa Jurídica",
        "info-tecnologia": [
            {
                "tecnologia": "VSAT",
                "tipo-de-Produto": "INTERNET",
                "meio-de-acesso": "Satélite",
                "quantidade-acesso": 2
            }
        ]
    },
    {
        "cidade": "Lauro de Freitas",
        "uf": "BA",
        "latitude": -12.8978,
        "longitude": -38.321008,
        "empresa": "HUGHES",
        "cnpj": 5206385000161,
        "pf-ou-pj": "Pessoa Jurídica",
        "info-tecnologia": [
            {
                "tecnologia": "VSAT",
                "tipo-de-Produto": "INTERNET",
                "meio-de-acesso": "Satélite",
                "quantidade-acesso": 6
            }
        ]
    },
    {
        "cidade": "Lençóis",
        "uf": "BA",
        "latitude": -12.561604,
        "longitude": -41.392825,
        "empresa": "HUGHES",
        "cnpj": 5206385000161,
        "pf-ou-pj": "Pessoa Jurídica",
        "info-tecnologia": [
            {
                "tecnologia": "VSAT",
                "tipo-de-Produto": "INTERNET",
                "meio-de-acesso": "Satélite",
                "quantidade-acesso": 35
            }
        ]
    },
    {
        "cidade": "Licínio de Almeida",
        "uf": "BA",
        "latitude": -14.684215,
        "longitude": -42.509527,
        "empresa": "HUGHES",
        "cnpj": 5206385000161,
        "pf-ou-pj": "Pessoa Jurídica",
        "info-tecnologia": [
            {
                "tecnologia": "VSAT",
                "tipo-de-Produto": "INTERNET",
                "meio-de-acesso": "Satélite",
                "quantidade-acesso": 3
            }
        ]
    },
    {
        "cidade": "Livramento de Nossa Senhora",
        "uf": "BA",
        "latitude": -13.636868,
        "longitude": -41.843187,
        "empresa": "HUGHES",
        "cnpj": 5206385000161,
        "pf-ou-pj": "Pessoa Jurídica",
        "info-tecnologia": [
            {
                "tecnologia": "VSAT",
                "tipo-de-Produto": "INTERNET",
                "meio-de-acesso": "Satélite",
                "quantidade-acesso": 1
            }
        ]
    },
    {
        "cidade": "Luís Eduardo Magalhães",
        "uf": "BA",
        "latitude": null,
        "longitude": null,
        "empresa": "HUGHES",
        "cnpj": 5206385000161,
        "pf-ou-pj": "Pessoa Jurídica",
        "info-tecnologia": [
            {
                "tecnologia": "VSAT",
                "tipo-de-Produto": "INTERNET",
                "meio-de-acesso": "Satélite",
                "quantidade-acesso": 20
            }
        ]
    },
    {
        "cidade": "Macajuba",
        "uf": "BA",
        "latitude": -12.132592,
        "longitude": -40.357058,
        "empresa": "HUGHES",
        "cnpj": 5206385000161,
        "pf-ou-pj": "Pessoa Jurídica",
        "info-tecnologia": [
            {
                "tecnologia": "VSAT",
                "tipo-de-Produto": "INTERNET",
                "meio-de-acesso": "Satélite",
                "quantidade-acesso": 10
            }
        ]
    },
    {
        "cidade": "Macarani",
        "uf": "BA",
        "latitude": -15.564563,
        "longitude": -40.420888,
        "empresa": "HUGHES",
        "cnpj": 5206385000161,
        "pf-ou-pj": "Pessoa Jurídica",
        "info-tecnologia": [
            {
                "tecnologia": "VSAT",
                "tipo-de-Produto": "INTERNET",
                "meio-de-acesso": "Satélite",
                "quantidade-acesso": 2
            }
        ]
    },
    {
        "cidade": "Macaúbas",
        "uf": "BA",
        "latitude": -13.018601,
        "longitude": -42.694515,
        "empresa": "HUGHES",
        "cnpj": 5206385000161,
        "pf-ou-pj": "Pessoa Jurídica",
        "info-tecnologia": [
            {
                "tecnologia": "VSAT",
                "tipo-de-Produto": "INTERNET",
                "meio-de-acesso": "Satélite",
                "quantidade-acesso": 1
            }
        ]
    },
    {
        "cidade": "Macururé",
        "uf": "BA",
        "latitude": -9.162258,
        "longitude": -39.051784,
        "empresa": "HUGHES",
        "cnpj": 5206385000161,
        "pf-ou-pj": "Pessoa Jurídica",
        "info-tecnologia": [
            {
                "tecnologia": "VSAT",
                "tipo-de-Produto": "INTERNET",
                "meio-de-acesso": "Satélite",
                "quantidade-acesso": 2
            }
        ]
    },
    {
        "cidade": "Madre de Deus",
        "uf": "BA",
        "latitude": -12.744621,
        "longitude": -38.615316,
        "empresa": "HUGHES",
        "cnpj": 5206385000161,
        "pf-ou-pj": "Pessoa Jurídica",
        "info-tecnologia": [
            {
                "tecnologia": "VSAT",
                "tipo-de-Produto": "INTERNET",
                "meio-de-acesso": "Satélite",
                "quantidade-acesso": 3
            }
        ]
    },
    {
        "cidade": "Maiquinique",
        "uf": "BA",
        "latitude": -15.623985,
        "longitude": -40.258722,
        "empresa": "HUGHES",
        "cnpj": 5206385000161,
        "pf-ou-pj": "Pessoa Jurídica",
        "info-tecnologia": [
            {
                "tecnologia": "VSAT",
                "tipo-de-Produto": "INTERNET",
                "meio-de-acesso": "Satélite",
                "quantidade-acesso": 5
            }
        ]
    },
    {
        "cidade": "Mairi",
        "uf": "BA",
        "latitude": -11.710704,
        "longitude": -40.143732,
        "empresa": "HUGHES",
        "cnpj": 5206385000161,
        "pf-ou-pj": "Pessoa Jurídica",
        "info-tecnologia": [
            {
                "tecnologia": "VSAT",
                "tipo-de-Produto": "INTERNET",
                "meio-de-acesso": "Satélite",
                "quantidade-acesso": 1
            }
        ]
    },
    {
        "cidade": "Malhada",
        "uf": "BA",
        "latitude": -14.337134,
        "longitude": -43.768634,
        "empresa": "HUGHES",
        "cnpj": 5206385000161,
        "pf-ou-pj": "Pessoa Jurídica",
        "info-tecnologia": [
            {
                "tecnologia": "VSAT",
                "tipo-de-Produto": "INTERNET",
                "meio-de-acesso": "Satélite",
                "quantidade-acesso": 2
            }
        ]
    },
    {
        "cidade": "Malhada de Pedras",
        "uf": "BA",
        "latitude": -14.384673,
        "longitude": -41.88422,
        "empresa": "HUGHES",
        "cnpj": 5206385000161,
        "pf-ou-pj": "Pessoa Jurídica",
        "info-tecnologia": [
            {
                "tecnologia": "VSAT",
                "tipo-de-Produto": "INTERNET",
                "meio-de-acesso": "Satélite",
                "quantidade-acesso": 1
            }
        ]
    },
    {
        "cidade": "Manoel Vitorino",
        "uf": "BA",
        "latitude": -14.147617,
        "longitude": -40.239895,
        "empresa": "HUGHES",
        "cnpj": 5206385000161,
        "pf-ou-pj": "Pessoa Jurídica",
        "info-tecnologia": [
            {
                "tecnologia": "VSAT",
                "tipo-de-Produto": "INTERNET",
                "meio-de-acesso": "Satélite",
                "quantidade-acesso": 4
            }
        ]
    },
    {
        "cidade": "Mansidão",
        "uf": "BA",
        "latitude": -10.722707,
        "longitude": -44.042798,
        "empresa": "HUGHES",
        "cnpj": 5206385000161,
        "pf-ou-pj": "Pessoa Jurídica",
        "info-tecnologia": [
            {
                "tecnologia": "VSAT",
                "tipo-de-Produto": "INTERNET",
                "meio-de-acesso": "Satélite",
                "quantidade-acesso": 31
            }
        ]
    },
    {
        "cidade": "Maracás",
        "uf": "BA",
        "latitude": -13.435468,
        "longitude": -40.432333,
        "empresa": "HUGHES",
        "cnpj": 5206385000161,
        "pf-ou-pj": "Pessoa Jurídica",
        "info-tecnologia": [
            {
                "tecnologia": "VSAT",
                "tipo-de-Produto": "INTERNET",
                "meio-de-acesso": "Satélite",
                "quantidade-acesso": 5
            }
        ]
    },
    {
        "cidade": "Maragogipe",
        "uf": "BA",
        "latitude": -12.77602,
        "longitude": -38.917519,
        "empresa": "HUGHES",
        "cnpj": 5206385000161,
        "pf-ou-pj": "Pessoa Jurídica",
        "info-tecnologia": [
            {
                "tecnologia": "VSAT",
                "tipo-de-Produto": "INTERNET",
                "meio-de-acesso": "Satélite",
                "quantidade-acesso": 2
            }
        ]
    },
    {
        "cidade": "Maraú",
        "uf": "BA",
        "latitude": -14.103549,
        "longitude": -39.013656,
        "empresa": "HUGHES",
        "cnpj": 5206385000161,
        "pf-ou-pj": "Pessoa Jurídica",
        "info-tecnologia": [
            {
                "tecnologia": "VSAT",
                "tipo-de-Produto": "INTERNET",
                "meio-de-acesso": "Satélite",
                "quantidade-acesso": 118
            }
        ]
    },
    {
        "cidade": "Marcionílio Souza",
        "uf": "BA",
        "latitude": -13.006437,
        "longitude": -40.529457,
        "empresa": "HUGHES",
        "cnpj": 5206385000161,
        "pf-ou-pj": "Pessoa Jurídica",
        "info-tecnologia": [
            {
                "tecnologia": "VSAT",
                "tipo-de-Produto": "INTERNET",
                "meio-de-acesso": "Satélite",
                "quantidade-acesso": 9
            }
        ]
    },
    {
        "cidade": "Mascote",
        "uf": "BA",
        "latitude": -15.554159,
        "longitude": -39.301602,
        "empresa": "HUGHES",
        "cnpj": 5206385000161,
        "pf-ou-pj": "Pessoa Jurídica",
        "info-tecnologia": [
            {
                "tecnologia": "VSAT",
                "tipo-de-Produto": "INTERNET",
                "meio-de-acesso": "Satélite",
                "quantidade-acesso": 23
            }
        ]
    },
    {
        "cidade": "Mata de São João",
        "uf": "BA",
        "latitude": -12.530685,
        "longitude": -38.300898,
        "empresa": "HUGHES",
        "cnpj": 5206385000161,
        "pf-ou-pj": "Pessoa Jurídica",
        "info-tecnologia": [
            {
                "tecnologia": "VSAT",
                "tipo-de-Produto": "INTERNET",
                "meio-de-acesso": "Satélite",
                "quantidade-acesso": 14
            }
        ]
    },
    {
        "cidade": "Medeiros Neto",
        "uf": "BA",
        "latitude": -17.370676,
        "longitude": -40.223776,
        "empresa": "HUGHES",
        "cnpj": 5206385000161,
        "pf-ou-pj": "Pessoa Jurídica",
        "info-tecnologia": [
            {
                "tecnologia": "VSAT",
                "tipo-de-Produto": "INTERNET",
                "meio-de-acesso": "Satélite",
                "quantidade-acesso": 5
            }
        ]
    },
    {
        "cidade": "Miguel Calmon",
        "uf": "BA",
        "latitude": -11.429891,
        "longitude": -40.603084,
        "empresa": "HUGHES",
        "cnpj": 5206385000161,
        "pf-ou-pj": "Pessoa Jurídica",
        "info-tecnologia": [
            {
                "tecnologia": "VSAT",
                "tipo-de-Produto": "INTERNET",
                "meio-de-acesso": "Satélite",
                "quantidade-acesso": 4
            }
        ]
    },