[
    {
        "cidade": "Alto Alegre",
        "uf": "RR",
        "latitude": 2.98858,
        "longitude": -61.307167,
        "empresa": "STARLINK BRAZIL SERVICOS DE INTERNET LTDA.",
        "cnpj": 40154884000153,
        "pf-ou-pj": "Pessoa Física",
        "info-tecnologia": [
            {
                "tecnologia": "VSAT",
                "tipo-de-Produto": "INTERNET",
                "meio-de-acesso": "Satélite",
                "quantidade-acesso": 44
            }
        ]
    },
    {
        "cidade": "Amajari",
        "uf": "RR",
        "latitude": 3.645714,
        "longitude": -61.369245,
        "empresa": "STARLINK BRAZIL SERVICOS DE INTERNET LTDA.",
        "cnpj": 40154884000153,
        "pf-ou-pj": "Pessoa Física",
        "info-tecnologia": [
            {
                "tecnologia": "VSAT",
                "tipo-de-Produto": "INTERNET",
                "meio-de-acesso": "Satélite",
                "quantidade-acesso": 38
            }
        ]
    },
    {
        "cidade": "Boa Vista",
        "uf": "RR",
        "latitude": 2.823842,
        "longitude": -60.675328,
        "empresa": "STARLINK BRAZIL SERVICOS DE INTERNET LTDA.",
        "cnpj": 40154884000153,
        "pf-ou-pj": "Pessoa Física",
        "info-tecnologia": [
            {
                "tecnologia": "VSAT",
                "tipo-de-Produto": "INTERNET",
                "meio-de-acesso": "Satélite",
                "quantidade-acesso": 1240
            }
        ]
    },
    {
        "cidade": "Bonfim",
        "uf": "RR",
        "latitude": 3.361614,
        "longitude": -59.8333,
        "empresa": "STARLINK BRAZIL SERVICOS DE INTERNET LTDA.",
        "cnpj": 40154884000153,
        "pf-ou-pj": "Pessoa Física",
        "info-tecnologia": [
            {
                "tecnologia": "VSAT",
                "tipo-de-Produto": "INTERNET",
                "meio-de-acesso": "Satélite",
                "quantidade-acesso": 30
            }
        ]
    },
    {
        "cidade": "Cantá",
        "uf": "RR",
        "latitude": 2.60994,
        "longitude": -60.605827,
        "empresa": "STARLINK BRAZIL SERVICOS DE INTERNET LTDA.",
        "cnpj": 40154884000153,
        "pf-ou-pj": "Pessoa Física",
        "info-tecnologia": [
            {
                "tecnologia": "VSAT",
                "tipo-de-Produto": "INTERNET",
                "meio-de-acesso": "Satélite",
                "quantidade-acesso": 40
            }
        ]
    },
    {
        "cidade": "Caracaraí",
        "uf": "RR",
        "latitude": 1.827659,
        "longitude": -61.130378,
        "empresa": "STARLINK BRAZIL SERVICOS DE INTERNET LTDA.",
        "cnpj": 40154884000153,
        "pf-ou-pj": "Pessoa Física",
        "info-tecnologia": [
            {
                "tecnologia": "VSAT",
                "tipo-de-Produto": "INTERNET",
                "meio-de-acesso": "Satélite",
                "quantidade-acesso": 151
            }
        ]
    },
    {
        "cidade": "Caroebe",
        "uf": "RR",
        "latitude": 0.884203,
        "longitude": -59.695886,
        "empresa": "STARLINK BRAZIL SERVICOS DE INTERNET LTDA.",
        "cnpj": 40154884000153,
        "pf-ou-pj": "Pessoa Física",
        "info-tecnologia": [
            {
                "tecnologia": "VSAT",
                "tipo-de-Produto": "INTERNET",
                "meio-de-acesso": "Satélite",
                "quantidade-acesso": 20
            }
        ]
    },
    {
        "cidade": "Iracema",
        "uf": "RR",
        "latitude": 2.183046,
        "longitude": -61.041546,
        "empresa": "STARLINK BRAZIL SERVICOS DE INTERNET LTDA.",
        "cnpj": 40154884000153,
        "pf-ou-pj": "Pessoa Física",
        "info-tecnologia": [
            {
                "tecnologia": "VSAT",
                "tipo-de-Produto": "INTERNET",
                "meio-de-acesso": "Satélite",
                "quantidade-acesso": 31
            }
        ]
    },
    {
        "cidade": "Mucajaí",
        "uf": "RR",
        "latitude": 2.439982,
        "longitude": -60.909619,
        "empresa": "STARLINK BRAZIL SERVICOS DE INTERNET LTDA.",
        "cnpj": 40154884000153,
        "pf-ou-pj": "Pessoa Física",
        "info-tecnologia": [
            {
                "tecnologia": "VSAT",
                "tipo-de-Produto": "INTERNET",
                "meio-de-acesso": "Satélite",
                "quantidade-acesso": 50
            }
        ]
    },
    {
        "cidade": "Normandia",
        "uf": "RR",
        "latitude": 3.885305,
        "longitude": -59.620402,
        "empresa": "STARLINK BRAZIL SERVICOS DE INTERNET LTDA.",
        "cnpj": 40154884000153,
        "pf-ou-pj": "Pessoa Física",
        "info-tecnologia": [
            {
                "tecnologia": "VSAT",
                "tipo-de-Produto": "INTERNET",
                "meio-de-acesso": "Satélite",
                "quantidade-acesso": 6
            }
        ]
    },
    {
        "cidade": "Pacaraima",
        "uf": "RR",
        "latitude": 4.479895,
        "longitude": -61.147695,
        "empresa": "STARLINK BRAZIL SERVICOS DE INTERNET LTDA.",
        "cnpj": 40154884000153,
        "pf-ou-pj": "Pessoa Física",
        "info-tecnologia": [
            {
                "tecnologia": "VSAT",
                "tipo-de-Produto": "INTERNET",
                "meio-de-acesso": "Satélite",
                "quantidade-acesso": 29
            }
        ]
    },
    {
        "cidade": "Rorainópolis",
        "uf": "RR",
        "latitude": 0.939956,
        "longitude": -60.438923,
        "empresa": "STARLINK BRAZIL SERVICOS DE INTERNET LTDA.",
        "cnpj": 40154884000153,
        "pf-ou-pj": "Pessoa Física",
        "info-tecnologia": [
            {
                "tecnologia": "VSAT",
                "tipo-de-Produto": "INTERNET",
                "meio-de-acesso": "Satélite",
                "quantidade-acesso": 104
            }
        ]
    },
    {
        "cidade": "São João da Baliza",
        "uf": "RR",
        "latitude": 0.951659,
        "longitude": -59.913293,
        "empresa": "STARLINK BRAZIL SERVICOS DE INTERNET LTDA.",
        "cnpj": 40154884000153,
        "pf-ou-pj": "Pessoa Física",
        "info-tecnologia": [
            {
                "tecnologia": "VSAT",
                "tipo-de-Produto": "INTERNET",
                "meio-de-acesso": "Satélite",
                "quantidade-acesso": 14
            }
        ]
    },
    {
        "cidade": "São Luiz",
        "uf": "RR",
        "latitude": 1.010193,
        "longitude": -60.041894,
        "empresa": "STARLINK BRAZIL SERVICOS DE INTERNET LTDA.",
        "cnpj": 40154884000153,
        "pf-ou-pj": "Pessoa Física",
        "info-tecnologia": [
            {
                "tecnologia": "VSAT",
                "tipo-de-Produto": "INTERNET",
                "meio-de-acesso": "Satélite",
                "quantidade-acesso": 7
            }
        ]
    },
    {
        "cidade": "Uiramutã",
        "uf": "RR",
        "latitude": 4.603144,
        "longitude": -60.181464,
        "empresa": "STARLINK BRAZIL SERVICOS DE INTERNET LTDA.",
        "cnpj": 40154884000153,
        "pf-ou-pj": "Pessoa Física",
        "info-tecnologia": [
            {
                "tecnologia": "VSAT",
                "tipo-de-Produto": "INTERNET",
                "meio-de-acesso": "Satélite",
                "quantidade-acesso": 82
            }
        ]
    }
]