[
    {
        "cidade": "Abreu e Lima",
        "uf": "PE",
        "latitude": -7.900719,
        "longitude": -34.898389,
        "empresa": "OI",
        "cnpj": 76535764000143.0,
        "pf-ou-pj": "Pessoa Física",
        "info-tecnologia": [
            {
                "tecnologia": "FTTH",
                "tipo-de-Produto": "INTERNET",
                "meio-de-acesso": "Fibra",
                "quantidade-acesso": 1
            }
        ]
    },
    {
        "cidade": "Cabo de Santo Agostinho",
        "uf": "PE",
        "latitude": -8.28218,
        "longitude": -35.025293,
        "empresa": "OI",
        "cnpj": 76535764000143.0,
        "pf-ou-pj": "Pessoa Física",
        "info-tecnologia": [
            {
                "tecnologia": "FTTH",
                "tipo-de-Produto": "INTERNET",
                "meio-de-acesso": "Fibra",
                "quantidade-acesso": 292
            }
        ]
    },
    {
        "cidade": "Camaragibe",
        "uf": "PE",
        "latitude": -8.023505,
        "longitude": -34.978152,
        "empresa": "OI",
        "cnpj": 76535764000143.0,
        "pf-ou-pj": "Pessoa Física",
        "info-tecnologia": [
            {
                "tecnologia": "FTTH",
                "tipo-de-Produto": "INTERNET",
                "meio-de-acesso": "Fibra",
                "quantidade-acesso": 2
            }
        ]
    },
    {
        "cidade": "Caruaru",
        "uf": "PE",
        "latitude": -8.284547,
        "longitude": -35.969863,
        "empresa": "OI",
        "cnpj": 76535764000143.0,
        "pf-ou-pj": "Pessoa Física",
        "info-tecnologia": [
            {
                "tecnologia": "FTTH",
                "tipo-de-Produto": "INTERNET",
                "meio-de-acesso": "Fibra",
                "quantidade-acesso": 6348
            }
        ]
    },
    {
        "cidade": "Goiana",
        "uf": "PE",
        "latitude": -7.560603,
        "longitude": -34.99591,
        "empresa": "OI",
        "cnpj": 76535764000143.0,
        "pf-ou-pj": "Pessoa Física",
        "info-tecnologia": [
            {
                "tecnologia": "FTTH",
                "tipo-de-Produto": "INTERNET",
                "meio-de-acesso": "Fibra",
                "quantidade-acesso": 506
            }
        ]
    },
    {
        "cidade": "Jaboatão dos Guararapes",
        "uf": "PE",
        "latitude": -8.112982,
        "longitude": -35.014959,
        "empresa": "OI",
        "cnpj": 76535764000143.0,
        "pf-ou-pj": "Pessoa Física",
        "info-tecnologia": [
            {
                "tecnologia": "FTTH",
                "tipo-de-Produto": "INTERNET",
                "meio-de-acesso": "Fibra",
                "quantidade-acesso": 249
            }
        ]
    },
    {
        "cidade": "Olinda",
        "uf": "PE",
        "latitude": -8.010166,
        "longitude": -34.854504,
        "empresa": "OI",
        "cnpj": 76535764000143.0,
        "pf-ou-pj": "Pessoa Física",
        "info-tecnologia": [
            {
                "tecnologia": "FTTH",
                "tipo-de-Produto": "INTERNET",
                "meio-de-acesso": "Fibra",
                "quantidade-acesso": 16528
            }
        ]
    },
    {
        "cidade": "Paulista",
        "uf": "PE",
        "latitude": -7.934007,
        "longitude": -34.868407,
        "empresa": "OI",
        "cnpj": 76535764000143.0,
        "pf-ou-pj": "Pessoa Física",
        "info-tecnologia": [
            {
                "tecnologia": "FTTH",
                "tipo-de-Produto": "INTERNET",
                "meio-de-acesso": "Fibra",
                "quantidade-acesso": 419
            }
        ]
    },
    {
        "cidade": "Petrolina",
        "uf": "PE",
        "latitude": -9.388662,
        "longitude": -40.502731,
        "empresa": "OI",
        "cnpj": 76535764000143.0,
        "pf-ou-pj": "Pessoa Física",
        "info-tecnologia": [
            {
                "tecnologia": "FTTH",
                "tipo-de-Produto": "INTERNET",
                "meio-de-acesso": "Fibra",
                "quantidade-acesso": 1109
            }
        ]
    },
    {
        "cidade": "Recife",
        "uf": "PE",
        "latitude": -8.046658,
        "longitude": -34.877065,
        "empresa": "OI",
        "cnpj": 76535764000143.0,
        "pf-ou-pj": "Pessoa Física",
        "info-tecnologia": [
            {
                "tecnologia": "FTTH",
                "tipo-de-Produto": "INTERNET",
                "meio-de-acesso": "Fibra",
                "quantidade-acesso": 24700
            }
        ]
    },
    {
        "cidade": "São Lourenço da Mata",
        "uf": "PE",
        "latitude": -8.00684,
        "longitude": -35.012359,
        "empresa": "OI",
        "cnpj": 76535764000143.0,
        "pf-ou-pj": "Pessoa Física",
        "info-tecnologia": [
            {
                "tecnologia": "FTTH",
                "tipo-de-Produto": "INTERNET",
                "meio-de-acesso": "Fibra",
                "quantidade-acesso": 1
            }
        ]
    }
]