[
    {
        "cidade": "Abatiá",
        "uf": "PR",
        "latitude": -23.304863,
        "longitude": -50.313281,
        "empresa": "HUGHES",
        "cnpj": 5206385000161,
        "pf-ou-pj": "Pessoa Jurídica",
        "info-tecnologia": [
            {
                "tecnologia": "VSAT",
                "tipo-de-Produto": "INTERNET",
                "meio-de-acesso": "Satélite",
                "quantidade-acesso": 3
            }
        ]
    },
    {
        "cidade": "Adrianópolis",
        "uf": "PR",
        "latitude": -24.660607,
        "longitude": -48.992164,
        "empresa": "HUGHES",
        "cnpj": 5206385000161,
        "pf-ou-pj": "Pessoa Jurídica",
        "info-tecnologia": [
            {
                "tecnologia": "VSAT",
                "tipo-de-Produto": "INTERNET",
                "meio-de-acesso": "Satélite",
                "quantidade-acesso": 25
            }
        ]
    },
    {
        "cidade": "Agudos do Sul",
        "uf": "PR",
        "latitude": -25.9899,
        "longitude": -49.334293,
        "empresa": "HUGHES",
        "cnpj": 5206385000161,
        "pf-ou-pj": "Pessoa Jurídica",
        "info-tecnologia": [
            {
                "tecnologia": "VSAT",
                "tipo-de-Produto": "INTERNET",
                "meio-de-acesso": "Satélite",
                "quantidade-acesso": 5
            }
        ]
    },
    {
        "cidade": "Almirante Tamandaré",
        "uf": "PR",
        "latitude": -25.318819,
        "longitude": -49.303733,
        "empresa": "HUGHES",
        "cnpj": 5206385000161,
        "pf-ou-pj": "Pessoa Jurídica",
        "info-tecnologia": [
            {
                "tecnologia": "VSAT",
                "tipo-de-Produto": "INTERNET",
                "meio-de-acesso": "Satélite",
                "quantidade-acesso": 10
            }
        ]
    },
    {
        "cidade": "Altamira do Paraná",
        "uf": "PR",
        "latitude": -24.798293,
        "longitude": -52.712829,
        "empresa": "HUGHES",
        "cnpj": 5206385000161,
        "pf-ou-pj": "Pessoa Jurídica",
        "info-tecnologia": [
            {
                "tecnologia": "VSAT",
                "tipo-de-Produto": "INTERNET",
                "meio-de-acesso": "Satélite",
                "quantidade-acesso": 9
            }
        ]
    },
    {
        "cidade": "Alto Paraná",
        "uf": "PR",
        "latitude": -23.131247,
        "longitude": -52.318893,
        "empresa": "HUGHES",
        "cnpj": 5206385000161,
        "pf-ou-pj": "Pessoa Jurídica",
        "info-tecnologia": [
            {
                "tecnologia": "VSAT",
                "tipo-de-Produto": "INTERNET",
                "meio-de-acesso": "Satélite",
                "quantidade-acesso": 9
            }
        ]
    },
    {
        "cidade": "Alto Paraíso",
        "uf": "PR",
        "latitude": -23.508137,
        "longitude": -53.728537,
        "empresa": "HUGHES",
        "cnpj": 5206385000161,
        "pf-ou-pj": "Pessoa Jurídica",
        "info-tecnologia": [
            {
                "tecnologia": "VSAT",
                "tipo-de-Produto": "INTERNET",
                "meio-de-acesso": "Satélite",
                "quantidade-acesso": 3
            }
        ]
    },
    {
        "cidade": "Alto Piquiri",
        "uf": "PR",
        "latitude": -24.022427,
        "longitude": -53.440045,
        "empresa": "HUGHES",
        "cnpj": 5206385000161,
        "pf-ou-pj": "Pessoa Jurídica",
        "info-tecnologia": [
            {
                "tecnologia": "VSAT",
                "tipo-de-Produto": "INTERNET",
                "meio-de-acesso": "Satélite",
                "quantidade-acesso": 1
            }
        ]
    },
    {
        "cidade": "Alvorada do Sul",
        "uf": "PR",
        "latitude": -22.781282,
        "longitude": -51.229709,
        "empresa": "HUGHES",
        "cnpj": 5206385000161,
        "pf-ou-pj": "Pessoa Jurídica",
        "info-tecnologia": [
            {
                "tecnologia": "VSAT",
                "tipo-de-Produto": "INTERNET",
                "meio-de-acesso": "Satélite",
                "quantidade-acesso": 4
            }
        ]
    },
    {
        "cidade": "Amaporã",
        "uf": "PR",
        "latitude": -23.094272,
        "longitude": -52.786597,
        "empresa": "HUGHES",
        "cnpj": 5206385000161,
        "pf-ou-pj": "Pessoa Jurídica",
        "info-tecnologia": [
            {
                "tecnologia": "VSAT",
                "tipo-de-Produto": "INTERNET",
                "meio-de-acesso": "Satélite",
                "quantidade-acesso": 3
            }
        ]
    },
    {
        "cidade": "Anahy",
        "uf": "PR",
        "latitude": -24.644865,
        "longitude": -53.133235,
        "empresa": "HUGHES",
        "cnpj": 5206385000161,
        "pf-ou-pj": "Pessoa Jurídica",
        "info-tecnologia": [
            {
                "tecnologia": "VSAT",
                "tipo-de-Produto": "INTERNET",
                "meio-de-acesso": "Satélite",
                "quantidade-acesso": 2
            }
        ]
    },
    {
        "cidade": "Antonina",
        "uf": "PR",
        "latitude": -25.438597,
        "longitude": -48.719113,
        "empresa": "HUGHES",
        "cnpj": 5206385000161,
        "pf-ou-pj": "Pessoa Jurídica",
        "info-tecnologia": [
            {
                "tecnologia": "VSAT",
                "tipo-de-Produto": "INTERNET",
                "meio-de-acesso": "Satélite",
                "quantidade-acesso": 2
            }
        ]
    },
    {
        "cidade": "Antônio Olinto",
        "uf": "PR",
        "latitude": -25.98038,
        "longitude": -50.197183,
        "empresa": "HUGHES",
        "cnpj": 5206385000161,
        "pf-ou-pj": "Pessoa Jurídica",
        "info-tecnologia": [
            {
                "tecnologia": "VSAT",
                "tipo-de-Produto": "INTERNET",
                "meio-de-acesso": "Satélite",
                "quantidade-acesso": 25
            }
        ]
    },
    {
        "cidade": "Apucarana",
        "uf": "PR",
        "latitude": -23.549961,
        "longitude": -51.463486,
        "empresa": "HUGHES",
        "cnpj": 5206385000161,
        "pf-ou-pj": "Pessoa Jurídica",
        "info-tecnologia": [
            {
                "tecnologia": "VSAT",
                "tipo-de-Produto": "INTERNET",
                "meio-de-acesso": "Satélite",
                "quantidade-acesso": 5
            }
        ]
    },
    {
        "cidade": "Arapongas",
        "uf": "PR",
        "latitude": -23.415296,
        "longitude": -51.42592,
        "empresa": "HUGHES",
        "cnpj": 5206385000161,
        "pf-ou-pj": "Pessoa Jurídica",
        "info-tecnologia": [
            {
                "tecnologia": "VSAT",
                "tipo-de-Produto": "INTERNET",
                "meio-de-acesso": "Satélite",
                "quantidade-acesso": 3
            }
        ]
    },
    {
        "cidade": "Arapoti",
        "uf": "PR",
        "latitude": -24.154798,
        "longitude": -49.828453,
        "empresa": "HUGHES",
        "cnpj": 5206385000161,
        "pf-ou-pj": "Pessoa Jurídica",
        "info-tecnologia": [
            {
                "tecnologia": "VSAT",
                "tipo-de-Produto": "INTERNET",
                "meio-de-acesso": "Satélite",
                "quantidade-acesso": 14
            }
        ]
    },
    {
        "cidade": "Arapuã",
        "uf": "PR",
        "latitude": -24.313181,
        "longitude": -51.785637,
        "empresa": "HUGHES",
        "cnpj": 5206385000161,
        "pf-ou-pj": "Pessoa Jurídica",
        "info-tecnologia": [
            {
                "tecnologia": "VSAT",
                "tipo-de-Produto": "INTERNET",
                "meio-de-acesso": "Satélite",
                "quantidade-acesso": 15
            }
        ]
    },
    {
        "cidade": "Araruna",
        "uf": "PR",
        "latitude": -23.9315,
        "longitude": -52.502101,
        "empresa": "HUGHES",
        "cnpj": 5206385000161,
        "pf-ou-pj": "Pessoa Jurídica",
        "info-tecnologia": [
            {
                "tecnologia": "VSAT",
                "tipo-de-Produto": "INTERNET",
                "meio-de-acesso": "Satélite",
                "quantidade-acesso": 2
            }
        ]
    },
    {
        "cidade": "Araucária",
        "uf": "PR",
        "latitude": -25.585939,
        "longitude": -49.404748,
        "empresa": "HUGHES",
        "cnpj": 5206385000161,
        "pf-ou-pj": "Pessoa Jurídica",
        "info-tecnologia": [
            {
                "tecnologia": "VSAT",
                "tipo-de-Produto": "INTERNET",
                "meio-de-acesso": "Satélite",
                "quantidade-acesso": 12
            }
        ]
    },
    {
        "cidade": "Ariranha do Ivaí",
        "uf": "PR",
        "latitude": -24.385708,
        "longitude": -51.583935,
        "empresa": "HUGHES",
        "cnpj": 5206385000161,
        "pf-ou-pj": "Pessoa Jurídica",
        "info-tecnologia": [
            {
                "tecnologia": "VSAT",
                "tipo-de-Produto": "INTERNET",
                "meio-de-acesso": "Satélite",
                "quantidade-acesso": 1
            }
        ]
    },
    {
        "cidade": "Assaí",
        "uf": "PR",
        "latitude": -23.369679,
        "longitude": -50.845925,
        "empresa": "HUGHES",
        "cnpj": 5206385000161,
        "pf-ou-pj": "Pessoa Jurídica",
        "info-tecnologia": [
            {
                "tecnologia": "VSAT",
                "tipo-de-Produto": "INTERNET",
                "meio-de-acesso": "Satélite",
                "quantidade-acesso": 1
            }
        ]
    },
    {
        "cidade": "Assis Chateaubriand",
        "uf": "PR",
        "latitude": -24.416826,
        "longitude": -53.521327,
        "empresa": "HUGHES",
        "cnpj": 5206385000161,
        "pf-ou-pj": "Pessoa Jurídica",
        "info-tecnologia": [
            {
                "tecnologia": "VSAT",
                "tipo-de-Produto": "INTERNET",
                "meio-de-acesso": "Satélite",
                "quantidade-acesso": 6
            }
        ]
    },
    {
        "cidade": "Astorga",
        "uf": "PR",
        "latitude": -23.231827,
        "longitude": -51.666777,
        "empresa": "HUGHES",
        "cnpj": 5206385000161,
        "pf-ou-pj": "Pessoa Jurídica",
        "info-tecnologia": [
            {
                "tecnologia": "VSAT",
                "tipo-de-Produto": "INTERNET",
                "meio-de-acesso": "Satélite",
                "quantidade-acesso": 1
            }
        ]
    },
    {
        "cidade": "Balsa Nova",
        "uf": "PR",
        "latitude": -25.58037,
        "longitude": -49.629079,
        "empresa": "HUGHES",
        "cnpj": 5206385000161,
        "pf-ou-pj": "Pessoa Jurídica",
        "info-tecnologia": [
            {
                "tecnologia": "VSAT",
                "tipo-de-Produto": "INTERNET",
                "meio-de-acesso": "Satélite",
                "quantidade-acesso": 5
            }
        ]
    },
    {
        "cidade": "Bandeirantes",
        "uf": "PR",
        "latitude": -23.107788,
        "longitude": -50.370407,
        "empresa": "HUGHES",
        "cnpj": 5206385000161,
        "pf-ou-pj": "Pessoa Jurídica",
        "info-tecnologia": [
            {
                "tecnologia": "VSAT",
                "tipo-de-Produto": "INTERNET",
                "meio-de-acesso": "Satélite",
                "quantidade-acesso": 5
            }
        ]
    },
    {
        "cidade": "Barbosa Ferraz",
        "uf": "PR",
        "latitude": -24.033382,
        "longitude": -52.003963,
        "empresa": "HUGHES",
        "cnpj": 5206385000161,
        "pf-ou-pj": "Pessoa Jurídica",
        "info-tecnologia": [
            {
                "tecnologia": "VSAT",
                "tipo-de-Produto": "INTERNET",
                "meio-de-acesso": "Satélite",
                "quantidade-acesso": 16
            }
        ]
    },
    {
        "cidade": "Barra do Jacaré",
        "uf": "PR",
        "latitude": -23.116041,
        "longitude": -50.184162,
        "empresa": "HUGHES",
        "cnpj": 5206385000161,
        "pf-ou-pj": "Pessoa Jurídica",
        "info-tecnologia": [
            {
                "tecnologia": "VSAT",
                "tipo-de-Produto": "INTERNET",
                "meio-de-acesso": "Satélite",
                "quantidade-acesso": 3
            }
        ]
    },
    {
        "cidade": "Barracão",
        "uf": "PR",
        "latitude": -26.25023,
        "longitude": -53.632385,
        "empresa": "HUGHES",
        "cnpj": 5206385000161,
        "pf-ou-pj": "Pessoa Jurídica",
        "info-tecnologia": [
            {
                "tecnologia": "VSAT",
                "tipo-de-Produto": "INTERNET",
                "meio-de-acesso": "Satélite",
                "quantidade-acesso": 1
            }
        ]
    },
    {
        "cidade": "Bela Vista da Caroba",
        "uf": "PR",
        "latitude": -25.884179,
        "longitude": -53.672505,
        "empresa": "HUGHES",
        "cnpj": 5206385000161,
        "pf-ou-pj": "Pessoa Jurídica",
        "info-tecnologia": [
            {
                "tecnologia": "VSAT",
                "tipo-de-Produto": "INTERNET",
                "meio-de-acesso": "Satélite",
                "quantidade-acesso": 1
            }
        ]
    },
    {
        "cidade": "Bituruna",
        "uf": "PR",
        "latitude": -26.160746,
        "longitude": -51.551792,
        "empresa": "HUGHES",
        "cnpj": 5206385000161,
        "pf-ou-pj": "Pessoa Jurídica",
        "info-tecnologia": [
            {
                "tecnologia": "VSAT",
                "tipo-de-Produto": "INTERNET",
                "meio-de-acesso": "Satélite",
                "quantidade-acesso": 46
            }
        ]
    },
    {
        "cidade": "Boa Esperança",
        "uf": "PR",
        "latitude": -24.246738,
        "longitude": -52.78756,
        "empresa": "HUGHES",
        "cnpj": 5206385000161,
        "pf-ou-pj": "Pessoa Jurídica",
        "info-tecnologia": [
            {
                "tecnologia": "VSAT",
                "tipo-de-Produto": "INTERNET",
                "meio-de-acesso": "Satélite",
                "quantidade-acesso": 2
            }
        ]
    },
    {
        "cidade": "Boa Esperança do Iguaçu",
        "uf": "PR",
        "latitude": -25.632435,
        "longitude": -53.210818,
        "empresa": "HUGHES",
        "cnpj": 5206385000161,
        "pf-ou-pj": "Pessoa Jurídica",
        "info-tecnologia": [
            {
                "tecnologia": "VSAT",
                "tipo-de-Produto": "INTERNET",
                "meio-de-acesso": "Satélite",
                "quantidade-acesso": 2
            }
        ]
    },
    {
        "cidade": "Boa Ventura de São Roque",
        "uf": "PR",
        "latitude": -24.868797,
        "longitude": -51.627612,
        "empresa": "HUGHES",
        "cnpj": 5206385000161,
        "pf-ou-pj": "Pessoa Jurídica",
        "info-tecnologia": [
            {
                "tecnologia": "VSAT",
                "tipo-de-Produto": "INTERNET",
                "meio-de-acesso": "Satélite",
                "quantidade-acesso": 27
            }
        ]
    },
    {
        "cidade": "Bocaiúva do Sul",
        "uf": "PR",
        "latitude": -25.206591,
        "longitude": -49.114131,
        "empresa": "HUGHES",
        "cnpj": 5206385000161,
        "pf-ou-pj": "Pessoa Jurídica",
        "info-tecnologia": [
            {
                "tecnologia": "VSAT",
                "tipo-de-Produto": "INTERNET",
                "meio-de-acesso": "Satélite",
                "quantidade-acesso": 7
            }
        ]
    },
    {
        "cidade": "Bom Jesus do Sul",
        "uf": "PR",
        "latitude": -26.195802,
        "longitude": -53.595493,
        "empresa": "HUGHES",
        "cnpj": 5206385000161,
        "pf-ou-pj": "Pessoa Jurídica",
        "info-tecnologia": [
            {
                "tecnologia": "VSAT",
                "tipo-de-Produto": "INTERNET",
                "meio-de-acesso": "Satélite",
                "quantidade-acesso": 1
            }
        ]
    },
    {
        "cidade": "Bom Sucesso do Sul",
        "uf": "PR",
        "latitude": -26.073113,
        "longitude": -52.835297,
        "empresa": "HUGHES",
        "cnpj": 5206385000161,
        "pf-ou-pj": "Pessoa Jurídica",
        "info-tecnologia": [
            {
                "tecnologia": "VSAT",
                "tipo-de-Produto": "INTERNET",
                "meio-de-acesso": "Satélite",
                "quantidade-acesso": 3
            }
        ]
    },
    {
        "cidade": "Braganey",
        "uf": "PR",
        "latitude": -24.81734,
        "longitude": -53.121787,
        "empresa": "HUGHES",
        "cnpj": 5206385000161,
        "pf-ou-pj": "Pessoa Jurídica",
        "info-tecnologia": [
            {
                "tecnologia": "VSAT",
                "tipo-de-Produto": "INTERNET",
                "meio-de-acesso": "Satélite",
                "quantidade-acesso": 10
            }
        ]
    },
    {
        "cidade": "Brasilândia do Sul",
        "uf": "PR",
        "latitude": -24.197762,
        "longitude": -53.527527,
        "empresa": "HUGHES",
        "cnpj": 5206385000161,
        "pf-ou-pj": "Pessoa Jurídica",
        "info-tecnologia": [
            {
                "tecnologia": "VSAT",
                "tipo-de-Produto": "INTERNET",
                "meio-de-acesso": "Satélite",
                "quantidade-acesso": 1
            }
        ]
    },
    {
        "cidade": "Cafeara",
        "uf": "PR",
        "latitude": -22.78905,
        "longitude": -51.714195,
        "empresa": "HUGHES",
        "cnpj": 5206385000161,
        "pf-ou-pj": "Pessoa Jurídica",
        "info-tecnologia": [
            {
                "tecnologia": "VSAT",
                "tipo-de-Produto": "INTERNET",
                "meio-de-acesso": "Satélite",
                "quantidade-acesso": 1
            }
        ]
    },
    {
        "cidade": "Cafezal do Sul",
        "uf": "PR",
        "latitude": -23.900508,
        "longitude": -53.512418,
        "empresa": "HUGHES",
        "cnpj": 5206385000161,
        "pf-ou-pj": "Pessoa Jurídica",
        "info-tecnologia": [
            {
                "tecnologia": "VSAT",
                "tipo-de-Produto": "INTERNET",
                "meio-de-acesso": "Satélite",
                "quantidade-acesso": 2
            }
        ]
    },
    {
        "cidade": "Califórnia",
        "uf": "PR",
        "latitude": -23.656587,
        "longitude": -51.357367,
        "empresa": "HUGHES",
        "cnpj": 5206385000161,
        "pf-ou-pj": "Pessoa Jurídica",
        "info-tecnologia": [
            {
                "tecnologia": "VSAT",
                "tipo-de-Produto": "INTERNET",
                "meio-de-acesso": "Satélite",
                "quantidade-acesso": 2
            }
        ]
    },
    {
        "cidade": "Cambará",
        "uf": "PR",
        "latitude": -23.042273,
        "longitude": -50.075281,
        "empresa": "HUGHES",
        "cnpj": 5206385000161,
        "pf-ou-pj": "Pessoa Jurídica",
        "info-tecnologia": [
            {
                "tecnologia": "VSAT",
                "tipo-de-Produto": "INTERNET",
                "meio-de-acesso": "Satélite",
                "quantidade-acesso": 1
            }
        ]
    },
    {
        "cidade": "Cambira",
        "uf": "PR",
        "latitude": -23.589018,
        "longitude": -51.579152,
        "empresa": "HUGHES",
        "cnpj": 5206385000161,
        "pf-ou-pj": "Pessoa Jurídica",
        "info-tecnologia": [
            {
                "tecnologia": "VSAT",
                "tipo-de-Produto": "INTERNET",
                "meio-de-acesso": "Satélite",
                "quantidade-acesso": 2
            }
        ]
    },
    {
        "cidade": "Cambé",
        "uf": "PR",
        "latitude": -23.276575,
        "longitude": -51.279832,
        "empresa": "HUGHES",
        "cnpj": 5206385000161,
        "pf-ou-pj": "Pessoa Jurídica",
        "info-tecnologia": [
            {
                "tecnologia": "VSAT",
                "tipo-de-Produto": "INTERNET",
                "meio-de-acesso": "Satélite",
                "quantidade-acesso": 16
            }
        ]
    },
    {
        "cidade": "Campina Grande do Sul",
        "uf": "PR",
        "latitude": -25.30439,
        "longitude": -49.055096,
        "empresa": "HUGHES",
        "cnpj": 5206385000161,
        "pf-ou-pj": "Pessoa Jurídica",
        "info-tecnologia": [
            {
                "tecnologia": "VSAT",
                "tipo-de-Produto": "INTERNET",
                "meio-de-acesso": "Satélite",
                "quantidade-acesso": 7
            }
        ]
    },
    {
        "cidade": "Campina da Lagoa",
        "uf": "PR",
        "latitude": -24.589323,
        "longitude": -52.79759,
        "empresa": "HUGHES",
        "cnpj": 5206385000161,
        "pf-ou-pj": "Pessoa Jurídica",
        "info-tecnologia": [
            {
                "tecnologia": "VSAT",
                "tipo-de-Produto": "INTERNET",
                "meio-de-acesso": "Satélite",
                "quantidade-acesso": 4
            }
        ]
    },
    {
        "cidade": "Campina do Simão",
        "uf": "PR",
        "latitude": -25.080171,
        "longitude": -51.82371,
        "empresa": "HUGHES",
        "cnpj": 5206385000161,
        "pf-ou-pj": "Pessoa Jurídica",
        "info-tecnologia": [
            {
                "tecnologia": "VSAT",
                "tipo-de-Produto": "INTERNET",
                "meio-de-acesso": "Satélite",
                "quantidade-acesso": 35
            }
        ]
    },
    {
        "cidade": "Campo Bonito",
        "uf": "PR",
        "latitude": -25.029445,
        "longitude": -52.993933,
        "empresa": "HUGHES",
        "cnpj": 5206385000161,
        "pf-ou-pj": "Pessoa Jurídica",
        "info-tecnologia": [
            {
                "tecnologia": "VSAT",
                "tipo-de-Produto": "INTERNET",
                "meio-de-acesso": "Satélite",
                "quantidade-acesso": 3
            }
        ]
    },
    {
        "cidade": "Campo Largo",
        "uf": "PR",
        "latitude": -25.452535,
        "longitude": -49.529026,
        "empresa": "HUGHES",
        "cnpj": 5206385000161,
        "pf-ou-pj": "Pessoa Jurídica",
        "info-tecnologia": [
            {
                "tecnologia": "VSAT",
                "tipo-de-Produto": "INTERNET",
                "meio-de-acesso": "Satélite",
                "quantidade-acesso": 11
            }
        ]
    },
    {
        "cidade": "Campo Magro",
        "uf": "PR",
        "latitude": -25.368685,
        "longitude": -49.450092,
        "empresa": "HUGHES",
        "cnpj": 5206385000161,
        "pf-ou-pj": "Pessoa Jurídica",
        "info-tecnologia": [
            {
                "tecnologia": "VSAT",
                "tipo-de-Produto": "INTERNET",
                "meio-de-acesso": "Satélite",
                "quantidade-acesso": 5
            }
        ]
    },
    {
        "cidade": "Campo Mourão",
        "uf": "PR",
        "latitude": -24.046329,
        "longitude": -52.37802,
        "empresa": "HUGHES",
        "cnpj": 5206385000161,
        "pf-ou-pj": "Pessoa Jurídica",
        "info-tecnologia": [
            {
                "tecnologia": "VSAT",
                "tipo-de-Produto": "INTERNET",
                "meio-de-acesso": "Satélite",
                "quantidade-acesso": 5
            }
        ]
    },
    {
        "cidade": "Campo do Tenente",
        "uf": "PR",
        "latitude": -25.980014,
        "longitude": -49.684364,
        "empresa": "HUGHES",
        "cnpj": 5206385000161,
        "pf-ou-pj": "Pessoa Jurídica",
        "info-tecnologia": [
            {
                "tecnologia": "VSAT",
                "tipo-de-Produto": "INTERNET",
                "meio-de-acesso": "Satélite",
                "quantidade-acesso": 19
            }
        ]
    },
    {
        "cidade": "Candói",
        "uf": "PR",
        "latitude": -25.575847,
        "longitude": -52.040876,
        "empresa": "HUGHES",
        "cnpj": 5206385000161,
        "pf-ou-pj": "Pessoa Jurídica",
        "info-tecnologia": [
            {
                "tecnologia": "VSAT",
                "tipo-de-Produto": "INTERNET",
                "meio-de-acesso": "Satélite",
                "quantidade-acesso": 74
            }
        ]
    },
    {
        "cidade": "Cantagalo",
        "uf": "PR",
        "latitude": -25.373359,
        "longitude": -52.119818,
        "empresa": "HUGHES",
        "cnpj": 5206385000161,
        "pf-ou-pj": "Pessoa Jurídica",
        "info-tecnologia": [
            {
                "tecnologia": "VSAT",
                "tipo-de-Produto": "INTERNET",
                "meio-de-acesso": "Satélite",
                "quantidade-acesso": 10
            }
        ]
    },
    {
        "cidade": "Capanema",
        "uf": "PR",
        "latitude": -25.669099,
        "longitude": -53.805508,
        "empresa": "HUGHES",
        "cnpj": 5206385000161,
        "pf-ou-pj": "Pessoa Jurídica",
        "info-tecnologia": [
            {
                "tecnologia": "VSAT",
                "tipo-de-Produto": "INTERNET",
                "meio-de-acesso": "Satélite",
                "quantidade-acesso": 3
            }
        ]
    },
    {
        "cidade": "Carlópolis",
        "uf": "PR",
        "latitude": -23.426897,
        "longitude": -49.723486,
        "empresa": "HUGHES",
        "cnpj": 5206385000161,
        "pf-ou-pj": "Pessoa Jurídica",
        "info-tecnologia": [
            {
                "tecnologia": "VSAT",
                "tipo-de-Produto": "INTERNET",
                "meio-de-acesso": "Satélite",
                "quantidade-acesso": 4
            }
        ]
    },
    {
        "cidade": "Cascavel",
        "uf": "PR",
        "latitude": -24.957301,
        "longitude": -53.459005,
        "empresa": "HUGHES",
        "cnpj": 5206385000161,
        "pf-ou-pj": "Pessoa Jurídica",
        "info-tecnologia": [
            {
                "tecnologia": "VSAT",
                "tipo-de-Produto": "INTERNET",
                "meio-de-acesso": "Satélite",
                "quantidade-acesso": 12
            }
        ]
    },
    {
        "cidade": "Castro",
        "uf": "PR",
        "latitude": -24.789086,
        "longitude": -50.010767,
        "empresa": "HUGHES",
        "cnpj": 5206385000161,
        "pf-ou-pj": "Pessoa Jurídica",
        "info-tecnologia": [
            {
                "tecnologia": "VSAT",
                "tipo-de-Produto": "INTERNET",
                "meio-de-acesso": "Satélite",
                "quantidade-acesso": 13
            }
        ]
    },
    {
        "cidade": "Catanduvas",
        "uf": "PR",
        "latitude": -25.204356,
        "longitude": -53.154826,
        "empresa": "HUGHES",
        "cnpj": 5206385000161,
        "pf-ou-pj": "Pessoa Jurídica",
        "info-tecnologia": [
            {
                "tecnologia": "VSAT",
                "tipo-de-Produto": "INTERNET",
                "meio-de-acesso": "Satélite",
                "quantidade-acesso": 2
            }
        ]
    },
    {
        "cidade": "Cerro Azul",
        "uf": "PR",
        "latitude": -24.822128,
        "longitude": -49.253626,
        "empresa": "HUGHES",
        "cnpj": 5206385000161,
        "pf-ou-pj": "Pessoa Jurídica",
        "info-tecnologia": [
            {
                "tecnologia": "VSAT",
                "tipo-de-Produto": "INTERNET",
                "meio-de-acesso": "Satélite",
                "quantidade-acesso": 60
            }
        ]
    },
    {
        "cidade": "Cidade Gaúcha",
        "uf": "PR",
        "latitude": -23.377186,
        "longitude": -52.943575,
        "empresa": "HUGHES",
        "cnpj": 5206385000161,
        "pf-ou-pj": "Pessoa Jurídica",
        "info-tecnologia": [
            {
                "tecnologia": "VSAT",
                "tipo-de-Produto": "INTERNET",
                "meio-de-acesso": "Satélite",
                "quantidade-acesso": 1
            }
        ]
    },
    {
        "cidade": "Clevelândia",
        "uf": "PR",
        "latitude": -26.404288,
        "longitude": -52.350794,
        "empresa": "HUGHES",
        "cnpj": 5206385000161,
        "pf-ou-pj": "Pessoa Jurídica",
        "info-tecnologia": [
            {
                "tecnologia": "VSAT",
                "tipo-de-Produto": "INTERNET",
                "meio-de-acesso": "Satélite",
                "quantidade-acesso": 3
            }
        ]
    },
    {
        "cidade": "Colombo",
        "uf": "PR",
        "latitude": -25.292487,
        "longitude": -49.22616,
        "empresa": "HUGHES",
        "cnpj": 5206385000161,
        "pf-ou-pj": "Pessoa Jurídica",
        "info-tecnologia": [
            {
                "tecnologia": "VSAT",
                "tipo-de-Produto": "INTERNET",
                "meio-de-acesso": "Satélite",
                "quantidade-acesso": 9
            }
        ]
    },
    {
        "cidade": "Congonhinhas",
        "uf": "PR",
        "latitude": -23.54931,
        "longitude": -50.556872,
        "empresa": "HUGHES",
        "cnpj": 5206385000161,
        "pf-ou-pj": "Pessoa Jurídica",
        "info-tecnologia": [
            {
                "tecnologia": "VSAT",
                "tipo-de-Produto": "INTERNET",
                "meio-de-acesso": "Satélite",
                "quantidade-acesso": 8
            }
        ]
    },
    {
        "cidade": "Conselheiro Mairinck",
        "uf": "PR",
        "latitude": -23.626382,
        "longitude": -50.170803,
        "empresa": "HUGHES",
        "cnpj": 5206385000161,
        "pf-ou-pj": "Pessoa Jurídica",
        "info-tecnologia": [
            {
                "tecnologia": "VSAT",
                "tipo-de-Produto": "INTERNET",
                "meio-de-acesso": "Satélite",
                "quantidade-acesso": 1
            }
        ]
    },
    {
        "cidade": "Contenda",
        "uf": "PR",
        "latitude": -25.678811,
        "longitude": -49.535044,
        "empresa": "HUGHES",
        "cnpj": 5206385000161,
        "pf-ou-pj": "Pessoa Jurídica",
        "info-tecnologia": [
            {
                "tecnologia": "VSAT",
                "tipo-de-Produto": "INTERNET",
                "meio-de-acesso": "Satélite",
                "quantidade-acesso": 6
            }
        ]
    },
    {
        "cidade": "Corbélia",
        "uf": "PR",
        "latitude": -24.797122,
        "longitude": -53.300576,
        "empresa": "HUGHES",
        "cnpj": 5206385000161,
        "pf-ou-pj": "Pessoa Jurídica",
        "info-tecnologia": [
            {
                "tecnologia": "VSAT",
                "tipo-de-Produto": "INTERNET",
                "meio-de-acesso": "Satélite",
                "quantidade-acesso": 2
            }
        ]
    },
    {
        "cidade": "Cornélio Procópio",
        "uf": "PR",
        "latitude": -23.182911,
        "longitude": -50.64977,
        "empresa": "HUGHES",
        "cnpj": 5206385000161,
        "pf-ou-pj": "Pessoa Jurídica",
        "info-tecnologia": [
            {
                "tecnologia": "VSAT",
                "tipo-de-Produto": "INTERNET",
                "meio-de-acesso": "Satélite",
                "quantidade-acesso": 4
            }
        ]
    },
    {
        "cidade": "Coronel Domingos Soares",
        "uf": "PR",
        "latitude": -26.227684,
        "longitude": -52.03565,
        "empresa": "HUGHES",
        "cnpj": 5206385000161,
        "pf-ou-pj": "Pessoa Jurídica",
        "info-tecnologia": [
            {
                "tecnologia": "VSAT",
                "tipo-de-Produto": "INTERNET",
                "meio-de-acesso": "Satélite",
                "quantidade-acesso": 34
            }
        ]
    },
    {
        "cidade": "Corumbataí do Sul",
        "uf": "PR",
        "latitude": -24.100956,
        "longitude": -52.11766,
        "empresa": "HUGHES",
        "cnpj": 5206385000161,
        "pf-ou-pj": "Pessoa Jurídica",
        "info-tecnologia": [
            {
                "tecnologia": "VSAT",
                "tipo-de-Produto": "INTERNET",
                "meio-de-acesso": "Satélite",
                "quantidade-acesso": 2
            }
        ]
    },
    {
        "cidade": "Cruz Machado",
        "uf": "PR",
        "latitude": -26.01664,
        "longitude": -51.342965,
        "empresa": "HUGHES",
        "cnpj": 5206385000161,
        "pf-ou-pj": "Pessoa Jurídica",
        "info-tecnologia": [
            {
                "tecnologia": "VSAT",
                "tipo-de-Produto": "INTERNET",
                "meio-de-acesso": "Satélite",
                "quantidade-acesso": 14
            }
        ]
    },
    {
        "cidade": "Cruzeiro do Iguaçu",
        "uf": "PR",
        "latitude": -25.619214,
        "longitude": -53.128484,
        "empresa": "HUGHES",
        "cnpj": 5206385000161,
        "pf-ou-pj": "Pessoa Jurídica",
        "info-tecnologia": [
            {
                "tecnologia": "VSAT",
                "tipo-de-Produto": "INTERNET",
                "meio-de-acesso": "Satélite",
                "quantidade-acesso": 2
            }
        ]
    },
    {
        "cidade": "Cruzeiro do Sul",
        "uf": "PR",
        "latitude": -22.96244,
        "longitude": -52.16221,
        "empresa": "HUGHES",
        "cnpj": 5206385000161,
        "pf-ou-pj": "Pessoa Jurídica",
        "info-tecnologia": [
            {
                "tecnologia": "VSAT",
                "tipo-de-Produto": "INTERNET",
                "meio-de-acesso": "Satélite",
                "quantidade-acesso": 2
            }
        ]
    },
    {
        "cidade": "Cruzmaltina",
        "uf": "PR",
        "latitude": -24.013218,
        "longitude": -51.456331,
        "empresa": "HUGHES",
        "cnpj": 5206385000161,
        "pf-ou-pj": "Pessoa Jurídica",
        "info-tecnologia": [
            {
                "tecnologia": "VSAT",
                "tipo-de-Produto": "INTERNET",
                "meio-de-acesso": "Satélite",
                "quantidade-acesso": 6
            }
        ]
    },
    {
        "cidade": "Curitiba",
        "uf": "PR",
        "latitude": -25.419547,
        "longitude": -49.264622,
        "empresa": "HUGHES",
        "cnpj": 5206385000161,
        "pf-ou-pj": "Pessoa Jurídica",
        "info-tecnologia": [
            {
                "tecnologia": "VSAT",
                "tipo-de-Produto": "INTERNET",
                "meio-de-acesso": "Satélite",
                "quantidade-acesso": 42
            }
        ]
    },
    {
        "cidade": "Curiúva",
        "uf": "PR",
        "latitude": -24.036168,
        "longitude": -50.457638,
        "empresa": "HUGHES",
        "cnpj": 5206385000161,
        "pf-ou-pj": "Pessoa Jurídica",
        "info-tecnologia": [
            {
                "tecnologia": "VSAT",
                "tipo-de-Produto": "INTERNET",
                "meio-de-acesso": "Satélite",
                "quantidade-acesso": 30
            }
        ]
    },
    {
        "cidade": "Cândido de Abreu",
        "uf": "PR",
        "latitude": -24.564895,
        "longitude": -51.33719,
        "empresa": "HUGHES",
        "cnpj": 5206385000161,
        "pf-ou-pj": "Pessoa Jurídica",
        "info-tecnologia": [
            {
                "tecnologia": "VSAT",
                "tipo-de-Produto": "INTERNET",
                "meio-de-acesso": "Satélite",
                "quantidade-acesso": 3
            }
        ]
    },
    {
        "cidade": "Céu Azul",
        "uf": "PR",
        "latitude": -25.148876,
        "longitude": -53.841473,
        "empresa": "HUGHES",
        "cnpj": 5206385000161,
        "pf-ou-pj": "Pessoa Jurídica",
        "info-tecnologia": [
            {
                "tecnologia": "VSAT",
                "tipo-de-Produto": "INTERNET",
                "meio-de-acesso": "Satélite",
                "quantidade-acesso": 5
            }
        ]
    },
    {
        "cidade": "Diamante D'Oeste",
        "uf": "PR",
        "latitude": null,
        "longitude": null,
        "empresa": "HUGHES",
        "cnpj": 5206385000161,
        "pf-ou-pj": "Pessoa Jurídica",
        "info-tecnologia": [
            {
                "tecnologia": "VSAT",
                "tipo-de-Produto": "INTERNET",
                "meio-de-acesso": "Satélite",
                "quantidade-acesso": 1
            }
        ]
    },
    {
        "cidade": "Diamante do Norte",
        "uf": "PR",
        "latitude": -22.654967,
        "longitude": -52.861662,
        "empresa": "HUGHES",
        "cnpj": 5206385000161,
        "pf-ou-pj": "Pessoa Jurídica",
        "info-tecnologia": [
            {
                "tecnologia": "VSAT",
                "tipo-de-Produto": "INTERNET",
                "meio-de-acesso": "Satélite",
                "quantidade-acesso": 1
            }
        ]
    },
    {
        "cidade": "Diamante do Sul",
        "uf": "PR",
        "latitude": -25.035007,
        "longitude": -52.676782,
        "empresa": "HUGHES",
        "cnpj": 5206385000161,
        "pf-ou-pj": "Pessoa Jurídica",
        "info-tecnologia": [
            {
                "tecnologia": "VSAT",
                "tipo-de-Produto": "INTERNET",
                "meio-de-acesso": "Satélite",
                "quantidade-acesso": 2
            }
        ]
    },
    {
        "cidade": "Dois Vizinhos",
        "uf": "PR",
        "latitude": -25.740694,
        "longitude": -53.057016,
        "empresa": "HUGHES",
        "cnpj": 5206385000161,
        "pf-ou-pj": "Pessoa Jurídica",
        "info-tecnologia": [
            {
                "tecnologia": "VSAT",
                "tipo-de-Produto": "INTERNET",
                "meio-de-acesso": "Satélite",
                "quantidade-acesso": 2
            }
        ]
    },
    {
        "cidade": "Douradina",
        "uf": "PR",
        "latitude": -23.38072,
        "longitude": -53.291794,
        "empresa": "HUGHES",
        "cnpj": 5206385000161,
        "pf-ou-pj": "Pessoa Jurídica",
        "info-tecnologia": [
            {
                "tecnologia": "VSAT",
                "tipo-de-Produto": "INTERNET",
                "meio-de-acesso": "Satélite",
                "quantidade-acesso": 1
            }
        ]
    },
    {
        "cidade": "Doutor Ulysses",
        "uf": "PR",
        "latitude": -24.566546,
        "longitude": -49.421931,
        "empresa": "HUGHES",
        "cnpj": 5206385000161,
        "pf-ou-pj": "Pessoa Jurídica",
        "info-tecnologia": [
            {
                "tecnologia": "VSAT",
                "tipo-de-Produto": "INTERNET",
                "meio-de-acesso": "Satélite",
                "quantidade-acesso": 26
            }
        ]
    },
    {
        "cidade": "Engenheiro Beltrão",
        "uf": "PR",
        "latitude": -23.797028,
        "longitude": -52.265877,
        "empresa": "HUGHES",
        "cnpj": 5206385000161,
        "pf-ou-pj": "Pessoa Jurídica",
        "info-tecnologia": [
            {
                "tecnologia": "VSAT",
                "tipo-de-Produto": "INTERNET",
                "meio-de-acesso": "Satélite",
                "quantidade-acesso": 5
            }
        ]
    },
    {
        "cidade": "Enéas Marques",
        "uf": "PR",
        "latitude": -25.944525,
        "longitude": -53.16586,
        "empresa": "HUGHES",
        "cnpj": 5206385000161,
        "pf-ou-pj": "Pessoa Jurídica",
        "info-tecnologia": [
            {
                "tecnologia": "VSAT",
                "tipo-de-Produto": "INTERNET",
                "meio-de-acesso": "Satélite",
                "quantidade-acesso": 2
            }
        ]
    },
    {
        "cidade": "Espigão Alto do Iguaçu",
        "uf": "PR",
        "latitude": -25.421635,
        "longitude": -52.834798,
        "empresa": "HUGHES",
        "cnpj": 5206385000161,
        "pf-ou-pj": "Pessoa Jurídica",
        "info-tecnologia": [
            {
                "tecnologia": "VSAT",
                "tipo-de-Produto": "INTERNET",
                "meio-de-acesso": "Satélite",
                "quantidade-acesso": 13
            }
        ]
    },
    {
        "cidade": "Farol",
        "uf": "PR",
        "latitude": -24.095842,
        "longitude": -52.621693,
        "empresa": "HUGHES",
        "cnpj": 5206385000161,
        "pf-ou-pj": "Pessoa Jurídica",
        "info-tecnologia": [
            {
                "tecnologia": "VSAT",
                "tipo-de-Produto": "INTERNET",
                "meio-de-acesso": "Satélite",
                "quantidade-acesso": 1
            }
        ]
    },
    {
        "cidade": "Faxinal",
        "uf": "PR",
        "latitude": -24.007671,
        "longitude": -51.322665,
        "empresa": "HUGHES",
        "cnpj": 5206385000161,
        "pf-ou-pj": "Pessoa Jurídica",
        "info-tecnologia": [
            {
                "tecnologia": "VSAT",
                "tipo-de-Produto": "INTERNET",
                "meio-de-acesso": "Satélite",
                "quantidade-acesso": 2
            }
        ]
    },
    {
        "cidade": "Fazenda Rio Grande",
        "uf": "PR",
        "latitude": -25.662354,
        "longitude": -49.30731,
        "empresa": "HUGHES",
        "cnpj": 5206385000161,
        "pf-ou-pj": "Pessoa Jurídica",
        "info-tecnologia": [
            {
                "tecnologia": "VSAT",
                "tipo-de-Produto": "INTERNET",
                "meio-de-acesso": "Satélite",
                "quantidade-acesso": 4
            }
        ]
    },
    {
        "cidade": "Fernandes Pinheiro",
        "uf": "PR",
        "latitude": -25.410742,
        "longitude": -50.545601,
        "empresa": "HUGHES",
        "cnpj": 5206385000161,
        "pf-ou-pj": "Pessoa Jurídica",
        "info-tecnologia": [
            {
                "tecnologia": "VSAT",
                "tipo-de-Produto": "INTERNET",
                "meio-de-acesso": "Satélite",
                "quantidade-acesso": 14
            }
        ]
    },
    {
        "cidade": "Figueira",
        "uf": "PR",
        "latitude": -23.845542,
        "longitude": -50.403068,
        "empresa": "HUGHES",
        "cnpj": 5206385000161,
        "pf-ou-pj": "Pessoa Jurídica",
        "info-tecnologia": [
            {
                "tecnologia": "VSAT",
                "tipo-de-Produto": "INTERNET",
                "meio-de-acesso": "Satélite",
                "quantidade-acesso": 4
            }
        ]
    },
    {
        "cidade": "Flor da Serra do Sul",
        "uf": "PR",
        "latitude": -26.252326,
        "longitude": -53.309213,
        "empresa": "HUGHES",
        "cnpj": 5206385000161,
        "pf-ou-pj": "Pessoa Jurídica",
        "info-tecnologia": [
            {
                "tecnologia": "VSAT",
                "tipo-de-Produto": "INTERNET",
                "meio-de-acesso": "Satélite",
                "quantidade-acesso": 3
            }
        ]
    },
    {
        "cidade": "Formosa do Oeste",
        "uf": "PR",
        "latitude": -24.295097,
        "longitude": -53.311378,
        "empresa": "HUGHES",
        "cnpj": 5206385000161,
        "pf-ou-pj": "Pessoa Jurídica",
        "info-tecnologia": [
            {
                "tecnologia": "VSAT",
                "tipo-de-Produto": "INTERNET",
                "meio-de-acesso": "Satélite",
                "quantidade-acesso": 1
            }
        ]
    },
    {
        "cidade": "Foz do Iguaçu",
        "uf": "PR",
        "latitude": -25.542748,
        "longitude": -54.582689,
        "empresa": "HUGHES",
        "cnpj": 5206385000161,
        "pf-ou-pj": "Pessoa Jurídica",
        "info-tecnologia": [
            {
                "tecnologia": "VSAT",
                "tipo-de-Produto": "INTERNET",
                "meio-de-acesso": "Satélite",
                "quantidade-acesso": 5
            }
        ]
    },
    {
        "cidade": "Foz do Jordão",
        "uf": "PR",
        "latitude": -25.737094,
        "longitude": -52.118829,
        "empresa": "HUGHES",
        "cnpj": 5206385000161,
        "pf-ou-pj": "Pessoa Jurídica",
        "info-tecnologia": [
            {
                "tecnologia": "VSAT",
                "tipo-de-Produto": "INTERNET",
                "meio-de-acesso": "Satélite",
                "quantidade-acesso": 4
            }
        ]
    },
    {
        "cidade": "Francisco Beltrão",
        "uf": "PR",
        "latitude": -26.081677,
        "longitude": -53.053466,
        "empresa": "HUGHES",
        "cnpj": 5206385000161,
        "pf-ou-pj": "Pessoa Jurídica",
        "info-tecnologia": [
            {
                "tecnologia": "VSAT",
                "tipo-de-Produto": "INTERNET",
                "meio-de-acesso": "Satélite",
                "quantidade-acesso": 2
            }
        ]
    },
    {
        "cidade": "General Carneiro",
        "uf": "PR",
        "latitude": -26.424974,
        "longitude": -51.317224,
        "empresa": "HUGHES",
        "cnpj": 5206385000161,
        "pf-ou-pj": "Pessoa Jurídica",
        "info-tecnologia": [
            {
                "tecnologia": "VSAT",
                "tipo-de-Produto": "INTERNET",
                "meio-de-acesso": "Satélite",
                "quantidade-acesso": 29
            }
        ]
    },
    {
        "cidade": "Godoy Moreira",
        "uf": "PR",
        "latitude": -24.17298,
        "longitude": -51.924636,
        "empresa": "HUGHES",
        "cnpj": 5206385000161,
        "pf-ou-pj": "Pessoa Jurídica",
        "info-tecnologia": [
            {
                "tecnologia": "VSAT",
                "tipo-de-Produto": "INTERNET",
                "meio-de-acesso": "Satélite",
                "quantidade-acesso": 4
            }
        ]
    },
    {
        "cidade": "Goioerê",
        "uf": "PR",
        "latitude": -24.183481,
        "longitude": -53.024842,
        "empresa": "HUGHES",
        "cnpj": 5206385000161,
        "pf-ou-pj": "Pessoa Jurídica",
        "info-tecnologia": [
            {
                "tecnologia": "VSAT",
                "tipo-de-Produto": "INTERNET",
                "meio-de-acesso": "Satélite",
                "quantidade-acesso": 3
            }
        ]
    },
    {
        "cidade": "Goioxim",
        "uf": "PR",
        "latitude": -25.192652,
        "longitude": -51.991091,
        "empresa": "HUGHES",
        "cnpj": 5206385000161,
        "pf-ou-pj": "Pessoa Jurídica",
        "info-tecnologia": [
            {
                "tecnologia": "VSAT",
                "tipo-de-Produto": "INTERNET",
                "meio-de-acesso": "Satélite",
                "quantidade-acesso": 14
            }
        ]
    },
    {
        "cidade": "Grandes Rios",
        "uf": "PR",
        "latitude": -24.146606,
        "longitude": -51.509378,
        "empresa": "HUGHES",
        "cnpj": 5206385000161,
        "pf-ou-pj": "Pessoa Jurídica",
        "info-tecnologia": [
            {
                "tecnologia": "VSAT",
                "tipo-de-Produto": "INTERNET",
                "meio-de-acesso": "Satélite",
                "quantidade-acesso": 9
            }
        ]
    },
    {
        "cidade": "Guamiranga",
        "uf": "PR",
        "latitude": -25.191167,
        "longitude": -50.802109,
        "empresa": "HUGHES",
        "cnpj": 5206385000161,
        "pf-ou-pj": "Pessoa Jurídica",
        "info-tecnologia": [
            {
                "tecnologia": "VSAT",
                "tipo-de-Produto": "INTERNET",
                "meio-de-acesso": "Satélite",
                "quantidade-acesso": 1
            }
        ]
    },
    {
        "cidade": "Guaraci",
        "uf": "PR",
        "latitude": -22.969426,
        "longitude": -51.650406,
        "empresa": "HUGHES",
        "cnpj": 5206385000161,
        "pf-ou-pj": "Pessoa Jurídica",
        "info-tecnologia": [
            {
                "tecnologia": "VSAT",
                "tipo-de-Produto": "INTERNET",
                "meio-de-acesso": "Satélite",
                "quantidade-acesso": 7
            }
        ]
    },
    {
        "cidade": "Guaraniaçu",
        "uf": "PR",
        "latitude": -25.096822,
        "longitude": -52.875531,
        "empresa": "HUGHES",
        "cnpj": 5206385000161,
        "pf-ou-pj": "Pessoa Jurídica",
        "info-tecnologia": [
            {
                "tecnologia": "VSAT",
                "tipo-de-Produto": "INTERNET",
                "meio-de-acesso": "Satélite",
                "quantidade-acesso": 13
            }
        ]
    },
    {
        "cidade": "Guarapuava",
        "uf": "PR",
        "latitude": -25.390237,
        "longitude": -51.462317,
        "empresa": "HUGHES",
        "cnpj": 5206385000161,
        "pf-ou-pj": "Pessoa Jurídica",
        "info-tecnologia": [
            {
                "tecnologia": "VSAT",
                "tipo-de-Produto": "INTERNET",
                "meio-de-acesso": "Satélite",
                "quantidade-acesso": 17
            }
        ]
    },
    {
        "cidade": "Guaraqueçaba",
        "uf": "PR",
        "latitude": -25.307056,
        "longitude": -48.320426,
        "empresa": "HUGHES",
        "cnpj": 5206385000161,
        "pf-ou-pj": "Pessoa Jurídica",
        "info-tecnologia": [
            {
                "tecnologia": "VSAT",
                "tipo-de-Produto": "INTERNET",
                "meio-de-acesso": "Satélite",
                "quantidade-acesso": 149
            }
        ]
    },
    {
        "cidade": "Guaratuba",
        "uf": "PR",
        "latitude": -25.881672,
        "longitude": -48.575223,
        "empresa": "HUGHES",
        "cnpj": 5206385000161,
        "pf-ou-pj": "Pessoa Jurídica",
        "info-tecnologia": [
            {
                "tecnologia": "VSAT",
                "tipo-de-Produto": "INTERNET",
                "meio-de-acesso": "Satélite",
                "quantidade-acesso": 2
            }
        ]
    },
    {
        "cidade": "Guaíra",
        "uf": "PR",
        "latitude": -24.085005,
        "longitude": -54.257327,
        "empresa": "HUGHES",
        "cnpj": 5206385000161,
        "pf-ou-pj": "Pessoa Jurídica",
        "info-tecnologia": [
            {
                "tecnologia": "VSAT",
                "tipo-de-Produto": "INTERNET",
                "meio-de-acesso": "Satélite",
                "quantidade-acesso": 3
            }
        ]
    },
    {
        "cidade": "Honório Serpa",
        "uf": "PR",
        "latitude": -26.139021,
        "longitude": -52.384839,
        "empresa": "HUGHES",
        "cnpj": 5206385000161,
        "pf-ou-pj": "Pessoa Jurídica",
        "info-tecnologia": [
            {
                "tecnologia": "VSAT",
                "tipo-de-Produto": "INTERNET",
                "meio-de-acesso": "Satélite",
                "quantidade-acesso": 3
            }
        ]
    },
    {
        "cidade": "Ibaiti",
        "uf": "PR",
        "latitude": -23.847822,
        "longitude": -50.193208,
        "empresa": "HUGHES",
        "cnpj": 5206385000161,
        "pf-ou-pj": "Pessoa Jurídica",
        "info-tecnologia": [
            {
                "tecnologia": "VSAT",
                "tipo-de-Produto": "INTERNET",
                "meio-de-acesso": "Satélite",
                "quantidade-acesso": 5
            }
        ]
    },
    {
        "cidade": "Ibema",
        "uf": "PR",
        "latitude": -25.111335,
        "longitude": -53.014616,
        "empresa": "HUGHES",
        "cnpj": 5206385000161,
        "pf-ou-pj": "Pessoa Jurídica",
        "info-tecnologia": [
            {
                "tecnologia": "VSAT",
                "tipo-de-Produto": "INTERNET",
                "meio-de-acesso": "Satélite",
                "quantidade-acesso": 3
            }
        ]
    },
    {
        "cidade": "Ibiporã",
        "uf": "PR",
        "latitude": -23.265941,
        "longitude": -51.052243,
        "empresa": "HUGHES",
        "cnpj": 5206385000161,
        "pf-ou-pj": "Pessoa Jurídica",
        "info-tecnologia": [
            {
                "tecnologia": "VSAT",
                "tipo-de-Produto": "INTERNET",
                "meio-de-acesso": "Satélite",
                "quantidade-acesso": 3
            }
        ]
    },
    {
        "cidade": "Icaraíma",
        "uf": "PR",
        "latitude": -23.394354,
        "longitude": -53.614979,
        "empresa": "HUGHES",
        "cnpj": 5206385000161,
        "pf-ou-pj": "Pessoa Jurídica",
        "info-tecnologia": [
            {
                "tecnologia": "VSAT",
                "tipo-de-Produto": "INTERNET",
                "meio-de-acesso": "Satélite",
                "quantidade-acesso": 2
            }
        ]
    },
    {
        "cidade": "Iguaraçu",
        "uf": "PR",
        "latitude": -23.194896,
        "longitude": -51.825552,
        "empresa": "HUGHES",
        "cnpj": 5206385000161,
        "pf-ou-pj": "Pessoa Jurídica",
        "info-tecnologia": [
            {
                "tecnologia": "VSAT",
                "tipo-de-Produto": "INTERNET",
                "meio-de-acesso": "Satélite",
                "quantidade-acesso": 1
            }
        ]
    },
    {
        "cidade": "Iguatu",
        "uf": "PR",
        "latitude": -24.715277,
        "longitude": -53.082724,
        "empresa": "HUGHES",
        "cnpj": 5206385000161,
        "pf-ou-pj": "Pessoa Jurídica",
        "info-tecnologia": [
            {
                "tecnologia": "VSAT",
                "tipo-de-Produto": "INTERNET",
                "meio-de-acesso": "Satélite",
                "quantidade-acesso": 1
            }
        ]
    },
    {
        "cidade": "Imbaú",
        "uf": "PR",
        "latitude": -24.44801,
        "longitude": -50.753269,
        "empresa": "HUGHES",
        "cnpj": 5206385000161,
        "pf-ou-pj": "Pessoa Jurídica",
        "info-tecnologia": [
            {
                "tecnologia": "VSAT",
                "tipo-de-Produto": "INTERNET",
                "meio-de-acesso": "Satélite",
                "quantidade-acesso": 22
            }
        ]
    },
    {
        "cidade": "Inácio Martins",
        "uf": "PR",
        "latitude": -25.570395,
        "longitude": -51.076925,
        "empresa": "HUGHES",
        "cnpj": 5206385000161,
        "pf-ou-pj": "Pessoa Jurídica",
        "info-tecnologia": [
            {
                "tecnologia": "VSAT",
                "tipo-de-Produto": "INTERNET",
                "meio-de-acesso": "Satélite",
                "quantidade-acesso": 38
            }
        ]
    },
    {
        "cidade": "Iporã",
        "uf": "PR",
        "latitude": -24.008349,
        "longitude": -53.706031,
        "empresa": "HUGHES",
        "cnpj": 5206385000161,
        "pf-ou-pj": "Pessoa Jurídica",
        "info-tecnologia": [
            {
                "tecnologia": "VSAT",
                "tipo-de-Produto": "INTERNET",
                "meio-de-acesso": "Satélite",
                "quantidade-acesso": 1
            }
        ]
    },
    {
        "cidade": "Irati",
        "uf": "PR",
        "latitude": -25.469663,
        "longitude": -50.649287,
        "empresa": "HUGHES",
        "cnpj": 5206385000161,
        "pf-ou-pj": "Pessoa Jurídica",
        "info-tecnologia": [
            {
                "tecnologia": "VSAT",
                "tipo-de-Produto": "INTERNET",
                "meio-de-acesso": "Satélite",
                "quantidade-acesso": 6
            }
        ]
    },
    {
        "cidade": "Iretama",
        "uf": "PR",
        "latitude": -24.42529,
        "longitude": -52.101161,
        "empresa": "HUGHES",
        "cnpj": 5206385000161,
        "pf-ou-pj": "Pessoa Jurídica",
        "info-tecnologia": [
            {
                "tecnologia": "VSAT",
                "tipo-de-Produto": "INTERNET",
                "meio-de-acesso": "Satélite",
                "quantidade-acesso": 34
            }
        ]
    },
    {
        "cidade": "Itambaracá",
        "uf": "PR",
        "latitude": -23.018113,
        "longitude": -50.409654,
        "empresa": "HUGHES",
        "cnpj": 5206385000161,
        "pf-ou-pj": "Pessoa Jurídica",
        "info-tecnologia": [
            {
                "tecnologia": "VSAT",
                "tipo-de-Produto": "INTERNET",
                "meio-de-acesso": "Satélite",
                "quantidade-acesso": 1
            }
        ]
    },
    {
        "cidade": "Itapejara d'Oeste",
        "uf": "PR",
        "latitude": null,
        "longitude": null,
        "empresa": "HUGHES",
        "cnpj": 5206385000161,
        "pf-ou-pj": "Pessoa Jurídica",
        "info-tecnologia": [
            {
                "tecnologia": "VSAT",
                "tipo-de-Produto": "INTERNET",
                "meio-de-acesso": "Satélite",
                "quantidade-acesso": 1
            }
        ]
    },
    {
        "cidade": "Itaperuçu",
        "uf": "PR",
        "latitude": -25.21926,
        "longitude": -49.345427,
        "empresa": "HUGHES",
        "cnpj": 5206385000161,
        "pf-ou-pj": "Pessoa Jurídica",
        "info-tecnologia": [
            {
                "tecnologia": "VSAT",
                "tipo-de-Produto": "INTERNET",
                "meio-de-acesso": "Satélite",
                "quantidade-acesso": 2
            }
        ]
    },
    {
        "cidade": "Ivaiporã",
        "uf": "PR",
        "latitude": -24.248533,
        "longitude": -51.675426,
        "empresa": "HUGHES",
        "cnpj": 5206385000161,
        "pf-ou-pj": "Pessoa Jurídica",
        "info-tecnologia": [
            {
                "tecnologia": "VSAT",
                "tipo-de-Produto": "INTERNET",
                "meio-de-acesso": "Satélite",
                "quantidade-acesso": 2
            }
        ]
    },
    {
        "cidade": "Ivaté",
        "uf": "PR",
        "latitude": -23.407206,
        "longitude": -53.368705,
        "empresa": "HUGHES",
        "cnpj": 5206385000161,
        "pf-ou-pj": "Pessoa Jurídica",
        "info-tecnologia": [
            {
                "tecnologia": "VSAT",
                "tipo-de-Produto": "INTERNET",
                "meio-de-acesso": "Satélite",
                "quantidade-acesso": 1
            }
        ]
    },
    {
        "cidade": "Ivaí",
        "uf": "PR",
        "latitude": -25.006734,
        "longitude": -50.857041,
        "empresa": "HUGHES",
        "cnpj": 5206385000161,
        "pf-ou-pj": "Pessoa Jurídica",
        "info-tecnologia": [
            {
                "tecnologia": "VSAT",
                "tipo-de-Produto": "INTERNET",
                "meio-de-acesso": "Satélite",
                "quantidade-acesso": 1
            }
        ]
    },
    {
        "cidade": "Jacarezinho",
        "uf": "PR",
        "latitude": -23.159115,
        "longitude": -49.973889,
        "empresa": "HUGHES",
        "cnpj": 5206385000161,
        "pf-ou-pj": "Pessoa Jurídica",
        "info-tecnologia": [
            {
                "tecnologia": "VSAT",
                "tipo-de-Produto": "INTERNET",
                "meio-de-acesso": "Satélite",
                "quantidade-acesso": 1
            }
        ]
    },
    {
        "cidade": "Jaguapitã",
        "uf": "PR",
        "latitude": -23.110388,
        "longitude": -51.534195,
        "empresa": "HUGHES",
        "cnpj": 5206385000161,
        "pf-ou-pj": "Pessoa Jurídica",
        "info-tecnologia": [
            {
                "tecnologia": "VSAT",
                "tipo-de-Produto": "INTERNET",
                "meio-de-acesso": "Satélite",
                "quantidade-acesso": 2
            }
        ]
    },
    {
        "cidade": "Jaguariaíva",
        "uf": "PR",
        "latitude": -24.24389,
        "longitude": -49.706642,
        "empresa": "HUGHES",
        "cnpj": 5206385000161,
        "pf-ou-pj": "Pessoa Jurídica",
        "info-tecnologia": [
            {
                "tecnologia": "VSAT",
                "tipo-de-Produto": "INTERNET",
                "meio-de-acesso": "Satélite",
                "quantidade-acesso": 20
            }
        ]
    },
    {
        "cidade": "Japira",
        "uf": "PR",
        "latitude": -23.814227,
        "longitude": -50.142211,
        "empresa": "HUGHES",
        "cnpj": 5206385000161,
        "pf-ou-pj": "Pessoa Jurídica",
        "info-tecnologia": [
            {
                "tecnologia": "VSAT",
                "tipo-de-Produto": "INTERNET",
                "meio-de-acesso": "Satélite",
                "quantidade-acesso": 4
            }
        ]
    },
    {
        "cidade": "Jardim Alegre",
        "uf": "PR",
        "latitude": -24.180913,
        "longitude": -51.690197,
        "empresa": "HUGHES",
        "cnpj": 5206385000161,
        "pf-ou-pj": "Pessoa Jurídica",
        "info-tecnologia": [
            {
                "tecnologia": "VSAT",
                "tipo-de-Produto": "INTERNET",
                "meio-de-acesso": "Satélite",
                "quantidade-acesso": 12
            }
        ]
    },
    {
        "cidade": "Jataizinho",
        "uf": "PR",
        "latitude": -23.257815,
        "longitude": -50.977748,
        "empresa": "HUGHES",
        "cnpj": 5206385000161,
        "pf-ou-pj": "Pessoa Jurídica",
        "info-tecnologia": [
            {
                "tecnologia": "VSAT",
                "tipo-de-Produto": "INTERNET",
                "meio-de-acesso": "Satélite",
                "quantidade-acesso": 1
            }
        ]
    },
    {
        "cidade": "Joaquim Távora",
        "uf": "PR",
        "latitude": -23.498654,
        "longitude": -49.908998,
        "empresa": "HUGHES",
        "cnpj": 5206385000161,
        "pf-ou-pj": "Pessoa Jurídica",
        "info-tecnologia": [
            {
                "tecnologia": "VSAT",
                "tipo-de-Produto": "INTERNET",
                "meio-de-acesso": "Satélite",
                "quantidade-acesso": 1
            }
        ]
    },
    {
        "cidade": "Jundiaí do Sul",
        "uf": "PR",
        "latitude": -23.435671,
        "longitude": -50.249579,
        "empresa": "HUGHES",
        "cnpj": 5206385000161,
        "pf-ou-pj": "Pessoa Jurídica",
        "info-tecnologia": [
            {
                "tecnologia": "VSAT",
                "tipo-de-Produto": "INTERNET",
                "meio-de-acesso": "Satélite",
                "quantidade-acesso": 7
            }
        ]
    },
    {
        "cidade": "Juranda",
        "uf": "PR",
        "latitude": -24.420866,
        "longitude": -52.841344,
        "empresa": "HUGHES",
        "cnpj": 5206385000161,
        "pf-ou-pj": "Pessoa Jurídica",
        "info-tecnologia": [
            {
                "tecnologia": "VSAT",
                "tipo-de-Produto": "INTERNET",
                "meio-de-acesso": "Satélite",
                "quantidade-acesso": 2
            }
        ]
    },
    {
        "cidade": "Kaloré",
        "uf": "PR",
        "latitude": -23.818835,
        "longitude": -51.668709,
        "empresa": "HUGHES",
        "cnpj": 5206385000161,
        "pf-ou-pj": "Pessoa Jurídica",
        "info-tecnologia": [
            {
                "tecnologia": "VSAT",
                "tipo-de-Produto": "INTERNET",
                "meio-de-acesso": "Satélite",
                "quantidade-acesso": 2
            }
        ]
    },
    {
        "cidade": "Lapa",
        "uf": "PR",
        "latitude": -25.76709,
        "longitude": -49.716777,
        "empresa": "HUGHES",
        "cnpj": 5206385000161,
        "pf-ou-pj": "Pessoa Jurídica",
        "info-tecnologia": [
            {
                "tecnologia": "VSAT",
                "tipo-de-Produto": "INTERNET",
                "meio-de-acesso": "Satélite",
                "quantidade-acesso": 7
            }
        ]
    },
    {
        "cidade": "Laranjal",
        "uf": "PR",
        "latitude": -24.886153,
        "longitude": -52.470041,
        "empresa": "HUGHES",
        "cnpj": 5206385000161,
        "pf-ou-pj": "Pessoa Jurídica",
        "info-tecnologia": [
            {
                "tecnologia": "VSAT",
                "tipo-de-Produto": "INTERNET",
                "meio-de-acesso": "Satélite",
                "quantidade-acesso": 36
            }
        ]
    },
    {
        "cidade": "Leópolis",
        "uf": "PR",
        "latitude": -23.081781,
        "longitude": -50.751085,
        "empresa": "HUGHES",
        "cnpj": 5206385000161,
        "pf-ou-pj": "Pessoa Jurídica",
        "info-tecnologia": [
            {
                "tecnologia": "VSAT",
                "tipo-de-Produto": "INTERNET",
                "meio-de-acesso": "Satélite",
                "quantidade-acesso": 5
            }
        ]
    },
    {
        "cidade": "Lidianópolis",
        "uf": "PR",
        "latitude": -24.10997,
        "longitude": -51.650629,
        "empresa": "HUGHES",
        "cnpj": 5206385000161,
        "pf-ou-pj": "Pessoa Jurídica",
        "info-tecnologia": [
            {
                "tecnologia": "VSAT",
                "tipo-de-Produto": "INTERNET",
                "meio-de-acesso": "Satélite",
                "quantidade-acesso": 3
            }
        ]
    },
    {
        "cidade": "Lindoeste",
        "uf": "PR",
        "latitude": -25.259616,
        "longitude": -53.573298,
        "empresa": "HUGHES",
        "cnpj": 5206385000161,
        "pf-ou-pj": "Pessoa Jurídica",
        "info-tecnologia": [
            {
                "tecnologia": "VSAT",
                "tipo-de-Produto": "INTERNET",
                "meio-de-acesso": "Satélite",
                "quantidade-acesso": 7
            }
        ]
    },
    {
        "cidade": "Loanda",
        "uf": "PR",
        "latitude": -22.923194,
        "longitude": -53.136216,
        "empresa": "HUGHES",
        "cnpj": 5206385000161,
        "pf-ou-pj": "Pessoa Jurídica",
        "info-tecnologia": [
            {
                "tecnologia": "VSAT",
                "tipo-de-Produto": "INTERNET",
                "meio-de-acesso": "Satélite",
                "quantidade-acesso": 1
            }
        ]
    },
    {
        "cidade": "Londrina",
        "uf": "PR",
        "latitude": -23.303975,
        "longitude": -51.1691,
        "empresa": "HUGHES",
        "cnpj": 5206385000161,
        "pf-ou-pj": "Pessoa Jurídica",
        "info-tecnologia": [
            {
                "tecnologia": "VSAT",
                "tipo-de-Produto": "INTERNET",
                "meio-de-acesso": "Satélite",
                "quantidade-acesso": 16
            }
        ]
    },
    {
        "cidade": "Luiziana",
        "uf": "PR",
        "latitude": -24.285284,
        "longitude": -52.269022,
        "empresa": "HUGHES",
        "cnpj": 5206385000161,
        "pf-ou-pj": "Pessoa Jurídica",
        "info-tecnologia": [
            {
                "tecnologia": "VSAT",
                "tipo-de-Produto": "INTERNET",
                "meio-de-acesso": "Satélite",
                "quantidade-acesso": 9
            }
        ]
    },
    {
        "cidade": "Lunardelli",
        "uf": "PR",
        "latitude": -24.082055,
        "longitude": -51.736783,
        "empresa": "HUGHES",
        "cnpj": 5206385000161,
        "pf-ou-pj": "Pessoa Jurídica",
        "info-tecnologia": [
            {
                "tecnologia": "VSAT",
                "tipo-de-Produto": "INTERNET",
                "meio-de-acesso": "Satélite",
                "quantidade-acesso": 11
            }
        ]
    },
    {
        "cidade": "Lupionópolis",
        "uf": "PR",
        "latitude": -22.754987,
        "longitude": -51.660085,
        "empresa": "HUGHES",
        "cnpj": 5206385000161,
        "pf-ou-pj": "Pessoa Jurídica",
        "info-tecnologia": [
            {
                "tecnologia": "VSAT",
                "tipo-de-Produto": "INTERNET",
                "meio-de-acesso": "Satélite",
                "quantidade-acesso": 2
            }
        ]
    },
    {
        "cidade": "Mallet",
        "uf": "PR",
        "latitude": -25.880588,
        "longitude": -50.817346,
        "empresa": "HUGHES",
        "cnpj": 5206385000161,
        "pf-ou-pj": "Pessoa Jurídica",
        "info-tecnologia": [
            {
                "tecnologia": "VSAT",
                "tipo-de-Produto": "INTERNET",
                "meio-de-acesso": "Satélite",
                "quantidade-acesso": 36
            }
        ]
    },
    {
        "cidade": "Mamborê",
        "uf": "PR",
        "latitude": -24.316951,
        "longitude": -52.527119,
        "empresa": "HUGHES",
        "cnpj": 5206385000161,
        "pf-ou-pj": "Pessoa Jurídica",
        "info-tecnologia": [
            {
                "tecnologia": "VSAT",
                "tipo-de-Produto": "INTERNET",
                "meio-de-acesso": "Satélite",
                "quantidade-acesso": 1
            }
        ]
    },
    {
        "cidade": "Mandaguari",
        "uf": "PR",
        "latitude": -23.54459,
        "longitude": -51.671027,
        "empresa": "HUGHES",
        "cnpj": 5206385000161,
        "pf-ou-pj": "Pessoa Jurídica",
        "info-tecnologia": [
            {
                "tecnologia": "VSAT",
                "tipo-de-Produto": "INTERNET",
                "meio-de-acesso": "Satélite",
                "quantidade-acesso": 3
            }
        ]
    },
    {
        "cidade": "Mandirituba",
        "uf": "PR",
        "latitude": -25.777036,
        "longitude": -49.328225,
        "empresa": "HUGHES",
        "cnpj": 5206385000161,
        "pf-ou-pj": "Pessoa Jurídica",
        "info-tecnologia": [
            {
                "tecnologia": "VSAT",
                "tipo-de-Produto": "INTERNET",
                "meio-de-acesso": "Satélite",
                "quantidade-acesso": 1
            }
        ]
    },
    {
        "cidade": "Manfrinópolis",
        "uf": "PR",
        "latitude": -26.147968,
        "longitude": -53.315257,
        "empresa": "HUGHES",
        "cnpj": 5206385000161,
        "pf-ou-pj": "Pessoa Jurídica",
        "info-tecnologia": [
            {
                "tecnologia": "VSAT",
                "tipo-de-Produto": "INTERNET",
                "meio-de-acesso": "Satélite",
                "quantidade-acesso": 3
            }
        ]
    },
    {
        "cidade": "Mangueirinha",
        "uf": "PR",
        "latitude": -25.942102,
        "longitude": -52.174275,
        "empresa": "HUGHES",
        "cnpj": 5206385000161,
        "pf-ou-pj": "Pessoa Jurídica",
        "info-tecnologia": [
            {
                "tecnologia": "VSAT",
                "tipo-de-Produto": "INTERNET",
                "meio-de-acesso": "Satélite",
                "quantidade-acesso": 19
            }
        ]
    },
    {
        "cidade": "Manoel Ribas",
        "uf": "PR",
        "latitude": -24.514363,
        "longitude": -51.665822,
        "empresa": "HUGHES",
        "cnpj": 5206385000161,
        "pf-ou-pj": "Pessoa Jurídica",
        "info-tecnologia": [
            {
                "tecnologia": "VSAT",
                "tipo-de-Produto": "INTERNET",
                "meio-de-acesso": "Satélite",
                "quantidade-acesso": 23
            }
        ]
    },
    {
        "cidade": "Marechal Cândido Rondon",
        "uf": "PR",
        "latitude": -24.557891,
        "longitude": -54.056115,
        "empresa": "HUGHES",
        "cnpj": 5206385000161,
        "pf-ou-pj": "Pessoa Jurídica",
        "info-tecnologia": [
            {
                "tecnologia": "VSAT",
                "tipo-de-Produto": "INTERNET",
                "meio-de-acesso": "Satélite",
                "quantidade-acesso": 2
            }
        ]
    },
    {
        "cidade": "Marialva",
        "uf": "PR",
        "latitude": -23.484316,
        "longitude": -51.792802,
        "empresa": "HUGHES",
        "cnpj": 5206385000161,
        "pf-ou-pj": "Pessoa Jurídica",
        "info-tecnologia": [
            {
                "tecnologia": "VSAT",
                "tipo-de-Produto": "INTERNET",
                "meio-de-acesso": "Satélite",
                "quantidade-acesso": 3
            }
        ]
    },
    {
        "cidade": "Marilena",
        "uf": "PR",
        "latitude": -22.733552,
        "longitude": -53.040239,
        "empresa": "HUGHES",
        "cnpj": 5206385000161,
        "pf-ou-pj": "Pessoa Jurídica",
        "info-tecnologia": [
            {
                "tecnologia": "VSAT",
                "tipo-de-Produto": "INTERNET",
                "meio-de-acesso": "Satélite",
                "quantidade-acesso": 1
            }
        ]
    },
    {
        "cidade": "Marilândia do Sul",
        "uf": "PR",
        "latitude": -23.742534,
        "longitude": -51.313737,
        "empresa": "HUGHES",
        "cnpj": 5206385000161,
        "pf-ou-pj": "Pessoa Jurídica",
        "info-tecnologia": [
            {
                "tecnologia": "VSAT",
                "tipo-de-Produto": "INTERNET",
                "meio-de-acesso": "Satélite",
                "quantidade-acesso": 8
            }
        ]
    },
    {
        "cidade": "Maringá",
        "uf": "PR",
        "latitude": -23.420545,
        "longitude": -51.933298,
        "empresa": "HUGHES",
        "cnpj": 5206385000161,
        "pf-ou-pj": "Pessoa Jurídica",
        "info-tecnologia": [
            {
                "tecnologia": "VSAT",
                "tipo-de-Produto": "INTERNET",
                "meio-de-acesso": "Satélite",
                "quantidade-acesso": 10
            }
        ]
    },
    {
        "cidade": "Maripá",
        "uf": "PR",
        "latitude": -24.419978,
        "longitude": -53.828641,
        "empresa": "HUGHES",
        "cnpj": 5206385000161,
        "pf-ou-pj": "Pessoa Jurídica",
        "info-tecnologia": [
            {
                "tecnologia": "VSAT",
                "tipo-de-Produto": "INTERNET",
                "meio-de-acesso": "Satélite",
                "quantidade-acesso": 3
            }
        ]
    },
    {
        "cidade": "Mariópolis",
        "uf": "PR",
        "latitude": -26.351072,
        "longitude": -52.549736,
        "empresa": "HUGHES",
        "cnpj": 5206385000161,
        "pf-ou-pj": "Pessoa Jurídica",
        "info-tecnologia": [
            {
                "tecnologia": "VSAT",
                "tipo-de-Produto": "INTERNET",
                "meio-de-acesso": "Satélite",
                "quantidade-acesso": 5
            }
        ]
    },
    {
        "cidade": "Marmeleiro",
        "uf": "PR",
        "latitude": -26.1472,
        "longitude": -53.026741,
        "empresa": "HUGHES",
        "cnpj": 5206385000161,
        "pf-ou-pj": "Pessoa Jurídica",
        "info-tecnologia": [
            {
                "tecnologia": "VSAT",
                "tipo-de-Produto": "INTERNET",
                "meio-de-acesso": "Satélite",
                "quantidade-acesso": 2
            }
        ]
    },
    {
        "cidade": "Marquinho",
        "uf": "PR",
        "latitude": -25.112,
        "longitude": -52.249676,
        "empresa": "HUGHES",
        "cnpj": 5206385000161,
        "pf-ou-pj": "Pessoa Jurídica",
        "info-tecnologia": [
            {
                "tecnologia": "VSAT",
                "tipo-de-Produto": "INTERNET",
                "meio-de-acesso": "Satélite",
                "quantidade-acesso": 4
            }
        ]
    },
    {
        "cidade": "Marumbi",
        "uf": "PR",
        "latitude": -23.705764,
        "longitude": -51.640374,
        "empresa": "HUGHES",
        "cnpj": 5206385000161,
        "pf-ou-pj": "Pessoa Jurídica",
        "info-tecnologia": [
            {
                "tecnologia": "VSAT",
                "tipo-de-Produto": "INTERNET",
                "meio-de-acesso": "Satélite",
                "quantidade-acesso": 1
            }
        ]
    },
    {
        "cidade": "Matelândia",
        "uf": "PR",
        "latitude": -25.249571,
        "longitude": -53.993492,
        "empresa": "HUGHES",
        "cnpj": 5206385000161,
        "pf-ou-pj": "Pessoa Jurídica",
        "info-tecnologia": [
            {
                "tecnologia": "VSAT",
                "tipo-de-Produto": "INTERNET",
                "meio-de-acesso": "Satélite",
                "quantidade-acesso": 9
            }
        ]
    },
    {
        "cidade": "Matinhos",
        "uf": "PR",
        "latitude": -25.823655,
        "longitude": -48.549012,
        "empresa": "HUGHES",
        "cnpj": 5206385000161,
        "pf-ou-pj": "Pessoa Jurídica",
        "info-tecnologia": [
            {
                "tecnologia": "VSAT",
                "tipo-de-Produto": "INTERNET",
                "meio-de-acesso": "Satélite",
                "quantidade-acesso": 1
            }
        ]
    },
    {
        "cidade": "Mato Rico",
        "uf": "PR",
        "latitude": -24.699538,
        "longitude": -52.14544,
        "empresa": "HUGHES",
        "cnpj": 5206385000161,
        "pf-ou-pj": "Pessoa Jurídica",
        "info-tecnologia": [
            {
                "tecnologia": "VSAT",
                "tipo-de-Produto": "INTERNET",
                "meio-de-acesso": "Satélite",
                "quantidade-acesso": 2
            }
        ]
    },
    {
        "cidade": "Mercedes",
        "uf": "PR",
        "latitude": -24.453791,
        "longitude": -54.161826,
        "empresa": "HUGHES",
        "cnpj": 5206385000161,
        "pf-ou-pj": "Pessoa Jurídica",
        "info-tecnologia": [
            {
                "tecnologia": "VSAT",
                "tipo-de-Produto": "INTERNET",
                "meio-de-acesso": "Satélite",
                "quantidade-acesso": 2
            }
        ]
    },
    {
        "cidade": "Mirador",
        "uf": "PR",
        "latitude": -23.254951,
        "longitude": -52.776081,
        "empresa": "HUGHES",
        "cnpj": 5206385000161,
        "pf-ou-pj": "Pessoa Jurídica",
        "info-tecnologia": [
            {
                "tecnologia": "VSAT",
                "tipo-de-Produto": "INTERNET",
                "meio-de-acesso": "Satélite",
                "quantidade-acesso": 3
            }
        ]
    },
    {
        "cidade": "Miraselva",
        "uf": "PR",
        "latitude": -22.965663,
        "longitude": -51.484606,
        "empresa": "HUGHES",
        "cnpj": 5206385000161,
        "pf-ou-pj": "Pessoa Jurídica",
        "info-tecnologia": [
            {
                "tecnologia": "VSAT",
                "tipo-de-Produto": "INTERNET",
                "meio-de-acesso": "Satélite",
                "quantidade-acesso": 1
            }
        ]
    },
    {
        "cidade": "Missal",
        "uf": "PR",
        "latitude": -25.091855,
        "longitude": -54.247664,
        "empresa": "HUGHES",
        "cnpj": 5206385000161,
        "pf-ou-pj": "Pessoa Jurídica",
        "info-tecnologia": [
            {
                "tecnologia": "VSAT",
                "tipo-de-Produto": "INTERNET",
                "meio-de-acesso": "Satélite",
                "quantidade-acesso": 3
            }
        ]
    },
    {
        "cidade": "Moreira Sales",
        "uf": "PR",
        "latitude": -24.052657,
        "longitude": -53.00564,
        "empresa": "HUGHES",
        "cnpj": 5206385000161,
        "pf-ou-pj": "Pessoa Jurídica",
        "info-tecnologia": [
            {
                "tecnologia": "VSAT",
                "tipo-de-Produto": "INTERNET",
                "meio-de-acesso": "Satélite",
                "quantidade-acesso": 3
            }
        ]
    },
    {
        "cidade": "Morretes",
        "uf": "PR",
        "latitude": -25.474365,
        "longitude": -48.834533,
        "empresa": "HUGHES",
        "cnpj": 5206385000161,
        "pf-ou-pj": "Pessoa Jurídica",
        "info-tecnologia": [
            {
                "tecnologia": "VSAT",
                "tipo-de-Produto": "INTERNET",
                "meio-de-acesso": "Satélite",
                "quantidade-acesso": 114
            }
        ]
    },
    {
        "cidade": "Nossa Senhora das Graças",
        "uf": "PR",
        "latitude": -22.912926,
        "longitude": -51.797764,
        "empresa": "HUGHES",
        "cnpj": 5206385000161,
        "pf-ou-pj": "Pessoa Jurídica",
        "info-tecnologia": [
            {
                "tecnologia": "VSAT",
                "tipo-de-Produto": "INTERNET",
                "meio-de-acesso": "Satélite",
                "quantidade-acesso": 2
            }
        ]
    },
    {
        "cidade": "Nova Aliança do Ivaí",
        "uf": "PR",
        "latitude": -23.176271,
        "longitude": -52.603244,
        "empresa": "HUGHES",
        "cnpj": 5206385000161,
        "pf-ou-pj": "Pessoa Jurídica",
        "info-tecnologia": [
            {
                "tecnologia": "VSAT",
                "tipo-de-Produto": "INTERNET",
                "meio-de-acesso": "Satélite",
                "quantidade-acesso": 1
            }
        ]
    },
    {
        "cidade": "Nova América da Colina",
        "uf": "PR",
        "latitude": -23.330772,
        "longitude": -50.716821,
        "empresa": "HUGHES",
        "cnpj": 5206385000161,
        "pf-ou-pj": "Pessoa Jurídica",
        "info-tecnologia": [
            {
                "tecnologia": "VSAT",
                "tipo-de-Produto": "INTERNET",
                "meio-de-acesso": "Satélite",
                "quantidade-acesso": 3
            }
        ]
    },
    {
        "cidade": "Nova Aurora",
        "uf": "PR",
        "latitude": -24.528859,
        "longitude": -53.257449,
        "empresa": "HUGHES",
        "cnpj": 5206385000161,
        "pf-ou-pj": "Pessoa Jurídica",
        "info-tecnologia": [
            {
                "tecnologia": "VSAT",
                "tipo-de-Produto": "INTERNET",
                "meio-de-acesso": "Satélite",
                "quantidade-acesso": 7
            }
        ]
    },
    {
        "cidade": "Nova Cantu",
        "uf": "PR",
        "latitude": -24.672324,
        "longitude": -52.566078,
        "empresa": "HUGHES",
        "cnpj": 5206385000161,
        "pf-ou-pj": "Pessoa Jurídica",
        "info-tecnologia": [
            {
                "tecnologia": "VSAT",
                "tipo-de-Produto": "INTERNET",
                "meio-de-acesso": "Satélite",
                "quantidade-acesso": 22
            }
        ]
    },
    {
        "cidade": "Nova Esperança",
        "uf": "PR",
        "latitude": -23.18202,
        "longitude": -52.203139,
        "empresa": "HUGHES",
        "cnpj": 5206385000161,
        "pf-ou-pj": "Pessoa Jurídica",
        "info-tecnologia": [
            {
                "tecnologia": "VSAT",
                "tipo-de-Produto": "INTERNET",
                "meio-de-acesso": "Satélite",
                "quantidade-acesso": 1
            }
        ]
    },
    {
        "cidade": "Nova Esperança do Sudoeste",
        "uf": "PR",
        "latitude": -25.90607,
        "longitude": -53.26524,
        "empresa": "HUGHES",
        "cnpj": 5206385000161,
        "pf-ou-pj": "Pessoa Jurídica",
        "info-tecnologia": [
            {
                "tecnologia": "VSAT",
                "tipo-de-Produto": "INTERNET",
                "meio-de-acesso": "Satélite",
                "quantidade-acesso": 1
            }
        ]
    },
    {
        "cidade": "Nova Fátima",
        "uf": "PR",
        "latitude": -23.432447,
        "longitude": -50.566507,
        "empresa": "HUGHES",
        "cnpj": 5206385000161,
        "pf-ou-pj": "Pessoa Jurídica",
        "info-tecnologia": [
            {
                "tecnologia": "VSAT",
                "tipo-de-Produto": "INTERNET",
                "meio-de-acesso": "Satélite",
                "quantidade-acesso": 2
            }
        ]
    },
    {
        "cidade": "Nova Laranjeiras",
        "uf": "PR",
        "latitude": -25.305376,
        "longitude": -52.544682,
        "empresa": "HUGHES",
        "cnpj": 5206385000161,
        "pf-ou-pj": "Pessoa Jurídica",
        "info-tecnologia": [
            {
                "tecnologia": "VSAT",
                "tipo-de-Produto": "INTERNET",
                "meio-de-acesso": "Satélite",
                "quantidade-acesso": 19
            }
        ]
    },
    {
        "cidade": "Nova Olímpia",
        "uf": "PR",
        "latitude": -23.470252,
        "longitude": -53.089799,
        "empresa": "HUGHES",
        "cnpj": 5206385000161,
        "pf-ou-pj": "Pessoa Jurídica",
        "info-tecnologia": [
            {
                "tecnologia": "VSAT",
                "tipo-de-Produto": "INTERNET",
                "meio-de-acesso": "Satélite",
                "quantidade-acesso": 1
            }
        ]
    },
    {
        "cidade": "Nova Santa Bárbara",
        "uf": "PR",
        "latitude": -23.586534,
        "longitude": -50.759798,
        "empresa": "HUGHES",
        "cnpj": 5206385000161,
        "pf-ou-pj": "Pessoa Jurídica",
        "info-tecnologia": [
            {
                "tecnologia": "VSAT",
                "tipo-de-Produto": "INTERNET",
                "meio-de-acesso": "Satélite",
                "quantidade-acesso": 1
            }
        ]
    },
    {
        "cidade": "Nova Santa Rosa",
        "uf": "PR",
        "latitude": -24.469293,
        "longitude": -53.955249,
        "empresa": "HUGHES",
        "cnpj": 5206385000161,
        "pf-ou-pj": "Pessoa Jurídica",
        "info-tecnologia": [
            {
                "tecnologia": "VSAT",
                "tipo-de-Produto": "INTERNET",
                "meio-de-acesso": "Satélite",
                "quantidade-acesso": 2
            }
        ]
    },
    {
        "cidade": "Nova Tebas",
        "uf": "PR",
        "latitude": -24.437958,
        "longitude": -51.945357,
        "empresa": "HUGHES",
        "cnpj": 5206385000161,
        "pf-ou-pj": "Pessoa Jurídica",
        "info-tecnologia": [
            {
                "tecnologia": "VSAT",
                "tipo-de-Produto": "INTERNET",
                "meio-de-acesso": "Satélite",
                "quantidade-acesso": 13
            }
        ]
    },
    {
        "cidade": "Ortigueira",
        "uf": "PR",
        "latitude": -24.205811,
        "longitude": -50.918508,
        "empresa": "HUGHES",
        "cnpj": 5206385000161,
        "pf-ou-pj": "Pessoa Jurídica",
        "info-tecnologia": [
            {
                "tecnologia": "VSAT",
                "tipo-de-Produto": "INTERNET",
                "meio-de-acesso": "Satélite",
                "quantidade-acesso": 75
            }
        ]
    },
    {
        "cidade": "Palmas",
        "uf": "PR",
        "latitude": -26.483868,
        "longitude": -51.988812,
        "empresa": "HUGHES",
        "cnpj": 5206385000161,
        "pf-ou-pj": "Pessoa Jurídica",
        "info-tecnologia": [
            {
                "tecnologia": "VSAT",
                "tipo-de-Produto": "INTERNET",
                "meio-de-acesso": "Satélite",
                "quantidade-acesso": 6
            }
        ]
    },
    {
        "cidade": "Palmital",
        "uf": "PR",
        "latitude": -24.885301,
        "longitude": -52.202854,
        "empresa": "HUGHES",
        "cnpj": 5206385000161,
        "pf-ou-pj": "Pessoa Jurídica",
        "info-tecnologia": [
            {
                "tecnologia": "VSAT",
                "tipo-de-Produto": "INTERNET",
                "meio-de-acesso": "Satélite",
                "quantidade-acesso": 5
            }
        ]
    },
    {
        "cidade": "Paranacity",
        "uf": "PR",
        "latitude": -22.929713,
        "longitude": -52.154946,
        "empresa": "HUGHES",
        "cnpj": 5206385000161,
        "pf-ou-pj": "Pessoa Jurídica",
        "info-tecnologia": [
            {
                "tecnologia": "VSAT",
                "tipo-de-Produto": "INTERNET",
                "meio-de-acesso": "Satélite",
                "quantidade-acesso": 2
            }
        ]
    },
    {
        "cidade": "Paranaguá",
        "uf": "PR",
        "latitude": -25.516078,
        "longitude": -48.522528,
        "empresa": "HUGHES",
        "cnpj": 5206385000161,
        "pf-ou-pj": "Pessoa Jurídica",
        "info-tecnologia": [
            {
                "tecnologia": "VSAT",
                "tipo-de-Produto": "INTERNET",
                "meio-de-acesso": "Satélite",
                "quantidade-acesso": 12
            }
        ]
    },
    {
        "cidade": "Paranavaí",
        "uf": "PR",
        "latitude": -23.08165,
        "longitude": -52.461724,
        "empresa": "HUGHES",
        "cnpj": 5206385000161,
        "pf-ou-pj": "Pessoa Jurídica",
        "info-tecnologia": [
            {
                "tecnologia": "VSAT",
                "tipo-de-Produto": "INTERNET",
                "meio-de-acesso": "Satélite",
                "quantidade-acesso": 2
            }
        ]
    },
    {
        "cidade": "Pato Branco",
        "uf": "PR",
        "latitude": -26.229237,
        "longitude": -52.67063,
        "empresa": "HUGHES",
        "cnpj": 5206385000161,
        "pf-ou-pj": "Pessoa Jurídica",
        "info-tecnologia": [
            {
                "tecnologia": "VSAT",
                "tipo-de-Produto": "INTERNET",
                "meio-de-acesso": "Satélite",
                "quantidade-acesso": 1
            }
        ]
    },
    {
        "cidade": "Paula Freitas",
        "uf": "PR",
        "latitude": -26.210513,
        "longitude": -50.930983,
        "empresa": "HUGHES",
        "cnpj": 5206385000161,
        "pf-ou-pj": "Pessoa Jurídica",
        "info-tecnologia": [
            {
                "tecnologia": "VSAT",
                "tipo-de-Produto": "INTERNET",
                "meio-de-acesso": "Satélite",
                "quantidade-acesso": 3
            }
        ]
    },
    {
        "cidade": "Paulo Frontin",
        "uf": "PR",
        "latitude": -26.046565,
        "longitude": -50.830423,
        "empresa": "HUGHES",
        "cnpj": 5206385000161,
        "pf-ou-pj": "Pessoa Jurídica",
        "info-tecnologia": [
            {
                "tecnologia": "VSAT",
                "tipo-de-Produto": "INTERNET",
                "meio-de-acesso": "Satélite",
                "quantidade-acesso": 9
            }
        ]
    },
    {
        "cidade": "Peabiru",
        "uf": "PR",
        "latitude": -23.914013,
        "longitude": -52.343107,
        "empresa": "HUGHES",
        "cnpj": 5206385000161,
        "pf-ou-pj": "Pessoa Jurídica",
        "info-tecnologia": [
            {
                "tecnologia": "VSAT",
                "tipo-de-Produto": "INTERNET",
                "meio-de-acesso": "Satélite",
                "quantidade-acesso": 1
            }
        ]
    },
    {
        "cidade": "Perobal",
        "uf": "PR",
        "latitude": -23.894861,
        "longitude": -53.409838,
        "empresa": "HUGHES",
        "cnpj": 5206385000161,
        "pf-ou-pj": "Pessoa Jurídica",
        "info-tecnologia": [
            {
                "tecnologia": "VSAT",
                "tipo-de-Produto": "INTERNET",
                "meio-de-acesso": "Satélite",
                "quantidade-acesso": 1
            }
        ]
    },
    {
        "cidade": "Pinhais",
        "uf": "PR",
        "latitude": -25.442949,
        "longitude": -49.19267,
        "empresa": "HUGHES",
        "cnpj": 5206385000161,
        "pf-ou-pj": "Pessoa Jurídica",
        "info-tecnologia": [
            {
                "tecnologia": "VSAT",
                "tipo-de-Produto": "INTERNET",
                "meio-de-acesso": "Satélite",
                "quantidade-acesso": 7
            }
        ]
    },
    {
        "cidade": "Pinhalão",
        "uf": "PR",
        "latitude": -23.798176,
        "longitude": -50.053571,
        "empresa": "HUGHES",
        "cnpj": 5206385000161,
        "pf-ou-pj": "Pessoa Jurídica",
        "info-tecnologia": [
            {
                "tecnologia": "VSAT",
                "tipo-de-Produto": "INTERNET",
                "meio-de-acesso": "Satélite",
                "quantidade-acesso": 6
            }
        ]
    },
    {
        "cidade": "Pinhão",
        "uf": "PR",
        "latitude": -25.694388,
        "longitude": -51.653595,
        "empresa": "HUGHES",
        "cnpj": 5206385000161,
        "pf-ou-pj": "Pessoa Jurídica",
        "info-tecnologia": [
            {
                "tecnologia": "VSAT",
                "tipo-de-Produto": "INTERNET",
                "meio-de-acesso": "Satélite",
                "quantidade-acesso": 13
            }
        ]
    },
    {
        "cidade": "Piraquara",
        "uf": "PR",
        "latitude": -25.442171,
        "longitude": -49.062411,
        "empresa": "HUGHES",
        "cnpj": 5206385000161,
        "pf-ou-pj": "Pessoa Jurídica",
        "info-tecnologia": [
            {
                "tecnologia": "VSAT",
                "tipo-de-Produto": "INTERNET",
                "meio-de-acesso": "Satélite",
                "quantidade-acesso": 5
            }
        ]
    },
    {
        "cidade": "Piraí do Sul",
        "uf": "PR",
        "latitude": -24.530637,
        "longitude": -49.943312,
        "empresa": "HUGHES",
        "cnpj": 5206385000161,
        "pf-ou-pj": "Pessoa Jurídica",
        "info-tecnologia": [
            {
                "tecnologia": "VSAT",
                "tipo-de-Produto": "INTERNET",
                "meio-de-acesso": "Satélite",
                "quantidade-acesso": 3
            }
        ]
    },
    {
        "cidade": "Pitanga",
        "uf": "PR",
        "latitude": -24.758773,
        "longitude": -51.759645,
        "empresa": "HUGHES",
        "cnpj": 5206385000161,
        "pf-ou-pj": "Pessoa Jurídica",
        "info-tecnologia": [
            {
                "tecnologia": "VSAT",
                "tipo-de-Produto": "INTERNET",
                "meio-de-acesso": "Satélite",
                "quantidade-acesso": 4
            }
        ]
    },
    {
        "cidade": "Pitangueiras",
        "uf": "PR",
        "latitude": -23.228134,
        "longitude": -51.587277,
        "empresa": "HUGHES",
        "cnpj": 5206385000161,
        "pf-ou-pj": "Pessoa Jurídica",
        "info-tecnologia": [
            {
                "tecnologia": "VSAT",
                "tipo-de-Produto": "INTERNET",
                "meio-de-acesso": "Satélite",
                "quantidade-acesso": 1
            }
        ]
    },
    {
        "cidade": "Piên",
        "uf": "PR",
        "latitude": -26.09647,
        "longitude": -49.433565,
        "empresa": "HUGHES",
        "cnpj": 5206385000161,
        "pf-ou-pj": "Pessoa Jurídica",
        "info-tecnologia": [
            {
                "tecnologia": "VSAT",
                "tipo-de-Produto": "INTERNET",
                "meio-de-acesso": "Satélite",
                "quantidade-acesso": 8
            }
        ]
    },
    {
        "cidade": "Planaltina do Paraná",
        "uf": "PR",
        "latitude": -23.010146,
        "longitude": -52.916242,
        "empresa": "HUGHES",
        "cnpj": 5206385000161,
        "pf-ou-pj": "Pessoa Jurídica",
        "info-tecnologia": [
            {
                "tecnologia": "VSAT",
                "tipo-de-Produto": "INTERNET",
                "meio-de-acesso": "Satélite",
                "quantidade-acesso": 4
            }
        ]
    },
    {
        "cidade": "Planalto",
        "uf": "PR",
        "latitude": -25.721135,
        "longitude": -53.764234,
        "empresa": "HUGHES",
        "cnpj": 5206385000161,
        "pf-ou-pj": "Pessoa Jurídica",
        "info-tecnologia": [
            {
                "tecnologia": "VSAT",
                "tipo-de-Produto": "INTERNET",
                "meio-de-acesso": "Satélite",
                "quantidade-acesso": 4
            }
        ]
    },
    {
        "cidade": "Ponta Grossa",
        "uf": "PR",
        "latitude": -25.091622,
        "longitude": -50.166787,
        "empresa": "HUGHES",
        "cnpj": 5206385000161,
        "pf-ou-pj": "Pessoa Jurídica",
        "info-tecnologia": [
            {
                "tecnologia": "VSAT",
                "tipo-de-Produto": "INTERNET",
                "meio-de-acesso": "Satélite",
                "quantidade-acesso": 24
            }
        ]
    },
    {
        "cidade": "Pontal do Paraná",
        "uf": "PR",
        "latitude": -25.673533,
        "longitude": -48.511062,
        "empresa": "HUGHES",
        "cnpj": 5206385000161,
        "pf-ou-pj": "Pessoa Jurídica",
        "info-tecnologia": [
            {
                "tecnologia": "VSAT",
                "tipo-de-Produto": "INTERNET",
                "meio-de-acesso": "Satélite",
                "quantidade-acesso": 3
            }
        ]
    },
    {
        "cidade": "Porto Amazonas",
        "uf": "PR",
        "latitude": -25.540002,
        "longitude": -49.894591,
        "empresa": "HUGHES",
        "cnpj": 5206385000161,
        "pf-ou-pj": "Pessoa Jurídica",
        "info-tecnologia": [
            {
                "tecnologia": "VSAT",
                "tipo-de-Produto": "INTERNET",
                "meio-de-acesso": "Satélite",
                "quantidade-acesso": 4
            }
        ]
    },
    {
        "cidade": "Porto Rico",
        "uf": "PR",
        "latitude": -22.774742,
        "longitude": -53.267731,
        "empresa": "HUGHES",
        "cnpj": 5206385000161,
        "pf-ou-pj": "Pessoa Jurídica",
        "info-tecnologia": [
            {
                "tecnologia": "VSAT",
                "tipo-de-Produto": "INTERNET",
                "meio-de-acesso": "Satélite",
                "quantidade-acesso": 1
            }
        ]
    },
    {
        "cidade": "Porto Vitória",
        "uf": "PR",
        "latitude": -26.167404,
        "longitude": -51.230976,
        "empresa": "HUGHES",
        "cnpj": 5206385000161,
        "pf-ou-pj": "Pessoa Jurídica",
        "info-tecnologia": [
            {
                "tecnologia": "VSAT",
                "tipo-de-Produto": "INTERNET",
                "meio-de-acesso": "Satélite",
                "quantidade-acesso": 5
            }
        ]
    },
    {
        "cidade": "Prado Ferreira",
        "uf": "PR",
        "latitude": -23.035698,
        "longitude": -51.442883,
        "empresa": "HUGHES",
        "cnpj": 5206385000161,
        "pf-ou-pj": "Pessoa Jurídica",
        "info-tecnologia": [
            {
                "tecnologia": "VSAT",
                "tipo-de-Produto": "INTERNET",
                "meio-de-acesso": "Satélite",
                "quantidade-acesso": 3
            }
        ]
    },
    {
        "cidade": "Pranchita",
        "uf": "PR",
        "latitude": -26.021968,
        "longitude": -53.741112,
        "empresa": "HUGHES",
        "cnpj": 5206385000161,
        "pf-ou-pj": "Pessoa Jurídica",
        "info-tecnologia": [
            {
                "tecnologia": "VSAT",
                "tipo-de-Produto": "INTERNET",
                "meio-de-acesso": "Satélite",
                "quantidade-acesso": 2
            }
        ]
    },