[
    {
        "cidade": "Abreulândia",
        "uf": "TO",
        "latitude": -9.621015,
        "longitude": -49.151845,
        "empresa": "HUGHES",
        "cnpj": 5206385000161,
        "pf-ou-pj": "Pessoa Física",
        "info-tecnologia": [
            {
                "tecnologia": "VSAT",
                "tipo-de-Produto": "INTERNET",
                "meio-de-acesso": "Satélite",
                "quantidade-acesso": 4
            }
        ]
    },
    {
        "cidade": "Almas",
        "uf": "TO",
        "latitude": -11.570553,
        "longitude": -47.179197,
        "empresa": "HUGHES",
        "cnpj": 5206385000161,
        "pf-ou-pj": "Pessoa Física",
        "info-tecnologia": [
            {
                "tecnologia": "VSAT",
                "tipo-de-Produto": "INTERNET",
                "meio-de-acesso": "Satélite",
                "quantidade-acesso": 14
            }
        ]
    },
    {
        "cidade": "Aragominas",
        "uf": "TO",
        "latitude": -7.160051,
        "longitude": -48.529096,
        "empresa": "HUGHES",
        "cnpj": 5206385000161,
        "pf-ou-pj": "Pessoa Física",
        "info-tecnologia": [
            {
                "tecnologia": "VSAT",
                "tipo-de-Produto": "INTERNET",
                "meio-de-acesso": "Satélite",
                "quantidade-acesso": 50
            }
        ]
    },
    {
        "cidade": "Araguacema",
        "uf": "TO",
        "latitude": -8.807547,
        "longitude": -49.556886,
        "empresa": "HUGHES",
        "cnpj": 5206385000161,
        "pf-ou-pj": "Pessoa Física",
        "info-tecnologia": [
            {
                "tecnologia": "VSAT",
                "tipo-de-Produto": "INTERNET",
                "meio-de-acesso": "Satélite",
                "quantidade-acesso": 23
            }
        ]
    },
    {
        "cidade": "Araguaína",
        "uf": "TO",
        "latitude": -7.192375,
        "longitude": -48.204402,
        "empresa": "HUGHES",
        "cnpj": 5206385000161,
        "pf-ou-pj": "Pessoa Física",
        "info-tecnologia": [
            {
                "tecnologia": "VSAT",
                "tipo-de-Produto": "INTERNET",
                "meio-de-acesso": "Satélite",
                "quantidade-acesso": 74
            }
        ]
    },
    {
        "cidade": "Arapoema",
        "uf": "TO",
        "latitude": -7.654634,
        "longitude": -49.063702,
        "empresa": "HUGHES",
        "cnpj": 5206385000161,
        "pf-ou-pj": "Pessoa Física",
        "info-tecnologia": [
            {
                "tecnologia": "VSAT",
                "tipo-de-Produto": "INTERNET",
                "meio-de-acesso": "Satélite",
                "quantidade-acesso": 28
            }
        ]
    },
    {
        "cidade": "Arraias",
        "uf": "TO",
        "latitude": -12.92867,
        "longitude": -46.935891,
        "empresa": "HUGHES",
        "cnpj": 5206385000161,
        "pf-ou-pj": "Pessoa Física",
        "info-tecnologia": [
            {
                "tecnologia": "VSAT",
                "tipo-de-Produto": "INTERNET",
                "meio-de-acesso": "Satélite",
                "quantidade-acesso": 12
            }
        ]
    },
    {
        "cidade": "Aurora do Tocantins",
        "uf": "TO",
        "latitude": -12.71045,
        "longitude": -46.407604,
        "empresa": "HUGHES",
        "cnpj": 5206385000161,
        "pf-ou-pj": "Pessoa Física",
        "info-tecnologia": [
            {
                "tecnologia": "VSAT",
                "tipo-de-Produto": "INTERNET",
                "meio-de-acesso": "Satélite",
                "quantidade-acesso": 1
            }
        ]
    },
    {
        "cidade": "Babaçulândia",
        "uf": "TO",
        "latitude": -7.209227,
        "longitude": -47.761257,
        "empresa": "HUGHES",
        "cnpj": 5206385000161,
        "pf-ou-pj": "Pessoa Física",
        "info-tecnologia": [
            {
                "tecnologia": "VSAT",
                "tipo-de-Produto": "INTERNET",
                "meio-de-acesso": "Satélite",
                "quantidade-acesso": 29
            }
        ]
    },
    {
        "cidade": "Bandeirantes do Tocantins",
        "uf": "TO",
        "latitude": -7.756125,
        "longitude": -48.583567,
        "empresa": "HUGHES",
        "cnpj": 5206385000161,
        "pf-ou-pj": "Pessoa Física",
        "info-tecnologia": [
            {
                "tecnologia": "VSAT",
                "tipo-de-Produto": "INTERNET",
                "meio-de-acesso": "Satélite",
                "quantidade-acesso": 9
            }
        ]
    },
    {
        "cidade": "Barrolândia",
        "uf": "TO",
        "latitude": -9.834042,
        "longitude": -48.725203,
        "empresa": "HUGHES",
        "cnpj": 5206385000161,
        "pf-ou-pj": "Pessoa Física",
        "info-tecnologia": [
            {
                "tecnologia": "VSAT",
                "tipo-de-Produto": "INTERNET",
                "meio-de-acesso": "Satélite",
                "quantidade-acesso": 12
            }
        ]
    },
    {
        "cidade": "Bernardo Sayão",
        "uf": "TO",
        "latitude": -7.874812,
        "longitude": -48.889273,
        "empresa": "HUGHES",
        "cnpj": 5206385000161,
        "pf-ou-pj": "Pessoa Física",
        "info-tecnologia": [
            {
                "tecnologia": "VSAT",
                "tipo-de-Produto": "INTERNET",
                "meio-de-acesso": "Satélite",
                "quantidade-acesso": 14
            }
        ]
    },
    {
        "cidade": "Bom Jesus do Tocantins",
        "uf": "TO",
        "latitude": -8.96306,
        "longitude": -48.165043,
        "empresa": "HUGHES",
        "cnpj": 5206385000161,
        "pf-ou-pj": "Pessoa Física",
        "info-tecnologia": [
            {
                "tecnologia": "VSAT",
                "tipo-de-Produto": "INTERNET",
                "meio-de-acesso": "Satélite",
                "quantidade-acesso": 51
            }
        ]
    },
    {
        "cidade": "Brasilândia do Tocantins",
        "uf": "TO",
        "latitude": -8.389182,
        "longitude": -48.482213,
        "empresa": "HUGHES",
        "cnpj": 5206385000161,
        "pf-ou-pj": "Pessoa Física",
        "info-tecnologia": [
            {
                "tecnologia": "VSAT",
                "tipo-de-Produto": "INTERNET",
                "meio-de-acesso": "Satélite",
                "quantidade-acesso": 8
            }
        ]
    },
    {
        "cidade": "Carmolândia",
        "uf": "TO",
        "latitude": -7.032616,
        "longitude": -48.397809,
        "empresa": "HUGHES",
        "cnpj": 5206385000161,
        "pf-ou-pj": "Pessoa Física",
        "info-tecnologia": [
            {
                "tecnologia": "VSAT",
                "tipo-de-Produto": "INTERNET",
                "meio-de-acesso": "Satélite",
                "quantidade-acesso": 4
            }
        ]
    },
    {
        "cidade": "Caseara",
        "uf": "TO",
        "latitude": -9.276121,
        "longitude": -49.952123,
        "empresa": "HUGHES",
        "cnpj": 5206385000161,
        "pf-ou-pj": "Pessoa Física",
        "info-tecnologia": [
            {
                "tecnologia": "VSAT",
                "tipo-de-Produto": "INTERNET",
                "meio-de-acesso": "Satélite",
                "quantidade-acesso": 5
            }
        ]
    },
    {
        "cidade": "Centenário",
        "uf": "TO",
        "latitude": -8.961031,
        "longitude": -47.330382,
        "empresa": "HUGHES",
        "cnpj": 5206385000161,
        "pf-ou-pj": "Pessoa Física",
        "info-tecnologia": [
            {
                "tecnologia": "VSAT",
                "tipo-de-Produto": "INTERNET",
                "meio-de-acesso": "Satélite",
                "quantidade-acesso": 13
            }
        ]
    },
    {
        "cidade": "Chapada da Natividade",
        "uf": "TO",
        "latitude": -11.617507,
        "longitude": -47.748614,
        "empresa": "HUGHES",
        "cnpj": 5206385000161,
        "pf-ou-pj": "Pessoa Física",
        "info-tecnologia": [
            {
                "tecnologia": "VSAT",
                "tipo-de-Produto": "INTERNET",
                "meio-de-acesso": "Satélite",
                "quantidade-acesso": 3
            }
        ]
    },
    {
        "cidade": "Colinas do Tocantins",
        "uf": "TO",
        "latitude": -8.05764,
        "longitude": -48.475728,
        "empresa": "HUGHES",
        "cnpj": 5206385000161,
        "pf-ou-pj": "Pessoa Física",
        "info-tecnologia": [
            {
                "tecnologia": "VSAT",
                "tipo-de-Produto": "INTERNET",
                "meio-de-acesso": "Satélite",
                "quantidade-acesso": 43
            }
        ]
    },
    {
        "cidade": "Colméia",
        "uf": "TO",
        "latitude": -8.724627,
        "longitude": -48.763753,
        "empresa": "HUGHES",
        "cnpj": 5206385000161,
        "pf-ou-pj": "Pessoa Física",
        "info-tecnologia": [
            {
                "tecnologia": "VSAT",
                "tipo-de-Produto": "INTERNET",
                "meio-de-acesso": "Satélite",
                "quantidade-acesso": 10
            }
        ]
    },
    {
        "cidade": "Combinado",
        "uf": "TO",
        "latitude": -12.791717,
        "longitude": -46.538775,
        "empresa": "HUGHES",
        "cnpj": 5206385000161,
        "pf-ou-pj": "Pessoa Física",
        "info-tecnologia": [
            {
                "tecnologia": "VSAT",
                "tipo-de-Produto": "INTERNET",
                "meio-de-acesso": "Satélite",
                "quantidade-acesso": 1
            }
        ]
    },
    {
        "cidade": "Conceição do Tocantins",
        "uf": "TO",
        "latitude": -12.220874,
        "longitude": -47.295103,
        "empresa": "HUGHES",
        "cnpj": 5206385000161,
        "pf-ou-pj": "Pessoa Física",
        "info-tecnologia": [
            {
                "tecnologia": "VSAT",
                "tipo-de-Produto": "INTERNET",
                "meio-de-acesso": "Satélite",
                "quantidade-acesso": 8
            }
        ]
    },
    {
        "cidade": "Couto Magalhães",
        "uf": "TO",
        "latitude": null,
        "longitude": null,
        "empresa": "HUGHES",
        "cnpj": 5206385000161,
        "pf-ou-pj": "Pessoa Física",
        "info-tecnologia": [
            {
                "tecnologia": "VSAT",
                "tipo-de-Produto": "INTERNET",
                "meio-de-acesso": "Satélite",
                "quantidade-acesso": 3
            }
        ]
    },
    {
        "cidade": "Darcinópolis",
        "uf": "TO",
        "latitude": -6.715912,
        "longitude": -47.759709,
        "empresa": "HUGHES",
        "cnpj": 5206385000161,
        "pf-ou-pj": "Pessoa Física",
        "info-tecnologia": [
            {
                "tecnologia": "VSAT",
                "tipo-de-Produto": "INTERNET",
                "meio-de-acesso": "Satélite",
                "quantidade-acesso": 23
            }
        ]
    },
    {
        "cidade": "Dianópolis",
        "uf": "TO",
        "latitude": -11.624008,
        "longitude": -46.819787,
        "empresa": "HUGHES",
        "cnpj": 5206385000161,
        "pf-ou-pj": "Pessoa Física",
        "info-tecnologia": [
            {
                "tecnologia": "VSAT",
                "tipo-de-Produto": "INTERNET",
                "meio-de-acesso": "Satélite",
                "quantidade-acesso": 29
            }
        ]
    },
    {
        "cidade": "Divinópolis do Tocantins",
        "uf": "TO",
        "latitude": -9.800181,
        "longitude": -49.216849,
        "empresa": "HUGHES",
        "cnpj": 5206385000161,
        "pf-ou-pj": "Pessoa Física",
        "info-tecnologia": [
            {
                "tecnologia": "VSAT",
                "tipo-de-Produto": "INTERNET",
                "meio-de-acesso": "Satélite",
                "quantidade-acesso": 8
            }
        ]
    },
    {
        "cidade": "Dois Irmãos do Tocantins",
        "uf": "TO",
        "latitude": -9.255336,
        "longitude": -49.063756,
        "empresa": "HUGHES",
        "cnpj": 5206385000161,
        "pf-ou-pj": "Pessoa Física",
        "info-tecnologia": [
            {
                "tecnologia": "VSAT",
                "tipo-de-Produto": "INTERNET",
                "meio-de-acesso": "Satélite",
                "quantidade-acesso": 14
            }
        ]
    },
    {
        "cidade": "Filadélfia",
        "uf": "TO",
        "latitude": -7.335011,
        "longitude": -47.495446,
        "empresa": "HUGHES",
        "cnpj": 5206385000161,
        "pf-ou-pj": "Pessoa Física",
        "info-tecnologia": [
            {
                "tecnologia": "VSAT",
                "tipo-de-Produto": "INTERNET",
                "meio-de-acesso": "Satélite",
                "quantidade-acesso": 42
            }
        ]
    },
    {
        "cidade": "Fortaleza do Tabocão",
        "uf": "TO",
        "latitude": -9.056106,
        "longitude": -48.520563,
        "empresa": "HUGHES",
        "cnpj": 5206385000161,
        "pf-ou-pj": "Pessoa Física",
        "info-tecnologia": [
            {
                "tecnologia": "VSAT",
                "tipo-de-Produto": "INTERNET",
                "meio-de-acesso": "Satélite",
                "quantidade-acesso": 5
            }
        ]
    },
    {
        "cidade": "Goianorte",
        "uf": "TO",
        "latitude": -8.774126,
        "longitude": -48.931291,
        "empresa": "HUGHES",
        "cnpj": 5206385000161,
        "pf-ou-pj": "Pessoa Física",
        "info-tecnologia": [
            {
                "tecnologia": "VSAT",
                "tipo-de-Produto": "INTERNET",
                "meio-de-acesso": "Satélite",
                "quantidade-acesso": 18
            }
        ]
    },
    {
        "cidade": "Guaraí",
        "uf": "TO",
        "latitude": -8.835429,
        "longitude": -48.511432,
        "empresa": "HUGHES",
        "cnpj": 5206385000161,
        "pf-ou-pj": "Pessoa Física",
        "info-tecnologia": [
            {
                "tecnologia": "VSAT",
                "tipo-de-Produto": "INTERNET",
                "meio-de-acesso": "Satélite",
                "quantidade-acesso": 55
            }
        ]
    },
    {
        "cidade": "Itacajá",
        "uf": "TO",
        "latitude": -8.392935,
        "longitude": -47.772615,
        "empresa": "HUGHES",
        "cnpj": 5206385000161,
        "pf-ou-pj": "Pessoa Física",
        "info-tecnologia": [
            {
                "tecnologia": "VSAT",
                "tipo-de-Produto": "INTERNET",
                "meio-de-acesso": "Satélite",
                "quantidade-acesso": 182
            }
        ]
    },
    {
        "cidade": "Itapiratins",
        "uf": "TO",
        "latitude": -8.379815,
        "longitude": -48.107192,
        "empresa": "HUGHES",
        "cnpj": 5206385000161,
        "pf-ou-pj": "Pessoa Física",
        "info-tecnologia": [
            {
                "tecnologia": "VSAT",
                "tipo-de-Produto": "INTERNET",
                "meio-de-acesso": "Satélite",
                "quantidade-acesso": 12
            }
        ]
    },
    {
        "cidade": "Itaporã do Tocantins",
        "uf": "TO",
        "latitude": -8.571722,
        "longitude": -48.689481,
        "empresa": "HUGHES",
        "cnpj": 5206385000161,
        "pf-ou-pj": "Pessoa Física",
        "info-tecnologia": [
            {
                "tecnologia": "VSAT",
                "tipo-de-Produto": "INTERNET",
                "meio-de-acesso": "Satélite",
                "quantidade-acesso": 2
            }
        ]
    },
    {
        "cidade": "Lagoa do Tocantins",
        "uf": "TO",
        "latitude": -10.367977,
        "longitude": -47.537979,
        "empresa": "HUGHES",
        "cnpj": 5206385000161,
        "pf-ou-pj": "Pessoa Física",
        "info-tecnologia": [
            {
                "tecnologia": "VSAT",
                "tipo-de-Produto": "INTERNET",
                "meio-de-acesso": "Satélite",
                "quantidade-acesso": 10
            }
        ]
    },
    {
        "cidade": "Lajeado",
        "uf": "TO",
        "latitude": -9.749956,
        "longitude": -48.356482,
        "empresa": "HUGHES",
        "cnpj": 5206385000161,
        "pf-ou-pj": "Pessoa Física",
        "info-tecnologia": [
            {
                "tecnologia": "VSAT",
                "tipo-de-Produto": "INTERNET",
                "meio-de-acesso": "Satélite",
                "quantidade-acesso": 49
            }
        ]
    },
    {
        "cidade": "Lizarda",
        "uf": "TO",
        "latitude": -9.590022,
        "longitude": -46.673813,
        "empresa": "HUGHES",
        "cnpj": 5206385000161,
        "pf-ou-pj": "Pessoa Física",
        "info-tecnologia": [
            {
                "tecnologia": "VSAT",
                "tipo-de-Produto": "INTERNET",
                "meio-de-acesso": "Satélite",
                "quantidade-acesso": 17
            }
        ]
    },
    {
        "cidade": "Marianópolis do Tocantins",
        "uf": "TO",
        "latitude": -9.793768,
        "longitude": -49.65526,
        "empresa": "HUGHES",
        "cnpj": 5206385000161,
        "pf-ou-pj": "Pessoa Física",
        "info-tecnologia": [
            {
                "tecnologia": "VSAT",
                "tipo-de-Produto": "INTERNET",
                "meio-de-acesso": "Satélite",
                "quantidade-acesso": 9
            }
        ]
    },
    {
        "cidade": "Miracema do Tocantins",
        "uf": "TO",
        "latitude": -9.565556,
        "longitude": -48.39298,
        "empresa": "HUGHES",
        "cnpj": 5206385000161,
        "pf-ou-pj": "Pessoa Física",
        "info-tecnologia": [
            {
                "tecnologia": "VSAT",
                "tipo-de-Produto": "INTERNET",
                "meio-de-acesso": "Satélite",
                "quantidade-acesso": 41
            }
        ]
    },
    {
        "cidade": "Miranorte",
        "uf": "TO",
        "latitude": -9.529068,
        "longitude": -48.592222,
        "empresa": "HUGHES",
        "cnpj": 5206385000161,
        "pf-ou-pj": "Pessoa Física",
        "info-tecnologia": [
            {
                "tecnologia": "VSAT",
                "tipo-de-Produto": "INTERNET",
                "meio-de-acesso": "Satélite",
                "quantidade-acesso": 30
            }
        ]
    },
    {
        "cidade": "Monte do Carmo",
        "uf": "TO",
        "latitude": -10.761054,
        "longitude": -48.111426,
        "empresa": "HUGHES",
        "cnpj": 5206385000161,
        "pf-ou-pj": "Pessoa Física",
        "info-tecnologia": [
            {
                "tecnologia": "VSAT",
                "tipo-de-Produto": "INTERNET",
                "meio-de-acesso": "Satélite",
                "quantidade-acesso": 13
            }
        ]
    },
    {
        "cidade": "Muricilândia",
        "uf": "TO",
        "latitude": -7.14669,
        "longitude": -48.609135,
        "empresa": "HUGHES",
        "cnpj": 5206385000161,
        "pf-ou-pj": "Pessoa Física",
        "info-tecnologia": [
            {
                "tecnologia": "VSAT",
                "tipo-de-Produto": "INTERNET",
                "meio-de-acesso": "Satélite",
                "quantidade-acesso": 4
            }
        ]
    },
    {
        "cidade": "Natividade",
        "uf": "TO",
        "latitude": -11.703428,
        "longitude": -47.722344,
        "empresa": "HUGHES",
        "cnpj": 5206385000161,
        "pf-ou-pj": "Pessoa Física",
        "info-tecnologia": [
            {
                "tecnologia": "VSAT",
                "tipo-de-Produto": "INTERNET",
                "meio-de-acesso": "Satélite",
                "quantidade-acesso": 6
            }
        ]
    },
    {
        "cidade": "Nova Olinda",
        "uf": "TO",
        "latitude": -7.631712,
        "longitude": -48.425232,
        "empresa": "HUGHES",
        "cnpj": 5206385000161,
        "pf-ou-pj": "Pessoa Física",
        "info-tecnologia": [
            {
                "tecnologia": "VSAT",
                "tipo-de-Produto": "INTERNET",
                "meio-de-acesso": "Satélite",
                "quantidade-acesso": 28
            }
        ]
    },
    {
        "cidade": "Novo Acordo",
        "uf": "TO",
        "latitude": -9.970633,
        "longitude": -47.678533,
        "empresa": "HUGHES",
        "cnpj": 5206385000161,
        "pf-ou-pj": "Pessoa Física",
        "info-tecnologia": [
            {
                "tecnologia": "VSAT",
                "tipo-de-Produto": "INTERNET",
                "meio-de-acesso": "Satélite",
                "quantidade-acesso": 1
            }
        ]
    },
    {
        "cidade": "Novo Jardim",
        "uf": "TO",
        "latitude": -11.825965,
        "longitude": -46.632471,
        "empresa": "HUGHES",
        "cnpj": 5206385000161,
        "pf-ou-pj": "Pessoa Física",
        "info-tecnologia": [
            {
                "tecnologia": "VSAT",
                "tipo-de-Produto": "INTERNET",
                "meio-de-acesso": "Satélite",
                "quantidade-acesso": 1
            }
        ]
    },
    {
        "cidade": "Palmeirante",
        "uf": "TO",
        "latitude": -7.847861,
        "longitude": -47.924191,
        "empresa": "HUGHES",
        "cnpj": 5206385000161,
        "pf-ou-pj": "Pessoa Física",
        "info-tecnologia": [
            {
                "tecnologia": "VSAT",
                "tipo-de-Produto": "INTERNET",
                "meio-de-acesso": "Satélite",
                "quantidade-acesso": 39
            }
        ]
    },
    {
        "cidade": "Paranã",
        "uf": "TO",
        "latitude": -12.616747,
        "longitude": -47.873378,
        "empresa": "HUGHES",
        "cnpj": 5206385000161,
        "pf-ou-pj": "Pessoa Física",
        "info-tecnologia": [
            {
                "tecnologia": "VSAT",
                "tipo-de-Produto": "INTERNET",
                "meio-de-acesso": "Satélite",
                "quantidade-acesso": 34
            }
        ]
    },
    {
        "cidade": "Pau D'Arco",
        "uf": "TO",
        "latitude": null,
        "longitude": null,
        "empresa": "HUGHES",
        "cnpj": 5206385000161,
        "pf-ou-pj": "Pessoa Física",
        "info-tecnologia": [
            {
                "tecnologia": "VSAT",
                "tipo-de-Produto": "INTERNET",
                "meio-de-acesso": "Satélite",
                "quantidade-acesso": 1
            }
        ]
    },
    {
        "cidade": "Pedro Afonso",
        "uf": "TO",
        "latitude": -8.970341,
        "longitude": -48.172942,
        "empresa": "HUGHES",
        "cnpj": 5206385000161,
        "pf-ou-pj": "Pessoa Física",
        "info-tecnologia": [
            {
                "tecnologia": "VSAT",
                "tipo-de-Produto": "INTERNET",
                "meio-de-acesso": "Satélite",
                "quantidade-acesso": 101
            }
        ]
    },
    {
        "cidade": "Pequizeiro",
        "uf": "TO",
        "latitude": -8.593204,
        "longitude": -48.93269,
        "empresa": "HUGHES",
        "cnpj": 5206385000161,
        "pf-ou-pj": "Pessoa Física",
        "info-tecnologia": [
            {
                "tecnologia": "VSAT",
                "tipo-de-Produto": "INTERNET",
                "meio-de-acesso": "Satélite",
                "quantidade-acesso": 5
            }
        ]
    },
    {
        "cidade": "Pindorama do Tocantins",
        "uf": "TO",
        "latitude": -11.131074,
        "longitude": -47.57263,
        "empresa": "HUGHES",
        "cnpj": 5206385000161,
        "pf-ou-pj": "Pessoa Física",
        "info-tecnologia": [
            {
                "tecnologia": "VSAT",
                "tipo-de-Produto": "INTERNET",
                "meio-de-acesso": "Satélite",
                "quantidade-acesso": 2
            }
        ]
    },
    {
        "cidade": "Piraquê",
        "uf": "TO",
        "latitude": -6.77302,
        "longitude": -48.295796,
        "empresa": "HUGHES",
        "cnpj": 5206385000161,
        "pf-ou-pj": "Pessoa Física",
        "info-tecnologia": [
            {
                "tecnologia": "VSAT",
                "tipo-de-Produto": "INTERNET",
                "meio-de-acesso": "Satélite",
                "quantidade-acesso": 5
            }
        ]
    },
    {
        "cidade": "Ponte Alta do Bom Jesus",
        "uf": "TO",
        "latitude": -12.085297,
        "longitude": -46.482541,
        "empresa": "HUGHES",
        "cnpj": 5206385000161,
        "pf-ou-pj": "Pessoa Física",
        "info-tecnologia": [
            {
                "tecnologia": "VSAT",
                "tipo-de-Produto": "INTERNET",
                "meio-de-acesso": "Satélite",
                "quantidade-acesso": 2
            }
        ]
    },
    {
        "cidade": "Ponte Alta do Tocantins",
        "uf": "TO",
        "latitude": -10.748118,
        "longitude": -47.527577,
        "empresa": "HUGHES",
        "cnpj": 5206385000161,
        "pf-ou-pj": "Pessoa Física",
        "info-tecnologia": [
            {
                "tecnologia": "VSAT",
                "tipo-de-Produto": "INTERNET",
                "meio-de-acesso": "Satélite",
                "quantidade-acesso": 23
            }
        ]
    },
    {
        "cidade": "Presidente Kennedy",
        "uf": "TO",
        "latitude": -8.540599,
        "longitude": -48.506232,
        "empresa": "HUGHES",
        "cnpj": 5206385000161,
        "pf-ou-pj": "Pessoa Física",
        "info-tecnologia": [
            {
                "tecnologia": "VSAT",
                "tipo-de-Produto": "INTERNET",
                "meio-de-acesso": "Satélite",
                "quantidade-acesso": 3
            }
        ]
    },
    {
        "cidade": "Recursolândia",
        "uf": "TO",
        "latitude": -8.7227,
        "longitude": -47.242107,
        "empresa": "HUGHES",
        "cnpj": 5206385000161,
        "pf-ou-pj": "Pessoa Física",
        "info-tecnologia": [
            {
                "tecnologia": "VSAT",
                "tipo-de-Produto": "INTERNET",
                "meio-de-acesso": "Satélite",
                "quantidade-acesso": 9
            }
        ]
    },
    {
        "cidade": "Riachinho",
        "uf": "TO",
        "latitude": -6.440054,
        "longitude": -48.137056,
        "empresa": "HUGHES",
        "cnpj": 5206385000161,
        "pf-ou-pj": "Pessoa Física",
        "info-tecnologia": [
            {
                "tecnologia": "VSAT",
                "tipo-de-Produto": "INTERNET",
                "meio-de-acesso": "Satélite",
                "quantidade-acesso": 1
            }
        ]
    },
    {
        "cidade": "Rio Sono",
        "uf": "TO",
        "latitude": -9.35002,
        "longitude": -47.887968,
        "empresa": "HUGHES",
        "cnpj": 5206385000161,
        "pf-ou-pj": "Pessoa Física",
        "info-tecnologia": [
            {
                "tecnologia": "VSAT",
                "tipo-de-Produto": "INTERNET",
                "meio-de-acesso": "Satélite",
                "quantidade-acesso": 61
            }
        ]
    },
    {
        "cidade": "Rio dos Bois",
        "uf": "TO",
        "latitude": -9.344254,
        "longitude": -48.524518,
        "empresa": "HUGHES",
        "cnpj": 5206385000161,
        "pf-ou-pj": "Pessoa Física",
        "info-tecnologia": [
            {
                "tecnologia": "VSAT",
                "tipo-de-Produto": "INTERNET",
                "meio-de-acesso": "Satélite",
                "quantidade-acesso": 5
            }
        ]
    },
    {
        "cidade": "Santa Fé do Araguaia",
        "uf": "TO",
        "latitude": -7.158034,
        "longitude": -48.716462,
        "empresa": "HUGHES",
        "cnpj": 5206385000161,
        "pf-ou-pj": "Pessoa Física",
        "info-tecnologia": [
            {
                "tecnologia": "VSAT",
                "tipo-de-Produto": "INTERNET",
                "meio-de-acesso": "Satélite",
                "quantidade-acesso": 8
            }
        ]
    },
    {
        "cidade": "Santa Maria do Tocantins",
        "uf": "TO",
        "latitude": -8.804598,
        "longitude": -47.788708,
        "empresa": "HUGHES",
        "cnpj": 5206385000161,
        "pf-ou-pj": "Pessoa Física",
        "info-tecnologia": [
            {
                "tecnologia": "VSAT",
                "tipo-de-Produto": "INTERNET",
                "meio-de-acesso": "Satélite",
                "quantidade-acesso": 7
            }
        ]
    },
    {
        "cidade": "Santa Tereza do Tocantins",
        "uf": "TO",
        "latitude": -10.274621,
        "longitude": -47.803285,
        "empresa": "HUGHES",
        "cnpj": 5206385000161,
        "pf-ou-pj": "Pessoa Física",
        "info-tecnologia": [
            {
                "tecnologia": "VSAT",
                "tipo-de-Produto": "INTERNET",
                "meio-de-acesso": "Satélite",
                "quantidade-acesso": 5
            }
        ]
    },
    {
        "cidade": "São Salvador do Tocantins",
        "uf": "TO",
        "latitude": -12.745754,
        "longitude": -48.235157,
        "empresa": "HUGHES",
        "cnpj": 5206385000161,
        "pf-ou-pj": "Pessoa Física",
        "info-tecnologia": [
            {
                "tecnologia": "VSAT",
                "tipo-de-Produto": "INTERNET",
                "meio-de-acesso": "Satélite",
                "quantidade-acesso": 1
            }
        ]
    },
    {
        "cidade": "São Valério",
        "uf": "TO",
        "latitude": null,
        "longitude": null,
        "empresa": "HUGHES",
        "cnpj": 5206385000161,
        "pf-ou-pj": "Pessoa Física",
        "info-tecnologia": [
            {
                "tecnologia": "VSAT",
                "tipo-de-Produto": "INTERNET",
                "meio-de-acesso": "Satélite",
                "quantidade-acesso": 1
            }
        ]
    },
    {
        "cidade": "Taguatinga",
        "uf": "TO",
        "latitude": -12.40263,
        "longitude": -46.436967,
        "empresa": "HUGHES",
        "cnpj": 5206385000161,
        "pf-ou-pj": "Pessoa Física",
        "info-tecnologia": [
            {
                "tecnologia": "VSAT",
                "tipo-de-Produto": "INTERNET",
                "meio-de-acesso": "Satélite",
                "quantidade-acesso": 6
            }
        ]
    },
    {
        "cidade": "Taipas do Tocantins",
        "uf": "TO",
        "latitude": -12.187341,
        "longitude": -46.979681,
        "empresa": "HUGHES",
        "cnpj": 5206385000161,
        "pf-ou-pj": "Pessoa Física",
        "info-tecnologia": [
            {
                "tecnologia": "VSAT",
                "tipo-de-Produto": "INTERNET",
                "meio-de-acesso": "Satélite",
                "quantidade-acesso": 1
            }
        ]
    },
    {
        "cidade": "Tocantínia",
        "uf": "TO",
        "latitude": -9.563198,
        "longitude": -48.374104,
        "empresa": "HUGHES",
        "cnpj": 5206385000161,
        "pf-ou-pj": "Pessoa Física",
        "info-tecnologia": [
            {
                "tecnologia": "VSAT",
                "tipo-de-Produto": "INTERNET",
                "meio-de-acesso": "Satélite",
                "quantidade-acesso": 49
            }
        ]
    },
    {
        "cidade": "Tupirama",
        "uf": "TO",
        "latitude": -8.971676,
        "longitude": -48.188324,
        "empresa": "HUGHES",
        "cnpj": 5206385000161,
        "pf-ou-pj": "Pessoa Física",
        "info-tecnologia": [
            {
                "tecnologia": "VSAT",
                "tipo-de-Produto": "INTERNET",
                "meio-de-acesso": "Satélite",
                "quantidade-acesso": 15
            }
        ]
    },
    {
        "cidade": "Tupiratins",
        "uf": "TO",
        "latitude": -8.39388,
        "longitude": -48.127744,
        "empresa": "HUGHES",
        "cnpj": 5206385000161,
        "pf-ou-pj": "Pessoa Física",
        "info-tecnologia": [
            {
                "tecnologia": "VSAT",
                "tipo-de-Produto": "INTERNET",
                "meio-de-acesso": "Satélite",
                "quantidade-acesso": 2
            }
        ]
    },
    {
        "cidade": "Wanderlândia",
        "uf": "TO",
        "latitude": -6.852742,
        "longitude": -47.96014,
        "empresa": "HUGHES",
        "cnpj": 5206385000161,
        "pf-ou-pj": "Pessoa Física",
        "info-tecnologia": [
            {
                "tecnologia": "VSAT",
                "tipo-de-Produto": "INTERNET",
                "meio-de-acesso": "Satélite",
                "quantidade-acesso": 28
            }
        ]
    },
    {
        "cidade": "Xambioá",
        "uf": "TO",
        "latitude": -6.414104,
        "longitude": -48.531974,
        "empresa": "HUGHES",
        "cnpj": 5206385000161,
        "pf-ou-pj": "Pessoa Física",
        "info-tecnologia": [
            {
                "tecnologia": "VSAT",
                "tipo-de-Produto": "INTERNET",
                "meio-de-acesso": "Satélite",
                "quantidade-acesso": 14
            }
        ]
    }
]