[
    {
        "cidade": "Abreu e Lima",
        "uf": "PE",
        "latitude": -7.900719,
        "longitude": -34.898389,
        "empresa": "BRISANET",
        "cnpj": 4601397000128,
        "pf-ou-pj": "Pessoa Física",
        "info-tecnologia": [
            {
                "tecnologia": "FTTH",
                "tipo-de-Produto": "INTERNET",
                "meio-de-acesso": "Fibra",
                "quantidade-acesso": 1154
            }
        ]
    },
    {
        "cidade": "Araripina",
        "uf": "PE",
        "latitude": -7.570733,
        "longitude": -40.494025,
        "empresa": "BRISANET",
        "cnpj": 4601397000128,
        "pf-ou-pj": "Pessoa Física",
        "info-tecnologia": [
            {
                "tecnologia": "FTTH",
                "tipo-de-Produto": "INTERNET",
                "meio-de-acesso": "Fibra",
                "quantidade-acesso": 1118
            }
        ]
    },
    {
        "cidade": "Arcoverde",
        "uf": "PE",
        "latitude": -8.415192,
        "longitude": -37.057748,
        "empresa": "BRISANET",
        "cnpj": 4601397000128,
        "pf-ou-pj": "Pessoa Física",
        "info-tecnologia": [
            {
                "tecnologia": "FTTH",
                "tipo-de-Produto": "INTERNET",
                "meio-de-acesso": "Fibra",
                "quantidade-acesso": 4453
            }
        ]
    },
    {
        "cidade": "Belo Jardim",
        "uf": "PE",
        "latitude": -8.3313,
        "longitude": -36.425822,
        "empresa": "BRISANET",
        "cnpj": 4601397000128,
        "pf-ou-pj": "Pessoa Física",
        "info-tecnologia": [
            {
                "tecnologia": "FTTH",
                "tipo-de-Produto": "INTERNET",
                "meio-de-acesso": "Fibra",
                "quantidade-acesso": 5933
            }
        ]
    },
    {
        "cidade": "Bezerros",
        "uf": "PE",
        "latitude": -8.232796,
        "longitude": -35.795995,
        "empresa": "BRISANET",
        "cnpj": 4601397000128,
        "pf-ou-pj": "Pessoa Física",
        "info-tecnologia": [
            {
                "tecnologia": "FTTH",
                "tipo-de-Produto": "INTERNET",
                "meio-de-acesso": "Fibra",
                "quantidade-acesso": 3066
            }
        ]
    },
    {
        "cidade": "Brejo da Madre de Deus",
        "uf": "PE",
        "latitude": -8.149333,
        "longitude": -36.374142,
        "empresa": "BRISANET",
        "cnpj": 4601397000128,
        "pf-ou-pj": "Pessoa Física",
        "info-tecnologia": [
            {
                "tecnologia": "FTTH",
                "tipo-de-Produto": "INTERNET",
                "meio-de-acesso": "Fibra",
                "quantidade-acesso": 222
            }
        ]
    },
    {
        "cidade": "Cabo de Santo Agostinho",
        "uf": "PE",
        "latitude": -8.28218,
        "longitude": -35.025293,
        "empresa": "BRISANET",
        "cnpj": 4601397000128,
        "pf-ou-pj": "Pessoa Física",
        "info-tecnologia": [
            {
                "tecnologia": "FTTH",
                "tipo-de-Produto": "INTERNET",
                "meio-de-acesso": "Fibra",
                "quantidade-acesso": 6359
            }
        ]
    },
    {
        "cidade": "Camaragibe",
        "uf": "PE",
        "latitude": -8.023505,
        "longitude": -34.978152,
        "empresa": "BRISANET",
        "cnpj": 4601397000128,
        "pf-ou-pj": "Pessoa Física",
        "info-tecnologia": [
            {
                "tecnologia": "FTTH",
                "tipo-de-Produto": "INTERNET",
                "meio-de-acesso": "Fibra",
                "quantidade-acesso": 2555
            }
        ]
    },
    {
        "cidade": "Caruaru",
        "uf": "PE",
        "latitude": -8.284547,
        "longitude": -35.969863,
        "empresa": "BRISANET",
        "cnpj": 4601397000128,
        "pf-ou-pj": "Pessoa Física",
        "info-tecnologia": [
            {
                "tecnologia": "FTTH",
                "tipo-de-Produto": "INTERNET",
                "meio-de-acesso": "Fibra",
                "quantidade-acesso": 23643
            }
        ]
    },
    {
        "cidade": "Custódia",
        "uf": "PE",
        "latitude": -8.08546,
        "longitude": -37.64428,
        "empresa": "BRISANET",
        "cnpj": 4601397000128,
        "pf-ou-pj": "Pessoa Física",
        "info-tecnologia": [
            {
                "tecnologia": "FTTH",
                "tipo-de-Produto": "INTERNET",
                "meio-de-acesso": "Fibra",
                "quantidade-acesso": 1365
            }
        ]
    },
    {
        "cidade": "Escada",
        "uf": "PE",
        "latitude": -8.356717,
        "longitude": -35.224082,
        "empresa": "BRISANET",
        "cnpj": 4601397000128,
        "pf-ou-pj": "Pessoa Física",
        "info-tecnologia": [
            {
                "tecnologia": "FTTH",
                "tipo-de-Produto": "INTERNET",
                "meio-de-acesso": "Fibra",
                "quantidade-acesso": 1511
            }
        ]
    },
    {
        "cidade": "Garanhuns",
        "uf": "PE",
        "latitude": -8.882434,
        "longitude": -36.496567,
        "empresa": "BRISANET",
        "cnpj": 4601397000128,
        "pf-ou-pj": "Pessoa Física",
        "info-tecnologia": [
            {
                "tecnologia": "FTTH",
                "tipo-de-Produto": "INTERNET",
                "meio-de-acesso": "Fibra",
                "quantidade-acesso": 2583
            }
        ]
    },
    {
        "cidade": "Gravatá",
        "uf": "PE",
        "latitude": -8.211184,
        "longitude": -35.567458,
        "empresa": "BRISANET",
        "cnpj": 4601397000128,
        "pf-ou-pj": "Pessoa Física",
        "info-tecnologia": [
            {
                "tecnologia": "FTTH",
                "tipo-de-Produto": "INTERNET",
                "meio-de-acesso": "Fibra",
                "quantidade-acesso": 1961
            }
        ]
    },
    {
        "cidade": "Igarassu",
        "uf": "PE",
        "latitude": -7.82881,
        "longitude": -34.901306,
        "empresa": "BRISANET",
        "cnpj": 4601397000128,
        "pf-ou-pj": "Pessoa Física",
        "info-tecnologia": [
            {
                "tecnologia": "FTTH",
                "tipo-de-Produto": "INTERNET",
                "meio-de-acesso": "Fibra",
                "quantidade-acesso": 1790
            }
        ]
    },
    {
        "cidade": "Jaboatão dos Guararapes",
        "uf": "PE",
        "latitude": -8.112982,
        "longitude": -35.014959,
        "empresa": "BRISANET",
        "cnpj": 4601397000128,
        "pf-ou-pj": "Pessoa Física",
        "info-tecnologia": [
            {
                "tecnologia": "FTTH",
                "tipo-de-Produto": "INTERNET",
                "meio-de-acesso": "Fibra",
                "quantidade-acesso": 1058
            }
        ]
    },
    {
        "cidade": "Limoeiro",
        "uf": "PE",
        "latitude": -7.872599,
        "longitude": -35.440154,
        "empresa": "BRISANET",
        "cnpj": 4601397000128,
        "pf-ou-pj": "Pessoa Física",
        "info-tecnologia": [
            {
                "tecnologia": "FTTH",
                "tipo-de-Produto": "INTERNET",
                "meio-de-acesso": "Fibra",
                "quantidade-acesso": 793
            }
        ]
    },
    {
        "cidade": "Olinda",
        "uf": "PE",
        "latitude": -8.010166,
        "longitude": -34.854504,
        "empresa": "BRISANET",
        "cnpj": 4601397000128,
        "pf-ou-pj": "Pessoa Física",
        "info-tecnologia": [
            {
                "tecnologia": "FTTH",
                "tipo-de-Produto": "INTERNET",
                "meio-de-acesso": "Fibra",
                "quantidade-acesso": 2453
            }
        ]
    },
    {
        "cidade": "Ouricuri",
        "uf": "PE",
        "latitude": -7.879184,
        "longitude": -40.079983,
        "empresa": "BRISANET",
        "cnpj": 4601397000128,
        "pf-ou-pj": "Pessoa Física",
        "info-tecnologia": [
            {
                "tecnologia": "FTTH",
                "tipo-de-Produto": "INTERNET",
                "meio-de-acesso": "Fibra",
                "quantidade-acesso": 921
            }
        ]
    },
    {
        "cidade": "Paulista",
        "uf": "PE",
        "latitude": -7.934007,
        "longitude": -34.868407,
        "empresa": "BRISANET",
        "cnpj": 4601397000128,
        "pf-ou-pj": "Pessoa Física",
        "info-tecnologia": [
            {
                "tecnologia": "FTTH",
                "tipo-de-Produto": "INTERNET",
                "meio-de-acesso": "Fibra",
                "quantidade-acesso": 3319
            }
        ]
    },
    {
        "cidade": "Pesqueira",
        "uf": "PE",
        "latitude": -8.357974,
        "longitude": -36.697783,
        "empresa": "BRISANET",
        "cnpj": 4601397000128,
        "pf-ou-pj": "Pessoa Física",
        "info-tecnologia": [
            {
                "tecnologia": "FTTH",
                "tipo-de-Produto": "INTERNET",
                "meio-de-acesso": "Fibra",
                "quantidade-acesso": 4179
            }
        ]
    },
    {
        "cidade": "Petrolina",
        "uf": "PE",
        "latitude": -9.388662,
        "longitude": -40.502731,
        "empresa": "BRISANET",
        "cnpj": 4601397000128,
        "pf-ou-pj": "Pessoa Física",
        "info-tecnologia": [
            {
                "tecnologia": "FTTH",
                "tipo-de-Produto": "INTERNET",
                "meio-de-acesso": "Fibra",
                "quantidade-acesso": 3446
            }
        ]
    },
    {
        "cidade": "Quipapá",
        "uf": "PE",
        "latitude": -8.811752,
        "longitude": -36.013665,
        "empresa": "BRISANET",
        "cnpj": 4601397000128,
        "pf-ou-pj": "Pessoa Física",
        "info-tecnologia": [
            {
                "tecnologia": "ETHERNET",
                "tipo-de-Produto": "INTERNET",
                "meio-de-acesso": "Rádio",
                "quantidade-acesso": 1
            }
        ]
    },
    {
        "cidade": "Recife",
        "uf": "PE",
        "latitude": -8.046658,
        "longitude": -34.877065,
        "empresa": "BRISANET",
        "cnpj": 4601397000128,
        "pf-ou-pj": "Pessoa Física",
        "info-tecnologia": [
            {
                "tecnologia": "FTTH",
                "tipo-de-Produto": "INTERNET",
                "meio-de-acesso": "Fibra",
                "quantidade-acesso": 5315
            }
        ]
    },
    {
        "cidade": "Salgueiro",
        "uf": "PE",
        "latitude": -8.073734,
        "longitude": -39.12469,
        "empresa": "BRISANET",
        "cnpj": 4601397000128,
        "pf-ou-pj": "Pessoa Física",
        "info-tecnologia": [
            {
                "tecnologia": "FTTH",
                "tipo-de-Produto": "INTERNET",
                "meio-de-acesso": "Fibra",
                "quantidade-acesso": 2724
            }
        ]
    },
    {
        "cidade": "Santa Cruz do Capibaribe",
        "uf": "PE",
        "latitude": -7.948019,
        "longitude": -36.206092,
        "empresa": "BRISANET",
        "cnpj": 4601397000128,
        "pf-ou-pj": "Pessoa Física",
        "info-tecnologia": [
            {
                "tecnologia": "FTTH",
                "tipo-de-Produto": "INTERNET",
                "meio-de-acesso": "Fibra",
                "quantidade-acesso": 5851
            }
        ]
    },
    {
        "cidade": "Serra Talhada",
        "uf": "PE",
        "latitude": -7.981778,
        "longitude": -38.289034,
        "empresa": "BRISANET",
        "cnpj": 4601397000128,
        "pf-ou-pj": "Pessoa Física",
        "info-tecnologia": [
            {
                "tecnologia": "FTTH",
                "tipo-de-Produto": "INTERNET",
                "meio-de-acesso": "Fibra",
                "quantidade-acesso": 5717
            }
        ]
    },
    {
        "cidade": "Surubim",
        "uf": "PE",
        "latitude": -7.847456,
        "longitude": -35.748102,
        "empresa": "BRISANET",
        "cnpj": 4601397000128,
        "pf-ou-pj": "Pessoa Física",
        "info-tecnologia": [
            {
                "tecnologia": "FTTH",
                "tipo-de-Produto": "INTERNET",
                "meio-de-acesso": "Fibra",
                "quantidade-acesso": 292
            }
        ]
    },
    {
        "cidade": "São Lourenço da Mata",
        "uf": "PE",
        "latitude": -8.00684,
        "longitude": -35.012359,
        "empresa": "BRISANET",
        "cnpj": 4601397000128,
        "pf-ou-pj": "Pessoa Física",
        "info-tecnologia": [
            {
                "tecnologia": "FTTH",
                "tipo-de-Produto": "INTERNET",
                "meio-de-acesso": "Fibra",
                "quantidade-acesso": 2445
            }
        ]
    },
    {
        "cidade": "Toritama",
        "uf": "PE",
        "latitude": -8.009546,
        "longitude": -36.063659,
        "empresa": "BRISANET",
        "cnpj": 4601397000128,
        "pf-ou-pj": "Pessoa Física",
        "info-tecnologia": [
            {
                "tecnologia": "FTTH",
                "tipo-de-Produto": "INTERNET",
                "meio-de-acesso": "Fibra",
                "quantidade-acesso": 3052
            }
        ]
    },
    {
        "cidade": "Vitória de Santo Antão",
        "uf": "PE",
        "latitude": -8.128191,
        "longitude": -35.29762,
        "empresa": "BRISANET",
        "cnpj": 4601397000128,
        "pf-ou-pj": "Pessoa Física",
        "info-tecnologia": [
            {
                "tecnologia": "FTTH",
                "tipo-de-Produto": "INTERNET",
                "meio-de-acesso": "Fibra",
                "quantidade-acesso": 5191
            }
        ]
    }
]