[
    {
        "cidade": "Balneário Camboriú",
        "uf": "SC",
        "latitude": -26.992594,
        "longitude": -48.635152,
        "empresa": "VIVO",
        "pf-ou-pj": "Pessoa Física",
        "tecnologia": "ADSL2",
        "tipo-de-Produto": "INTERNET",
        "meio-de-acesso": "Cabo Metálico"
    },
    {
        "cidade": "Balneário Camboriú",
        "uf": "SC",
        "latitude": -26.992594,
        "longitude": -48.635152,
        "empresa": "VIVO",
        "pf-ou-pj": "Pessoa Física",
        "tecnologia": "FTTH",
        "tipo-de-Produto": "INTERNET",
        "meio-de-acesso": "Fibra"
    },
    {
        "cidade": "Biguaçu",
        "uf": "SC",
        "latitude": -27.496004,
        "longitude": -48.65979,
        "empresa": "VIVO",
        "pf-ou-pj": "Pessoa Física",
        "tecnologia": "ADSL2",
        "tipo-de-Produto": "INTERNET",
        "meio-de-acesso": "Cabo Metálico"
    },
    {
        "cidade": "Biguaçu",
        "uf": "SC",
        "latitude": -27.496004,
        "longitude": -48.65979,
        "empresa": "VIVO",
        "pf-ou-pj": "Pessoa Física",
        "tecnologia": "FTTH",
        "tipo-de-Produto": "INTERNET",
        "meio-de-acesso": "Fibra"
    },
    {
        "cidade": "Blumenau",
        "uf": "SC",
        "latitude": -26.915501,
        "longitude": -49.070904,
        "empresa": "VIVO",
        "pf-ou-pj": "Pessoa Física",
        "tecnologia": "ADSL2",
        "tipo-de-Produto": "INTERNET",
        "meio-de-acesso": "Cabo Metálico"
    },
    {
        "cidade": "Blumenau",
        "uf": "SC",
        "latitude": -26.915501,
        "longitude": -49.070904,
        "empresa": "VIVO",
        "pf-ou-pj": "Pessoa Física",
        "tecnologia": "FTTH",
        "tipo-de-Produto": "INTERNET",
        "meio-de-acesso": "Fibra"
    },
    {
        "cidade": "Brusque",
        "uf": "SC",
        "latitude": -27.097706,
        "longitude": -48.910663,
        "empresa": "VIVO",
        "pf-ou-pj": "Pessoa Física",
        "tecnologia": "ADSL2",
        "tipo-de-Produto": "INTERNET",
        "meio-de-acesso": "Cabo Metálico"
    },
    {
        "cidade": "Brusque",
        "uf": "SC",
        "latitude": -27.097706,
        "longitude": -48.910663,
        "empresa": "VIVO",
        "pf-ou-pj": "Pessoa Física",
        "tecnologia": "FTTH",
        "tipo-de-Produto": "INTERNET",
        "meio-de-acesso": "Fibra"
    },
    {
        "cidade": "Camboriú",
        "uf": "SC",
        "latitude": -27.024078,
        "longitude": -48.650338,
        "empresa": "VIVO",
        "pf-ou-pj": "Pessoa Física",
        "tecnologia": "ADSL2",
        "tipo-de-Produto": "INTERNET",
        "meio-de-acesso": "Cabo Metálico"
    },
    {
        "cidade": "Camboriú",
        "uf": "SC",
        "latitude": -27.024078,
        "longitude": -48.650338,
        "empresa": "VIVO",
        "pf-ou-pj": "Pessoa Física",
        "tecnologia": "FTTH",
        "tipo-de-Produto": "INTERNET",
        "meio-de-acesso": "Fibra"
    },
    {
        "cidade": "Capinzal",
        "uf": "SC",
        "latitude": -27.347295,
        "longitude": -51.605702,
        "empresa": "VIVO",
        "pf-ou-pj": "Pessoa Física",
        "tecnologia": "FTTH",
        "tipo-de-Produto": "INTERNET",
        "meio-de-acesso": "Fibra"
    },
    {
        "cidade": "Chapecó",
        "uf": "SC",
        "latitude": -27.100448,
        "longitude": -52.61519,
        "empresa": "VIVO",
        "pf-ou-pj": "Pessoa Física",
        "tecnologia": "ADSL2",
        "tipo-de-Produto": "INTERNET",
        "meio-de-acesso": "Cabo Metálico"
    },
    {
        "cidade": "Chapecó",
        "uf": "SC",
        "latitude": -27.100448,
        "longitude": -52.61519,
        "empresa": "VIVO",
        "pf-ou-pj": "Pessoa Física",
        "tecnologia": "FTTH",
        "tipo-de-Produto": "INTERNET",
        "meio-de-acesso": "Fibra"
    },
    {
        "cidade": "Concórdia",
        "uf": "SC",
        "latitude": -27.233461,
        "longitude": -52.025962,
        "empresa": "VIVO",
        "pf-ou-pj": "Pessoa Física",
        "tecnologia": "FTTH",
        "tipo-de-Produto": "INTERNET",
        "meio-de-acesso": "Fibra"
    },
    {
        "cidade": "Criciúma",
        "uf": "SC",
        "latitude": -28.672267,
        "longitude": -49.372887,
        "empresa": "VIVO",
        "pf-ou-pj": "Pessoa Física",
        "tecnologia": "ADSL2",
        "tipo-de-Produto": "INTERNET",
        "meio-de-acesso": "Cabo Metálico"
    },
    {
        "cidade": "Criciúma",
        "uf": "SC",
        "latitude": -28.672267,
        "longitude": -49.372887,
        "empresa": "VIVO",
        "pf-ou-pj": "Pessoa Física",
        "tecnologia": "FTTH",
        "tipo-de-Produto": "INTERNET",
        "meio-de-acesso": "Fibra"
    },
    {
        "cidade": "Florianópolis",
        "uf": "SC",
        "latitude": -27.594486,
        "longitude": -48.547696,
        "empresa": "VIVO",
        "pf-ou-pj": "Pessoa Física",
        "tecnologia": "ADSL2",
        "tipo-de-Produto": "INTERNET",
        "meio-de-acesso": "Cabo Metálico"
    },
    {
        "cidade": "Florianópolis",
        "uf": "SC",
        "latitude": -27.594486,
        "longitude": -48.547696,
        "empresa": "VIVO",
        "pf-ou-pj": "Pessoa Física",
        "tecnologia": "FTTH",
        "tipo-de-Produto": "INTERNET",
        "meio-de-acesso": "Fibra"
    },
    {
        "cidade": "Fraiburgo",
        "uf": "SC",
        "latitude": -27.023288,
        "longitude": -50.919978,
        "empresa": "VIVO",
        "pf-ou-pj": "Pessoa Física",
        "tecnologia": "FTTH",
        "tipo-de-Produto": "INTERNET",
        "meio-de-acesso": "Fibra"
    },
    {
        "cidade": "Garopaba",
        "uf": "SC",
        "latitude": -28.01856,
        "longitude": -48.619896,
        "empresa": "VIVO",
        "pf-ou-pj": "Pessoa Física",
        "tecnologia": "FTTH",
        "tipo-de-Produto": "INTERNET",
        "meio-de-acesso": "Fibra"
    },
    {
        "cidade": "Gaspar",
        "uf": "SC",
        "latitude": -26.933597,
        "longitude": -48.953428,
        "empresa": "VIVO",
        "pf-ou-pj": "Pessoa Física",
        "tecnologia": "ADSL2",
        "tipo-de-Produto": "INTERNET",
        "meio-de-acesso": "Cabo Metálico"
    },
    {
        "cidade": "Imbituba",
        "uf": "SC",
        "latitude": -28.228367,
        "longitude": -48.665884,
        "empresa": "VIVO",
        "pf-ou-pj": "Pessoa Física",
        "tecnologia": "FTTH",
        "tipo-de-Produto": "INTERNET",
        "meio-de-acesso": "Fibra"
    },
    {
        "cidade": "Indaial",
        "uf": "SC",
        "latitude": -26.899247,
        "longitude": -49.235417,
        "empresa": "VIVO",
        "pf-ou-pj": "Pessoa Física",
        "tecnologia": "ADSL2",
        "tipo-de-Produto": "INTERNET",
        "meio-de-acesso": "Cabo Metálico"
    },
    {
        "cidade": "Itajaí",
        "uf": "SC",
        "latitude": -26.910097,
        "longitude": -48.670475,
        "empresa": "VIVO",
        "pf-ou-pj": "Pessoa Física",
        "tecnologia": "ADSL2",
        "tipo-de-Produto": "INTERNET",
        "meio-de-acesso": "Cabo Metálico"
    },
    {
        "cidade": "Itajaí",
        "uf": "SC",
        "latitude": -26.910097,
        "longitude": -48.670475,
        "empresa": "VIVO",
        "pf-ou-pj": "Pessoa Física",
        "tecnologia": "FTTH",
        "tipo-de-Produto": "INTERNET",
        "meio-de-acesso": "Fibra"
    },
    {
        "cidade": "Içara",
        "uf": "SC",
        "latitude": -28.713206,
        "longitude": -49.308654,
        "empresa": "VIVO",
        "pf-ou-pj": "Pessoa Física",
        "tecnologia": "ADSL2",
        "tipo-de-Produto": "INTERNET",
        "meio-de-acesso": "Cabo Metálico"
    },
    {
        "cidade": "Jaraguá do Sul",
        "uf": "SC",
        "latitude": -26.485083,
        "longitude": -49.07125,
        "empresa": "VIVO",
        "pf-ou-pj": "Pessoa Física",
        "tecnologia": "ADSL2",
        "tipo-de-Produto": "INTERNET",
        "meio-de-acesso": "Cabo Metálico"
    },
    {
        "cidade": "Jaraguá do Sul",
        "uf": "SC",
        "latitude": -26.485083,
        "longitude": -49.07125,
        "empresa": "VIVO",
        "pf-ou-pj": "Pessoa Física",
        "tecnologia": "FTTH",
        "tipo-de-Produto": "INTERNET",
        "meio-de-acesso": "Fibra"
    },
    {
        "cidade": "Joinville",
        "uf": "SC",
        "latitude": -26.304497,
        "longitude": -48.848675,
        "empresa": "VIVO",
        "pf-ou-pj": "Pessoa Física",
        "tecnologia": "ADSL2",
        "tipo-de-Produto": "INTERNET",
        "meio-de-acesso": "Cabo Metálico"
    },
    {
        "cidade": "Joinville",
        "uf": "SC",
        "latitude": -26.304497,
        "longitude": -48.848675,
        "empresa": "VIVO",
        "pf-ou-pj": "Pessoa Física",
        "tecnologia": "FTTH",
        "tipo-de-Produto": "INTERNET",
        "meio-de-acesso": "Fibra"
    },
    {
        "cidade": "Lages",
        "uf": "SC",
        "latitude": -27.814966,
        "longitude": -50.325862,
        "empresa": "VIVO",
        "pf-ou-pj": "Pessoa Física",
        "tecnologia": "ADSL2",
        "tipo-de-Produto": "INTERNET",
        "meio-de-acesso": "Cabo Metálico"
    },
    {
        "cidade": "Lages",
        "uf": "SC",
        "latitude": -27.814966,
        "longitude": -50.325862,
        "empresa": "VIVO",
        "pf-ou-pj": "Pessoa Física",
        "tecnologia": "FTTH",
        "tipo-de-Produto": "INTERNET",
        "meio-de-acesso": "Fibra"
    },
    {
        "cidade": "Mafra",
        "uf": "SC",
        "latitude": -26.115935,
        "longitude": -49.808624,
        "empresa": "VIVO",
        "pf-ou-pj": "Pessoa Física",
        "tecnologia": "FTTH",
        "tipo-de-Produto": "INTERNET",
        "meio-de-acesso": "Fibra"
    },
    {
        "cidade": "Navegantes",
        "uf": "SC",
        "latitude": -26.894293,
        "longitude": -48.654593,
        "empresa": "VIVO",
        "pf-ou-pj": "Pessoa Física",
        "tecnologia": "FTTH",
        "tipo-de-Produto": "INTERNET",
        "meio-de-acesso": "Fibra"
    },
    {
        "cidade": "Palhoça",
        "uf": "SC",
        "latitude": -27.645518,
        "longitude": -48.669661,
        "empresa": "VIVO",
        "pf-ou-pj": "Pessoa Física",
        "tecnologia": "ADSL2",
        "tipo-de-Produto": "INTERNET",
        "meio-de-acesso": "Cabo Metálico"
    },
    {
        "cidade": "Palhoça",
        "uf": "SC",
        "latitude": -27.645518,
        "longitude": -48.669661,
        "empresa": "VIVO",
        "pf-ou-pj": "Pessoa Física",
        "tecnologia": "FTTH",
        "tipo-de-Produto": "INTERNET",
        "meio-de-acesso": "Fibra"
    },
    {
        "cidade": "Pomerode",
        "uf": "SC",
        "latitude": -26.738355,
        "longitude": -49.178456,
        "empresa": "VIVO",
        "pf-ou-pj": "Pessoa Física",
        "tecnologia": "FTTH",
        "tipo-de-Produto": "INTERNET",
        "meio-de-acesso": "Fibra"
    },
    {
        "cidade": "Rio do Sul",
        "uf": "SC",
        "latitude": -27.215596,
        "longitude": -49.643016,
        "empresa": "VIVO",
        "pf-ou-pj": "Pessoa Física",
        "tecnologia": "FTTH",
        "tipo-de-Produto": "INTERNET",
        "meio-de-acesso": "Fibra"
    },
    {
        "cidade": "São Bento do Sul",
        "uf": "SC",
        "latitude": -26.249542,
        "longitude": -49.383077,
        "empresa": "VIVO",
        "pf-ou-pj": "Pessoa Física",
        "tecnologia": "FTTH",
        "tipo-de-Produto": "INTERNET",
        "meio-de-acesso": "Fibra"
    },
    {
        "cidade": "São José",
        "uf": "SC",
        "latitude": -27.613577,
        "longitude": -48.636607,
        "empresa": "VIVO",
        "pf-ou-pj": "Pessoa Física",
        "tecnologia": "ADSL2",
        "tipo-de-Produto": "INTERNET",
        "meio-de-acesso": "Cabo Metálico"
    },
    {
        "cidade": "São José",
        "uf": "SC",
        "latitude": -27.613577,
        "longitude": -48.636607,
        "empresa": "VIVO",
        "pf-ou-pj": "Pessoa Física",
        "tecnologia": "FTTH",
        "tipo-de-Produto": "INTERNET",
        "meio-de-acesso": "Fibra"
    },
    {
        "cidade": "Tubarão",
        "uf": "SC",
        "latitude": -28.47131,
        "longitude": -49.014371,
        "empresa": "VIVO",
        "pf-ou-pj": "Pessoa Física",
        "tecnologia": "ADSL2",
        "tipo-de-Produto": "INTERNET",
        "meio-de-acesso": "Cabo Metálico"
    }
]