[
    {
        "cidade": "Altamira",
        "uf": "PA",
        "latitude": -3.204065,
        "longitude": -52.209961,
        "empresa": "VIVO",
        "cnpj": 2558157000162,
        "pf-ou-pj": "Pessoa Física",
        "info-tecnologia": [
            {
                "tecnologia": "FTTH",
                "tipo-de-Produto": "INTERNET",
                "meio-de-acesso": "Fibra",
                "quantidade-acesso": 1430
            }
        ]
    },
    {
        "cidade": "Belém",
        "uf": "PA",
        "latitude": -1.455396,
        "longitude": -48.489756,
        "empresa": "VIVO",
        "cnpj": 2558157000162,
        "pf-ou-pj": "Pessoa Física",
        "info-tecnologia": [
            {
                "tecnologia": "ADSL2",
                "tipo-de-Produto": "INTERNET",
                "meio-de-acesso": "Cabo Metálico",
                "quantidade-acesso": 1
            },
            {
                "tecnologia": "FTTH",
                "tipo-de-Produto": "INTERNET",
                "meio-de-acesso": "Fibra",
                "quantidade-acesso": 36539
            }
        ]
    },
    {
        "cidade": "Canaã dos Carajás",
        "uf": "PA",
        "latitude": -6.496594,
        "longitude": -49.877612,
        "empresa": "VIVO",
        "cnpj": 2558157000162,
        "pf-ou-pj": "Pessoa Física",
        "info-tecnologia": [
            {
                "tecnologia": "FTTH",
                "tipo-de-Produto": "INTERNET",
                "meio-de-acesso": "Fibra",
                "quantidade-acesso": 131
            }
        ]
    },
    {
        "cidade": "Castanhal",
        "uf": "PA",
        "latitude": -1.297971,
        "longitude": -47.916742,
        "empresa": "VIVO",
        "cnpj": 2558157000162,
        "pf-ou-pj": "Pessoa Física",
        "info-tecnologia": [
            {
                "tecnologia": "FTTH",
                "tipo-de-Produto": "INTERNET",
                "meio-de-acesso": "Fibra",
                "quantidade-acesso": 466
            }
        ]
    },
    {
        "cidade": "Paragominas",
        "uf": "PA",
        "latitude": -3.002116,
        "longitude": -47.352692,
        "empresa": "VIVO",
        "cnpj": 2558157000162,
        "pf-ou-pj": "Pessoa Física",
        "info-tecnologia": [
            {
                "tecnologia": "FTTH",
                "tipo-de-Produto": "INTERNET",
                "meio-de-acesso": "Fibra",
                "quantidade-acesso": 1507
            }
        ]
    },
    {
        "cidade": "Parauapebas",
        "uf": "PA",
        "latitude": -6.067812,
        "longitude": -49.903733,
        "empresa": "VIVO",
        "cnpj": 2558157000162,
        "pf-ou-pj": "Pessoa Física",
        "info-tecnologia": [
            {
                "tecnologia": "FTTH",
                "tipo-de-Produto": "INTERNET",
                "meio-de-acesso": "Fibra",
                "quantidade-acesso": 584
            }
        ]
    },
    {
        "cidade": "Redenção",
        "uf": "PA",
        "latitude": -8.025294,
        "longitude": -50.031687,
        "empresa": "VIVO",
        "cnpj": 2558157000162,
        "pf-ou-pj": "Pessoa Física",
        "info-tecnologia": [
            {
                "tecnologia": "FTTH",
                "tipo-de-Produto": "INTERNET",
                "meio-de-acesso": "Fibra",
                "quantidade-acesso": 640
            }
        ]
    },
    {
        "cidade": "Tucuruí",
        "uf": "PA",
        "latitude": -3.765702,
        "longitude": -49.677336,
        "empresa": "VIVO",
        "cnpj": 2558157000162,
        "pf-ou-pj": "Pessoa Física",
        "info-tecnologia": [
            {
                "tecnologia": "FTTH",
                "tipo-de-Produto": "INTERNET",
                "meio-de-acesso": "Fibra",
                "quantidade-acesso": 241
            }
        ]
    }
]