[
    {
        "cidade": "Agricolândia",
        "uf": "PI",
        "latitude": -5.796763,
        "longitude": -42.666371,
        "empresa": "OI",
        "pf-ou-pj": "Pessoa Física",
        "tecnologia": "ADSL1",
        "tipo-de-Produto": "INTERNET",
        "meio-de-acesso": "Cabo Metálico"
    },
    {
        "cidade": "Alegrete do Piauí",
        "uf": "PI",
        "latitude": -7.241964,
        "longitude": -40.856587,
        "empresa": "OI",
        "pf-ou-pj": "Pessoa Física",
        "tecnologia": "ADSL2",
        "tipo-de-Produto": "INTERNET",
        "meio-de-acesso": "Cabo Metálico"
    },
    {
        "cidade": "Alto Longá",
        "uf": "PI",
        "latitude": -5.256341,
        "longitude": -42.209582,
        "empresa": "OI",
        "pf-ou-pj": "Pessoa Física",
        "tecnologia": "ADSL1",
        "tipo-de-Produto": "INTERNET",
        "meio-de-acesso": "Cabo Metálico"
    },
    {
        "cidade": "Altos",
        "uf": "PI",
        "latitude": -5.038879,
        "longitude": -42.46116,
        "empresa": "OI",
        "pf-ou-pj": "Pessoa Física",
        "tecnologia": "ADSL1",
        "tipo-de-Produto": "INTERNET",
        "meio-de-acesso": "Cabo Metálico"
    },
    {
        "cidade": "Altos",
        "uf": "PI",
        "latitude": -5.038879,
        "longitude": -42.46116,
        "empresa": "OI",
        "pf-ou-pj": "Pessoa Física",
        "tecnologia": "ADSL2",
        "tipo-de-Produto": "INTERNET",
        "meio-de-acesso": "Cabo Metálico"
    },
    {
        "cidade": "Amarante",
        "uf": "PI",
        "latitude": -6.243045,
        "longitude": -42.843343,
        "empresa": "OI",
        "pf-ou-pj": "Pessoa Física",
        "tecnologia": "ADSL1",
        "tipo-de-Produto": "INTERNET",
        "meio-de-acesso": "Cabo Metálico"
    },
    {
        "cidade": "Amarante",
        "uf": "PI",
        "latitude": -6.243045,
        "longitude": -42.843343,
        "empresa": "OI",
        "pf-ou-pj": "Pessoa Física",
        "tecnologia": "ADSL2",
        "tipo-de-Produto": "INTERNET",
        "meio-de-acesso": "Cabo Metálico"
    },
    {
        "cidade": "Angical do Piauí",
        "uf": "PI",
        "latitude": -6.087864,
        "longitude": -42.740047,
        "empresa": "OI",
        "pf-ou-pj": "Pessoa Física",
        "tecnologia": "ADSL2",
        "tipo-de-Produto": "INTERNET",
        "meio-de-acesso": "Cabo Metálico"
    },
    {
        "cidade": "Anísio de Abreu",
        "uf": "PI",
        "latitude": -9.185643,
        "longitude": -43.04941,
        "empresa": "OI",
        "pf-ou-pj": "Pessoa Física",
        "tecnologia": "ADSL1",
        "tipo-de-Produto": "INTERNET",
        "meio-de-acesso": "Cabo Metálico"
    },
    {
        "cidade": "Aroazes",
        "uf": "PI",
        "latitude": -6.110221,
        "longitude": -41.78218,
        "empresa": "OI",
        "pf-ou-pj": "Pessoa Física",
        "tecnologia": "ADSL1",
        "tipo-de-Produto": "INTERNET",
        "meio-de-acesso": "Cabo Metálico"
    },
    {
        "cidade": "Arraial",
        "uf": "PI",
        "latitude": -6.650753,
        "longitude": -42.541809,
        "empresa": "OI",
        "pf-ou-pj": "Pessoa Física",
        "tecnologia": "ADSL1",
        "tipo-de-Produto": "INTERNET",
        "meio-de-acesso": "Cabo Metálico"
    },
    {
        "cidade": "Avelino Lopes",
        "uf": "PI",
        "latitude": -10.134487,
        "longitude": -43.956305,
        "empresa": "OI",
        "pf-ou-pj": "Pessoa Física",
        "tecnologia": "ADSL1",
        "tipo-de-Produto": "INTERNET",
        "meio-de-acesso": "Cabo Metálico"
    },
    {
        "cidade": "Baixa Grande do Ribeiro",
        "uf": "PI",
        "latitude": -7.849031,
        "longitude": -45.218977,
        "empresa": "OI",
        "pf-ou-pj": "Pessoa Física",
        "tecnologia": "ADSL1",
        "tipo-de-Produto": "INTERNET",
        "meio-de-acesso": "Cabo Metálico"
    },
    {
        "cidade": "Barras",
        "uf": "PI",
        "latitude": -4.244675,
        "longitude": -42.292161,
        "empresa": "OI",
        "pf-ou-pj": "Pessoa Física",
        "tecnologia": "ADSL1",
        "tipo-de-Produto": "INTERNET",
        "meio-de-acesso": "Cabo Metálico"
    },
    {
        "cidade": "Barras",
        "uf": "PI",
        "latitude": -4.244675,
        "longitude": -42.292161,
        "empresa": "OI",
        "pf-ou-pj": "Pessoa Física",
        "tecnologia": "ADSL2",
        "tipo-de-Produto": "INTERNET",
        "meio-de-acesso": "Cabo Metálico"
    },
    {
        "cidade": "Barreiras do Piauí",
        "uf": "PI",
        "latitude": -9.929605,
        "longitude": -45.470172,
        "empresa": "OI",
        "pf-ou-pj": "Pessoa Física",
        "tecnologia": "ADSL1",
        "tipo-de-Produto": "INTERNET",
        "meio-de-acesso": "Cabo Metálico"
    },
    {
        "cidade": "Batalha",
        "uf": "PI",
        "latitude": -4.0223,
        "longitude": -42.07868,
        "empresa": "OI",
        "pf-ou-pj": "Pessoa Física",
        "tecnologia": "ADSL1",
        "tipo-de-Produto": "INTERNET",
        "meio-de-acesso": "Cabo Metálico"
    },
    {
        "cidade": "Batalha",
        "uf": "PI",
        "latitude": -4.0223,
        "longitude": -42.07868,
        "empresa": "OI",
        "pf-ou-pj": "Pessoa Física",
        "tecnologia": "ADSL2",
        "tipo-de-Produto": "INTERNET",
        "meio-de-acesso": "Cabo Metálico"
    },
    {
        "cidade": "Beneditinos",
        "uf": "PI",
        "latitude": -5.456758,
        "longitude": -42.36382,
        "empresa": "OI",
        "pf-ou-pj": "Pessoa Física",
        "tecnologia": "ADSL1",
        "tipo-de-Produto": "INTERNET",
        "meio-de-acesso": "Cabo Metálico"
    },
    {
        "cidade": "Beneditinos",
        "uf": "PI",
        "latitude": -5.456758,
        "longitude": -42.36382,
        "empresa": "OI",
        "pf-ou-pj": "Pessoa Física",
        "tecnologia": "FTTH",
        "tipo-de-Produto": "INTERNET",
        "meio-de-acesso": "Fibra"
    },
    {
        "cidade": "Bertolínia",
        "uf": "PI",
        "latitude": -7.633377,
        "longitude": -43.949778,
        "empresa": "OI",
        "pf-ou-pj": "Pessoa Física",
        "tecnologia": "ADSL1",
        "tipo-de-Produto": "INTERNET",
        "meio-de-acesso": "Cabo Metálico"
    },
    {
        "cidade": "Betânia do Piauí",
        "uf": "PI",
        "latitude": -8.143761,
        "longitude": -40.79891,
        "empresa": "OI",
        "pf-ou-pj": "Pessoa Física",
        "tecnologia": "ADSL1",
        "tipo-de-Produto": "INTERNET",
        "meio-de-acesso": "Cabo Metálico"
    },
    {
        "cidade": "Bom Jesus",
        "uf": "PI",
        "latitude": -9.071239,
        "longitude": -44.358951,
        "empresa": "OI",
        "pf-ou-pj": "Pessoa Física",
        "tecnologia": "ADSL1",
        "tipo-de-Produto": "INTERNET",
        "meio-de-acesso": "Cabo Metálico"
    },
    {
        "cidade": "Bom Jesus",
        "uf": "PI",
        "latitude": -9.071239,
        "longitude": -44.358951,
        "empresa": "OI",
        "pf-ou-pj": "Pessoa Física",
        "tecnologia": "ADSL2",
        "tipo-de-Produto": "INTERNET",
        "meio-de-acesso": "Cabo Metálico"
    },
    {
        "cidade": "Brejo do Piauí",
        "uf": "PI",
        "latitude": -8.20314,
        "longitude": -42.822917,
        "empresa": "OI",
        "pf-ou-pj": "Pessoa Física",
        "tecnologia": "ADSL1",
        "tipo-de-Produto": "INTERNET",
        "meio-de-acesso": "Cabo Metálico"
    },
    {
        "cidade": "Buriti dos Lopes",
        "uf": "PI",
        "latitude": -3.182592,
        "longitude": -41.869481,
        "empresa": "OI",
        "pf-ou-pj": "Pessoa Física",
        "tecnologia": "ADSL1",
        "tipo-de-Produto": "INTERNET",
        "meio-de-acesso": "Cabo Metálico"
    },
    {
        "cidade": "Buriti dos Lopes",
        "uf": "PI",
        "latitude": -3.182592,
        "longitude": -41.869481,
        "empresa": "OI",
        "pf-ou-pj": "Pessoa Física",
        "tecnologia": "ADSL2",
        "tipo-de-Produto": "INTERNET",
        "meio-de-acesso": "Cabo Metálico"
    },
    {
        "cidade": "Cajazeiras do Piauí",
        "uf": "PI",
        "latitude": -6.796667,
        "longitude": -42.390278,
        "empresa": "OI",
        "pf-ou-pj": "Pessoa Física",
        "tecnologia": "ADSL1",
        "tipo-de-Produto": "INTERNET",
        "meio-de-acesso": "Cabo Metálico"
    },
    {
        "cidade": "Campinas do Piauí",
        "uf": "PI",
        "latitude": -7.659299,
        "longitude": -41.877487,
        "empresa": "OI",
        "pf-ou-pj": "Pessoa Física",
        "tecnologia": "ADSL1",
        "tipo-de-Produto": "INTERNET",
        "meio-de-acesso": "Cabo Metálico"
    },
    {
        "cidade": "Campo Grande do Piauí",
        "uf": "PI",
        "latitude": -7.128274,
        "longitude": -41.031486,
        "empresa": "OI",
        "pf-ou-pj": "Pessoa Física",
        "tecnologia": "ADSL1",
        "tipo-de-Produto": "INTERNET",
        "meio-de-acesso": "Cabo Metálico"
    },
    {
        "cidade": "Campo Grande do Piauí",
        "uf": "PI",
        "latitude": -7.128274,
        "longitude": -41.031486,
        "empresa": "OI",
        "pf-ou-pj": "Pessoa Física",
        "tecnologia": "ADSL2",
        "tipo-de-Produto": "INTERNET",
        "meio-de-acesso": "Cabo Metálico"
    },
    {
        "cidade": "Campo Maior",
        "uf": "PI",
        "latitude": -4.821697,
        "longitude": -42.164124,
        "empresa": "OI",
        "pf-ou-pj": "Pessoa Física",
        "tecnologia": "ADSL1",
        "tipo-de-Produto": "INTERNET",
        "meio-de-acesso": "Cabo Metálico"
    },
    {
        "cidade": "Campo Maior",
        "uf": "PI",
        "latitude": -4.821697,
        "longitude": -42.164124,
        "empresa": "OI",
        "pf-ou-pj": "Pessoa Física",
        "tecnologia": "ADSL2",
        "tipo-de-Produto": "INTERNET",
        "meio-de-acesso": "Cabo Metálico"
    },
    {
        "cidade": "Canto do Buriti",
        "uf": "PI",
        "latitude": -8.111101,
        "longitude": -42.951721,
        "empresa": "OI",
        "pf-ou-pj": "Pessoa Física",
        "tecnologia": "ADSL1",
        "tipo-de-Produto": "INTERNET",
        "meio-de-acesso": "Cabo Metálico"
    },
    {
        "cidade": "Canto do Buriti",
        "uf": "PI",
        "latitude": -8.111101,
        "longitude": -42.951721,
        "empresa": "OI",
        "pf-ou-pj": "Pessoa Física",
        "tecnologia": "ADSL2",
        "tipo-de-Produto": "INTERNET",
        "meio-de-acesso": "Cabo Metálico"
    },
    {
        "cidade": "Capitão Gervásio Oliveira",
        "uf": "PI",
        "latitude": -8.496548,
        "longitude": -41.813973,
        "empresa": "OI",
        "pf-ou-pj": "Pessoa Física",
        "tecnologia": "ADSL1",
        "tipo-de-Produto": "INTERNET",
        "meio-de-acesso": "Cabo Metálico"
    },
    {
        "cidade": "Caracol",
        "uf": "PI",
        "latitude": -9.279333,
        "longitude": -43.328998,
        "empresa": "OI",
        "pf-ou-pj": "Pessoa Física",
        "tecnologia": "ADSL1",
        "tipo-de-Produto": "INTERNET",
        "meio-de-acesso": "Cabo Metálico"
    },
    {
        "cidade": "Caraúbas do Piauí",
        "uf": "PI",
        "latitude": -3.475249,
        "longitude": -41.842517,
        "empresa": "OI",
        "pf-ou-pj": "Pessoa Física",
        "tecnologia": "ADSL2",
        "tipo-de-Produto": "INTERNET",
        "meio-de-acesso": "Cabo Metálico"
    },
    {
        "cidade": "Cocal",
        "uf": "PI",
        "latitude": -3.472792,
        "longitude": -41.554623,
        "empresa": "OI",
        "pf-ou-pj": "Pessoa Física",
        "tecnologia": "ADSL2",
        "tipo-de-Produto": "INTERNET",
        "meio-de-acesso": "Cabo Metálico"
    },
    {
        "cidade": "Cocal de Telha",
        "uf": "PI",
        "latitude": -4.557098,
        "longitude": -41.958668,
        "empresa": "OI",
        "pf-ou-pj": "Pessoa Física",
        "tecnologia": "ADSL2",
        "tipo-de-Produto": "INTERNET",
        "meio-de-acesso": "Cabo Metálico"
    },
    {
        "cidade": "Colônia do Gurguéia",
        "uf": "PI",
        "latitude": -8.183697,
        "longitude": -43.793999,
        "empresa": "OI",
        "pf-ou-pj": "Pessoa Física",
        "tecnologia": "ADSL1",
        "tipo-de-Produto": "INTERNET",
        "meio-de-acesso": "Cabo Metálico"
    },
    {
        "cidade": "Colônia do Piauí",
        "uf": "PI",
        "latitude": -7.226512,
        "longitude": -42.175555,
        "empresa": "OI",
        "pf-ou-pj": "Pessoa Física",
        "tecnologia": "ADSL1",
        "tipo-de-Produto": "INTERNET",
        "meio-de-acesso": "Cabo Metálico"
    },
    {
        "cidade": "Conceição do Canindé",
        "uf": "PI",
        "latitude": -7.876378,
        "longitude": -41.594193,
        "empresa": "OI",
        "pf-ou-pj": "Pessoa Física",
        "tecnologia": "ADSL1",
        "tipo-de-Produto": "INTERNET",
        "meio-de-acesso": "Cabo Metálico"
    },
    {
        "cidade": "Coronel José Dias",
        "uf": "PI",
        "latitude": -8.813971,
        "longitude": -42.523195,
        "empresa": "OI",
        "pf-ou-pj": "Pessoa Física",
        "tecnologia": "ADSL1",
        "tipo-de-Produto": "INTERNET",
        "meio-de-acesso": "Cabo Metálico"
    },
    {
        "cidade": "Corrente",
        "uf": "PI",
        "latitude": -10.433349,
        "longitude": -45.163348,
        "empresa": "OI",
        "pf-ou-pj": "Pessoa Física",
        "tecnologia": "ADSL1",
        "tipo-de-Produto": "INTERNET",
        "meio-de-acesso": "Cabo Metálico"
    },
    {
        "cidade": "Corrente",
        "uf": "PI",
        "latitude": -10.433349,
        "longitude": -45.163348,
        "empresa": "OI",
        "pf-ou-pj": "Pessoa Física",
        "tecnologia": "ADSL2",
        "tipo-de-Produto": "INTERNET",
        "meio-de-acesso": "Cabo Metálico"
    },
    {
        "cidade": "Cristalândia do Piauí",
        "uf": "PI",
        "latitude": -10.644311,
        "longitude": -45.189262,
        "empresa": "OI",
        "pf-ou-pj": "Pessoa Física",
        "tecnologia": "ADSL1",
        "tipo-de-Produto": "INTERNET",
        "meio-de-acesso": "Cabo Metálico"
    },
    {
        "cidade": "Cristino Castro",
        "uf": "PI",
        "latitude": -8.822731,
        "longitude": -44.222972,
        "empresa": "OI",
        "pf-ou-pj": "Pessoa Física",
        "tecnologia": "ADSL1",
        "tipo-de-Produto": "INTERNET",
        "meio-de-acesso": "Cabo Metálico"
    },
    {
        "cidade": "Cristino Castro",
        "uf": "PI",
        "latitude": -8.822731,
        "longitude": -44.222972,
        "empresa": "OI",
        "pf-ou-pj": "Pessoa Física",
        "tecnologia": "ADSL2",
        "tipo-de-Produto": "INTERNET",
        "meio-de-acesso": "Cabo Metálico"
    },
    {
        "cidade": "Curimatá",
        "uf": "PI",
        "latitude": -10.032608,
        "longitude": -44.3002,
        "empresa": "OI",
        "pf-ou-pj": "Pessoa Física",
        "tecnologia": "ADSL1",
        "tipo-de-Produto": "INTERNET",
        "meio-de-acesso": "Cabo Metálico"
    },
    {
        "cidade": "Curral Novo do Piauí",
        "uf": "PI",
        "latitude": -7.831302,
        "longitude": -40.895704,
        "empresa": "OI",
        "pf-ou-pj": "Pessoa Física",
        "tecnologia": "ADSL1",
        "tipo-de-Produto": "INTERNET",
        "meio-de-acesso": "Cabo Metálico"
    },
    {
        "cidade": "Demerval Lobão",
        "uf": "PI",
        "latitude": -5.358752,
        "longitude": -42.677583,
        "empresa": "OI",
        "pf-ou-pj": "Pessoa Física",
        "tecnologia": "ADSL1",
        "tipo-de-Produto": "INTERNET",
        "meio-de-acesso": "Cabo Metálico"
    },
    {
        "cidade": "Demerval Lobão",
        "uf": "PI",
        "latitude": -5.358752,
        "longitude": -42.677583,
        "empresa": "OI",
        "pf-ou-pj": "Pessoa Física",
        "tecnologia": "ADSL2",
        "tipo-de-Produto": "INTERNET",
        "meio-de-acesso": "Cabo Metálico"
    },
    {
        "cidade": "Dirceu Arcoverde",
        "uf": "PI",
        "latitude": -9.339386,
        "longitude": -42.434792,
        "empresa": "OI",
        "pf-ou-pj": "Pessoa Física",
        "tecnologia": "ADSL1",
        "tipo-de-Produto": "INTERNET",
        "meio-de-acesso": "Cabo Metálico"
    },
    {
        "cidade": "Dom Expedito Lopes",
        "uf": "PI",
        "latitude": -6.953319,
        "longitude": -41.639632,
        "empresa": "OI",
        "pf-ou-pj": "Pessoa Física",
        "tecnologia": "ADSL1",
        "tipo-de-Produto": "INTERNET",
        "meio-de-acesso": "Cabo Metálico"
    },
    {
        "cidade": "Domingos Mourão",
        "uf": "PI",
        "latitude": -4.249498,
        "longitude": -41.268267,
        "empresa": "OI",
        "pf-ou-pj": "Pessoa Física",
        "tecnologia": "ADSL1",
        "tipo-de-Produto": "INTERNET",
        "meio-de-acesso": "Cabo Metálico"
    },
    {
        "cidade": "Elesbão Veloso",
        "uf": "PI",
        "latitude": -6.199475,
        "longitude": -42.135458,
        "empresa": "OI",
        "pf-ou-pj": "Pessoa Física",
        "tecnologia": "ADSL2",
        "tipo-de-Produto": "INTERNET",
        "meio-de-acesso": "Cabo Metálico"
    },
    {
        "cidade": "Eliseu Martins",
        "uf": "PI",
        "latitude": -8.096286,
        "longitude": -43.670481,
        "empresa": "OI",
        "pf-ou-pj": "Pessoa Física",
        "tecnologia": "ADSL1",
        "tipo-de-Produto": "INTERNET",
        "meio-de-acesso": "Cabo Metálico"
    },
    {
        "cidade": "Esperantina",
        "uf": "PI",
        "latitude": -3.888631,
        "longitude": -42.232422,
        "empresa": "OI",
        "pf-ou-pj": "Pessoa Física",
        "tecnologia": "ADSL2",
        "tipo-de-Produto": "INTERNET",
        "meio-de-acesso": "Cabo Metálico"
    },
    {
        "cidade": "Flores do Piauí",
        "uf": "PI",
        "latitude": -7.787931,
        "longitude": -42.918009,
        "empresa": "OI",
        "pf-ou-pj": "Pessoa Física",
        "tecnologia": "ADSL1",
        "tipo-de-Produto": "INTERNET",
        "meio-de-acesso": "Cabo Metálico"
    },
    {
        "cidade": "Floriano",
        "uf": "PI",
        "latitude": -6.771821,
        "longitude": -43.024136,
        "empresa": "OI",
        "pf-ou-pj": "Pessoa Física",
        "tecnologia": "ADSL1",
        "tipo-de-Produto": "INTERNET",
        "meio-de-acesso": "Cabo Metálico"
    },
    {
        "cidade": "Floriano",
        "uf": "PI",
        "latitude": -6.771821,
        "longitude": -43.024136,
        "empresa": "OI",
        "pf-ou-pj": "Pessoa Física",
        "tecnologia": "ADSL2",
        "tipo-de-Produto": "INTERNET",
        "meio-de-acesso": "Cabo Metálico"
    },
    {
        "cidade": "Floriano",
        "uf": "PI",
        "latitude": -6.771821,
        "longitude": -43.024136,
        "empresa": "OI",
        "pf-ou-pj": "Pessoa Física",
        "tecnologia": "FTTH",
        "tipo-de-Produto": "INTERNET",
        "meio-de-acesso": "Fibra"
    },
    {
        "cidade": "Francinópolis",
        "uf": "PI",
        "latitude": -6.393341,
        "longitude": -42.259062,
        "empresa": "OI",
        "pf-ou-pj": "Pessoa Física",
        "tecnologia": "ADSL1",
        "tipo-de-Produto": "INTERNET",
        "meio-de-acesso": "Cabo Metálico"
    },
    {
        "cidade": "Francisco Santos",
        "uf": "PI",
        "latitude": -6.994914,
        "longitude": -41.128789,
        "empresa": "OI",
        "pf-ou-pj": "Pessoa Física",
        "tecnologia": "ADSL1",
        "tipo-de-Produto": "INTERNET",
        "meio-de-acesso": "Cabo Metálico"
    },
    {
        "cidade": "Fronteiras",
        "uf": "PI",
        "latitude": -7.081727,
        "longitude": -40.614601,
        "empresa": "OI",
        "pf-ou-pj": "Pessoa Física",
        "tecnologia": "ADSL1",
        "tipo-de-Produto": "INTERNET",
        "meio-de-acesso": "Cabo Metálico"
    },
    {
        "cidade": "Gilbués",
        "uf": "PI",
        "latitude": -9.830008,
        "longitude": -45.342267,
        "empresa": "OI",
        "pf-ou-pj": "Pessoa Física",
        "tecnologia": "ADSL1",
        "tipo-de-Produto": "INTERNET",
        "meio-de-acesso": "Cabo Metálico"
    },
    {
        "cidade": "Gilbués",
        "uf": "PI",
        "latitude": -9.830008,
        "longitude": -45.342267,
        "empresa": "OI",
        "pf-ou-pj": "Pessoa Física",
        "tecnologia": "ADSL2",
        "tipo-de-Produto": "INTERNET",
        "meio-de-acesso": "Cabo Metálico"
    },
    {
        "cidade": "Guadalupe",
        "uf": "PI",
        "latitude": -6.782848,
        "longitude": -43.559441,
        "empresa": "OI",
        "pf-ou-pj": "Pessoa Física",
        "tecnologia": "ADSL1",
        "tipo-de-Produto": "INTERNET",
        "meio-de-acesso": "Cabo Metálico"
    },
    {
        "cidade": "Guaribas",
        "uf": "PI",
        "latitude": -9.386465,
        "longitude": -43.694341,
        "empresa": "OI",
        "pf-ou-pj": "Pessoa Física",
        "tecnologia": "ADSL1",
        "tipo-de-Produto": "INTERNET",
        "meio-de-acesso": "Cabo Metálico"
    },
    {
        "cidade": "Ilha Grande",
        "uf": "PI",
        "latitude": -2.857737,
        "longitude": -41.81858,
        "empresa": "OI",
        "pf-ou-pj": "Pessoa Física",
        "tecnologia": "ADSL1",
        "tipo-de-Produto": "INTERNET",
        "meio-de-acesso": "Cabo Metálico"
    },
    {
        "cidade": "Ilha Grande",
        "uf": "PI",
        "latitude": -2.857737,
        "longitude": -41.81858,
        "empresa": "OI",
        "pf-ou-pj": "Pessoa Física",
        "tecnologia": "ADSL2",
        "tipo-de-Produto": "INTERNET",
        "meio-de-acesso": "Cabo Metálico"
    },
    {
        "cidade": "Inhuma",
        "uf": "PI",
        "latitude": -6.665001,
        "longitude": -41.704127,
        "empresa": "OI",
        "pf-ou-pj": "Pessoa Física",
        "tecnologia": "ADSL2",
        "tipo-de-Produto": "INTERNET",
        "meio-de-acesso": "Cabo Metálico"
    },
    {
        "cidade": "Itainópolis",
        "uf": "PI",
        "latitude": -7.443357,
        "longitude": -41.468713,
        "empresa": "OI",
        "pf-ou-pj": "Pessoa Física",
        "tecnologia": "ADSL1",
        "tipo-de-Produto": "INTERNET",
        "meio-de-acesso": "Cabo Metálico"
    },
    {
        "cidade": "Itaueira",
        "uf": "PI",
        "latitude": -7.59989,
        "longitude": -43.0249,
        "empresa": "OI",
        "pf-ou-pj": "Pessoa Física",
        "tecnologia": "ADSL1",
        "tipo-de-Produto": "INTERNET",
        "meio-de-acesso": "Cabo Metálico"
    },
    {
        "cidade": "Jaicós",
        "uf": "PI",
        "latitude": -7.362286,
        "longitude": -41.137126,
        "empresa": "OI",
        "pf-ou-pj": "Pessoa Física",
        "tecnologia": "ADSL1",
        "tipo-de-Produto": "INTERNET",
        "meio-de-acesso": "Cabo Metálico"
    },
    {
        "cidade": "Jaicós",
        "uf": "PI",
        "latitude": -7.362286,
        "longitude": -41.137126,
        "empresa": "OI",
        "pf-ou-pj": "Pessoa Física",
        "tecnologia": "ADSL2",
        "tipo-de-Produto": "INTERNET",
        "meio-de-acesso": "Cabo Metálico"
    },
    {
        "cidade": "Jerumenha",
        "uf": "PI",
        "latitude": -7.09128,
        "longitude": -43.503319,
        "empresa": "OI",
        "pf-ou-pj": "Pessoa Física",
        "tecnologia": "ADSL1",
        "tipo-de-Produto": "INTERNET",
        "meio-de-acesso": "Cabo Metálico"
    },
    {
        "cidade": "Joaquim Pires",
        "uf": "PI",
        "latitude": -3.501636,
        "longitude": -42.186462,
        "empresa": "OI",
        "pf-ou-pj": "Pessoa Física",
        "tecnologia": "ADSL1",
        "tipo-de-Produto": "INTERNET",
        "meio-de-acesso": "Cabo Metálico"
    },
    {
        "cidade": "João Costa",
        "uf": "PI",
        "latitude": -8.50736,
        "longitude": -42.426379,
        "empresa": "OI",
        "pf-ou-pj": "Pessoa Física",
        "tecnologia": "ADSL1",
        "tipo-de-Produto": "INTERNET",
        "meio-de-acesso": "Cabo Metálico"
    },
    {
        "cidade": "Lagoa Alegre",
        "uf": "PI",
        "latitude": -4.515394,
        "longitude": -42.630876,
        "empresa": "OI",
        "pf-ou-pj": "Pessoa Física",
        "tecnologia": "ADSL1",
        "tipo-de-Produto": "INTERNET",
        "meio-de-acesso": "Cabo Metálico"
    },
    {
        "cidade": "Landri Sales",
        "uf": "PI",
        "latitude": -7.259218,
        "longitude": -43.936418,
        "empresa": "OI",
        "pf-ou-pj": "Pessoa Física",
        "tecnologia": "ADSL1",
        "tipo-de-Produto": "INTERNET",
        "meio-de-acesso": "Cabo Metálico"
    },
    {
        "cidade": "Luzilândia",
        "uf": "PI",
        "latitude": -3.468296,
        "longitude": -42.371757,
        "empresa": "OI",
        "pf-ou-pj": "Pessoa Física",
        "tecnologia": "ADSL1",
        "tipo-de-Produto": "INTERNET",
        "meio-de-acesso": "Cabo Metálico"
    },
    {
        "cidade": "Luzilândia",
        "uf": "PI",
        "latitude": -3.468296,
        "longitude": -42.371757,
        "empresa": "OI",
        "pf-ou-pj": "Pessoa Física",
        "tecnologia": "ADSL2",
        "tipo-de-Produto": "INTERNET",
        "meio-de-acesso": "Cabo Metálico"
    },
    {
        "cidade": "Luís Correia",
        "uf": "PI",
        "latitude": -2.88438,
        "longitude": -41.664142,
        "empresa": "OI",
        "pf-ou-pj": "Pessoa Física",
        "tecnologia": "ADSL1",
        "tipo-de-Produto": "INTERNET",
        "meio-de-acesso": "Cabo Metálico"
    },
    {
        "cidade": "Luís Correia",
        "uf": "PI",
        "latitude": -2.88438,
        "longitude": -41.664142,
        "empresa": "OI",
        "pf-ou-pj": "Pessoa Física",
        "tecnologia": "ADSL2",
        "tipo-de-Produto": "INTERNET",
        "meio-de-acesso": "Cabo Metálico"
    },
    {
        "cidade": "Manoel Emídio",
        "uf": "PI",
        "latitude": -8.01234,
        "longitude": -43.87549,
        "empresa": "OI",
        "pf-ou-pj": "Pessoa Física",
        "tecnologia": "ADSL1",
        "tipo-de-Produto": "INTERNET",
        "meio-de-acesso": "Cabo Metálico"
    },
    {
        "cidade": "Marcolândia",
        "uf": "PI",
        "latitude": -7.441691,
        "longitude": -40.660179,
        "empresa": "OI",
        "pf-ou-pj": "Pessoa Física",
        "tecnologia": "ADSL2",
        "tipo-de-Produto": "INTERNET",
        "meio-de-acesso": "Cabo Metálico"
    },
    {
        "cidade": "Marcos Parente",
        "uf": "PI",
        "latitude": -7.115649,
        "longitude": -43.892602,
        "empresa": "OI",
        "pf-ou-pj": "Pessoa Física",
        "tecnologia": "ADSL1",
        "tipo-de-Produto": "INTERNET",
        "meio-de-acesso": "Cabo Metálico"
    },
    {
        "cidade": "Matias Olímpio",
        "uf": "PI",
        "latitude": -3.714917,
        "longitude": -42.550654,
        "empresa": "OI",
        "pf-ou-pj": "Pessoa Física",
        "tecnologia": "ADSL1",
        "tipo-de-Produto": "INTERNET",
        "meio-de-acesso": "Cabo Metálico"
    },
    {
        "cidade": "Miguel Alves",
        "uf": "PI",
        "latitude": -4.168575,
        "longitude": -42.896301,
        "empresa": "OI",
        "pf-ou-pj": "Pessoa Física",
        "tecnologia": "ADSL1",
        "tipo-de-Produto": "INTERNET",
        "meio-de-acesso": "Cabo Metálico"
    },
    {
        "cidade": "Milton Brandão",
        "uf": "PI",
        "latitude": -4.682946,
        "longitude": -41.417343,
        "empresa": "OI",
        "pf-ou-pj": "Pessoa Física",
        "tecnologia": "ADSL1",
        "tipo-de-Produto": "INTERNET",
        "meio-de-acesso": "Cabo Metálico"
    },
    {
        "cidade": "Monsenhor Gil",
        "uf": "PI",
        "latitude": -5.561999,
        "longitude": -42.607493,
        "empresa": "OI",
        "pf-ou-pj": "Pessoa Física",
        "tecnologia": "ADSL1",
        "tipo-de-Produto": "INTERNET",
        "meio-de-acesso": "Cabo Metálico"
    },
    {
        "cidade": "Monte Alegre do Piauí",
        "uf": "PI",
        "latitude": -9.753638,
        "longitude": -45.303735,
        "empresa": "OI",
        "pf-ou-pj": "Pessoa Física",
        "tecnologia": "ADSL1",
        "tipo-de-Produto": "INTERNET",
        "meio-de-acesso": "Cabo Metálico"
    },
    {
        "cidade": "Murici dos Portelas",
        "uf": "PI",
        "latitude": -3.319,
        "longitude": -42.094,
        "empresa": "OI",
        "pf-ou-pj": "Pessoa Física",
        "tecnologia": "ADSL1",
        "tipo-de-Produto": "INTERNET",
        "meio-de-acesso": "Cabo Metálico"
    },
    {
        "cidade": "Nazaré do Piauí",
        "uf": "PI",
        "latitude": -6.970235,
        "longitude": -42.677316,
        "empresa": "OI",
        "pf-ou-pj": "Pessoa Física",
        "tecnologia": "ADSL1",
        "tipo-de-Produto": "INTERNET",
        "meio-de-acesso": "Cabo Metálico"
    },
    {
        "cidade": "Nazária",
        "uf": "PI",
        "latitude": -5.352268,
        "longitude": -42.811532,
        "empresa": "OI",
        "pf-ou-pj": "Pessoa Física",
        "tecnologia": "ADSL2",
        "tipo-de-Produto": "INTERNET",
        "meio-de-acesso": "Cabo Metálico"
    },
    {
        "cidade": "Novo Oriente do Piauí",
        "uf": "PI",
        "latitude": -6.44901,
        "longitude": -41.926124,
        "empresa": "OI",
        "pf-ou-pj": "Pessoa Física",
        "tecnologia": "ADSL1",
        "tipo-de-Produto": "INTERNET",
        "meio-de-acesso": "Cabo Metálico"
    },
    {
        "cidade": "Oeiras",
        "uf": "PI",
        "latitude": -7.019153,
        "longitude": -42.128298,
        "empresa": "OI",
        "pf-ou-pj": "Pessoa Física",
        "tecnologia": "ADSL1",
        "tipo-de-Produto": "INTERNET",
        "meio-de-acesso": "Cabo Metálico"
    },
    {
        "cidade": "Oeiras",
        "uf": "PI",
        "latitude": -7.019153,
        "longitude": -42.128298,
        "empresa": "OI",
        "pf-ou-pj": "Pessoa Física",
        "tecnologia": "ADSL2",
        "tipo-de-Produto": "INTERNET",
        "meio-de-acesso": "Cabo Metálico"
    },
    {
        "cidade": "Padre Marcos",
        "uf": "PI",
        "latitude": -7.351011,
        "longitude": -40.899665,
        "empresa": "OI",
        "pf-ou-pj": "Pessoa Física",
        "tecnologia": "ADSL1",
        "tipo-de-Produto": "INTERNET",
        "meio-de-acesso": "Cabo Metálico"
    },
    {
        "cidade": "Palmeira do Piauí",
        "uf": "PI",
        "latitude": -8.730761,
        "longitude": -44.246618,
        "empresa": "OI",
        "pf-ou-pj": "Pessoa Física",
        "tecnologia": "ADSL1",
        "tipo-de-Produto": "INTERNET",
        "meio-de-acesso": "Cabo Metálico"
    },
    {
        "cidade": "Palmeirais",
        "uf": "PI",
        "latitude": -5.970864,
        "longitude": -43.056021,
        "empresa": "OI",
        "pf-ou-pj": "Pessoa Física",
        "tecnologia": "ADSL1",
        "tipo-de-Produto": "INTERNET",
        "meio-de-acesso": "Cabo Metálico"
    },
    {
        "cidade": "Parnaguá",
        "uf": "PI",
        "latitude": -10.216642,
        "longitude": -44.630018,
        "empresa": "OI",
        "pf-ou-pj": "Pessoa Física",
        "tecnologia": "ADSL1",
        "tipo-de-Produto": "INTERNET",
        "meio-de-acesso": "Cabo Metálico"
    },
    {
        "cidade": "Parnaguá",
        "uf": "PI",
        "latitude": -10.216642,
        "longitude": -44.630018,
        "empresa": "OI",
        "pf-ou-pj": "Pessoa Física",
        "tecnologia": "ADSL2",
        "tipo-de-Produto": "INTERNET",
        "meio-de-acesso": "Cabo Metálico"
    },
    {
        "cidade": "Parnaíba",
        "uf": "PI",
        "latitude": -2.905847,
        "longitude": -41.775388,
        "empresa": "OI",
        "pf-ou-pj": "Pessoa Física",
        "tecnologia": "ADSL1",
        "tipo-de-Produto": "INTERNET",
        "meio-de-acesso": "Cabo Metálico"
    },
    {
        "cidade": "Parnaíba",
        "uf": "PI",
        "latitude": -2.905847,
        "longitude": -41.775388,
        "empresa": "OI",
        "pf-ou-pj": "Pessoa Física",
        "tecnologia": "ADSL2",
        "tipo-de-Produto": "INTERNET",
        "meio-de-acesso": "Cabo Metálico"
    },
    {
        "cidade": "Parnaíba",
        "uf": "PI",
        "latitude": -2.905847,
        "longitude": -41.775388,
        "empresa": "OI",
        "pf-ou-pj": "Pessoa Física",
        "tecnologia": "FTTH",
        "tipo-de-Produto": "INTERNET",
        "meio-de-acesso": "Fibra"
    },
    {
        "cidade": "Passagem Franca do Piauí",
        "uf": "PI",
        "latitude": -5.860365,
        "longitude": -42.44363,
        "empresa": "OI",
        "pf-ou-pj": "Pessoa Física",
        "tecnologia": "ADSL1",
        "tipo-de-Produto": "INTERNET",
        "meio-de-acesso": "Cabo Metálico"
    },
    {
        "cidade": "Paulistana",
        "uf": "PI",
        "latitude": -8.134357,
        "longitude": -41.143072,
        "empresa": "OI",
        "pf-ou-pj": "Pessoa Física",
        "tecnologia": "ADSL1",
        "tipo-de-Produto": "INTERNET",
        "meio-de-acesso": "Cabo Metálico"
    },
    {
        "cidade": "Pedro II",
        "uf": "PI",
        "latitude": -4.425845,
        "longitude": -41.448184,
        "empresa": "OI",
        "pf-ou-pj": "Pessoa Física",
        "tecnologia": "ADSL1",
        "tipo-de-Produto": "INTERNET",
        "meio-de-acesso": "Cabo Metálico"
    },
    {
        "cidade": "Pedro II",
        "uf": "PI",
        "latitude": -4.425845,
        "longitude": -41.448184,
        "empresa": "OI",
        "pf-ou-pj": "Pessoa Física",
        "tecnologia": "ADSL2",
        "tipo-de-Produto": "INTERNET",
        "meio-de-acesso": "Cabo Metálico"
    },
    {
        "cidade": "Picos",
        "uf": "PI",
        "latitude": -7.077213,
        "longitude": -41.467003,
        "empresa": "OI",
        "pf-ou-pj": "Pessoa Física",
        "tecnologia": "ADSL1",
        "tipo-de-Produto": "INTERNET",
        "meio-de-acesso": "Cabo Metálico"
    },
    {
        "cidade": "Picos",
        "uf": "PI",
        "latitude": -7.077213,
        "longitude": -41.467003,
        "empresa": "OI",
        "pf-ou-pj": "Pessoa Física",
        "tecnologia": "ADSL2",
        "tipo-de-Produto": "INTERNET",
        "meio-de-acesso": "Cabo Metálico"
    },
    {
        "cidade": "Piracuruca",
        "uf": "PI",
        "latitude": -3.93335,
        "longitude": -41.708779,
        "empresa": "OI",
        "pf-ou-pj": "Pessoa Física",
        "tecnologia": "ADSL1",
        "tipo-de-Produto": "INTERNET",
        "meio-de-acesso": "Cabo Metálico"
    },
    {
        "cidade": "Piracuruca",
        "uf": "PI",
        "latitude": -3.93335,
        "longitude": -41.708779,
        "empresa": "OI",
        "pf-ou-pj": "Pessoa Física",
        "tecnologia": "ADSL2",
        "tipo-de-Produto": "INTERNET",
        "meio-de-acesso": "Cabo Metálico"
    },
    {
        "cidade": "Piripiri",
        "uf": "PI",
        "latitude": -4.271574,
        "longitude": -41.771569,
        "empresa": "OI",
        "pf-ou-pj": "Pessoa Física",
        "tecnologia": "ADSL1",
        "tipo-de-Produto": "INTERNET",
        "meio-de-acesso": "Cabo Metálico"
    },
    {
        "cidade": "Piripiri",
        "uf": "PI",
        "latitude": -4.271574,
        "longitude": -41.771569,
        "empresa": "OI",
        "pf-ou-pj": "Pessoa Física",
        "tecnologia": "ADSL2",
        "tipo-de-Produto": "INTERNET",
        "meio-de-acesso": "Cabo Metálico"
    },
    {
        "cidade": "Piripiri",
        "uf": "PI",
        "latitude": -4.271574,
        "longitude": -41.771569,
        "empresa": "OI",
        "pf-ou-pj": "Pessoa Física",
        "tecnologia": "FTTH",
        "tipo-de-Produto": "INTERNET",
        "meio-de-acesso": "Fibra"
    },
    {
        "cidade": "Porto",
        "uf": "PI",
        "latitude": -3.888154,
        "longitude": -42.69982,
        "empresa": "OI",
        "pf-ou-pj": "Pessoa Física",
        "tecnologia": "ADSL1",
        "tipo-de-Produto": "INTERNET",
        "meio-de-acesso": "Cabo Metálico"
    },
    {
        "cidade": "Porto",
        "uf": "PI",
        "latitude": -3.888154,
        "longitude": -42.69982,
        "empresa": "OI",
        "pf-ou-pj": "Pessoa Física",
        "tecnologia": "ADSL2",
        "tipo-de-Produto": "INTERNET",
        "meio-de-acesso": "Cabo Metálico"
    },
    {
        "cidade": "Porto Alegre do Piauí",
        "uf": "PI",
        "latitude": -6.964228,
        "longitude": -44.183668,
        "empresa": "OI",
        "pf-ou-pj": "Pessoa Física",
        "tecnologia": "ADSL1",
        "tipo-de-Produto": "INTERNET",
        "meio-de-acesso": "Cabo Metálico"
    },
    {
        "cidade": "Queimada Nova",
        "uf": "PI",
        "latitude": -8.570637,
        "longitude": -41.410614,
        "empresa": "OI",
        "pf-ou-pj": "Pessoa Física",
        "tecnologia": "ADSL1",
        "tipo-de-Produto": "INTERNET",
        "meio-de-acesso": "Cabo Metálico"
    },
    {
        "cidade": "Queimada Nova",
        "uf": "PI",
        "latitude": -8.570637,
        "longitude": -41.410614,
        "empresa": "OI",
        "pf-ou-pj": "Pessoa Física",
        "tecnologia": "ADSL2",
        "tipo-de-Produto": "INTERNET",
        "meio-de-acesso": "Cabo Metálico"
    },
    {
        "cidade": "Redenção do Gurguéia",
        "uf": "PI",
        "latitude": -9.479368,
        "longitude": -44.581145,
        "empresa": "OI",
        "pf-ou-pj": "Pessoa Física",
        "tecnologia": "ADSL1",
        "tipo-de-Produto": "INTERNET",
        "meio-de-acesso": "Cabo Metálico"
    },
    {
        "cidade": "Regeneração",
        "uf": "PI",
        "latitude": -6.23115,
        "longitude": -42.684193,
        "empresa": "OI",
        "pf-ou-pj": "Pessoa Física",
        "tecnologia": "ADSL1",
        "tipo-de-Produto": "INTERNET",
        "meio-de-acesso": "Cabo Metálico"
    },
    {
        "cidade": "Regeneração",
        "uf": "PI",
        "latitude": -6.23115,
        "longitude": -42.684193,
        "empresa": "OI",
        "pf-ou-pj": "Pessoa Física",
        "tecnologia": "ADSL2",
        "tipo-de-Produto": "INTERNET",
        "meio-de-acesso": "Cabo Metálico"
    },
    {
        "cidade": "Riacho Frio",
        "uf": "PI",
        "latitude": -10.124378,
        "longitude": -44.950326,
        "empresa": "OI",
        "pf-ou-pj": "Pessoa Física",
        "tecnologia": "ADSL1",
        "tipo-de-Produto": "INTERNET",
        "meio-de-acesso": "Cabo Metálico"
    },
    {
        "cidade": "Ribeiro Gonçalves",
        "uf": "PI",
        "latitude": -7.556505,
        "longitude": -45.244737,
        "empresa": "OI",
        "pf-ou-pj": "Pessoa Física",
        "tecnologia": "ADSL1",
        "tipo-de-Produto": "INTERNET",
        "meio-de-acesso": "Cabo Metálico"
    },
    {
        "cidade": "Ribeiro Gonçalves",
        "uf": "PI",
        "latitude": -7.556505,
        "longitude": -45.244737,
        "empresa": "OI",
        "pf-ou-pj": "Pessoa Física",
        "tecnologia": "ADSL2",
        "tipo-de-Produto": "INTERNET",
        "meio-de-acesso": "Cabo Metálico"
    },
    {
        "cidade": "Rio Grande do Piauí",
        "uf": "PI",
        "latitude": -7.780291,
        "longitude": -43.136886,
        "empresa": "OI",
        "pf-ou-pj": "Pessoa Física",
        "tecnologia": "ADSL1",
        "tipo-de-Produto": "INTERNET",
        "meio-de-acesso": "Cabo Metálico"
    },
    {
        "cidade": "Santa Cruz do Piauí",
        "uf": "PI",
        "latitude": -7.178499,
        "longitude": -41.760932,
        "empresa": "OI",
        "pf-ou-pj": "Pessoa Física",
        "tecnologia": "ADSL1",
        "tipo-de-Produto": "INTERNET",
        "meio-de-acesso": "Cabo Metálico"
    },
    {
        "cidade": "Santa Cruz dos Milagres",
        "uf": "PI",
        "latitude": -5.805808,
        "longitude": -41.950644,
        "empresa": "OI",
        "pf-ou-pj": "Pessoa Física",
        "tecnologia": "ADSL1",
        "tipo-de-Produto": "INTERNET",
        "meio-de-acesso": "Cabo Metálico"
    },
    {
        "cidade": "Santa Filomena",
        "uf": "PI",
        "latitude": -9.112278,
        "longitude": -45.911607,
        "empresa": "OI",
        "pf-ou-pj": "Pessoa Física",
        "tecnologia": "ADSL1",
        "tipo-de-Produto": "INTERNET",
        "meio-de-acesso": "Cabo Metálico"
    },
    {
        "cidade": "Santa Luz",
        "uf": "PI",
        "latitude": -8.948795,
        "longitude": -44.129567,
        "empresa": "OI",
        "pf-ou-pj": "Pessoa Física",
        "tecnologia": "ADSL1",
        "tipo-de-Produto": "INTERNET",
        "meio-de-acesso": "Cabo Metálico"
    },
    {
        "cidade": "Sebastião Leal",
        "uf": "PI",
        "latitude": -7.568029,
        "longitude": -44.059982,
        "empresa": "OI",
        "pf-ou-pj": "Pessoa Física",
        "tecnologia": "ADSL1",
        "tipo-de-Produto": "INTERNET",
        "meio-de-acesso": "Cabo Metálico"
    },
    {
        "cidade": "Sigefredo Pacheco",
        "uf": "PI",
        "latitude": -4.916647,
        "longitude": -41.731123,
        "empresa": "OI",
        "pf-ou-pj": "Pessoa Física",
        "tecnologia": "ADSL1",
        "tipo-de-Produto": "INTERNET",
        "meio-de-acesso": "Cabo Metálico"
    },
    {
        "cidade": "Simplício Mendes",
        "uf": "PI",
        "latitude": -7.852944,
        "longitude": -41.907533,
        "empresa": "OI",
        "pf-ou-pj": "Pessoa Física",
        "tecnologia": "ADSL1",
        "tipo-de-Produto": "INTERNET",
        "meio-de-acesso": "Cabo Metálico"
    },
    {
        "cidade": "Simões",
        "uf": "PI",
        "latitude": -7.591095,
        "longitude": -40.813731,
        "empresa": "OI",
        "pf-ou-pj": "Pessoa Física",
        "tecnologia": "ADSL1",
        "tipo-de-Produto": "INTERNET",
        "meio-de-acesso": "Cabo Metálico"
    },
    {
        "cidade": "São Braz do Piauí",
        "uf": "PI",
        "latitude": -9.057967,
        "longitude": -43.007646,
        "empresa": "OI",
        "pf-ou-pj": "Pessoa Física",
        "tecnologia": "ADSL1",
        "tipo-de-Produto": "INTERNET",
        "meio-de-acesso": "Cabo Metálico"
    },
    {
        "cidade": "São Gonçalo do Gurguéia",
        "uf": "PI",
        "latitude": -10.03195,
        "longitude": -45.309219,
        "empresa": "OI",
        "pf-ou-pj": "Pessoa Física",
        "tecnologia": "ADSL1",
        "tipo-de-Produto": "INTERNET",
        "meio-de-acesso": "Cabo Metálico"
    },
    {
        "cidade": "São José do Peixe",
        "uf": "PI",
        "latitude": -7.485535,
        "longitude": -42.567162,
        "empresa": "OI",
        "pf-ou-pj": "Pessoa Física",
        "tecnologia": "ADSL1",
        "tipo-de-Produto": "INTERNET",
        "meio-de-acesso": "Cabo Metálico"
    },
    {
        "cidade": "São José do Piauí",
        "uf": "PI",
        "latitude": -6.87194,
        "longitude": -41.47311,
        "empresa": "OI",
        "pf-ou-pj": "Pessoa Física",
        "tecnologia": "ADSL1",
        "tipo-de-Produto": "INTERNET",
        "meio-de-acesso": "Cabo Metálico"
    },
    {
        "cidade": "São João do Piauí",
        "uf": "PI",
        "latitude": -8.354661,
        "longitude": -42.255898,
        "empresa": "OI",
        "pf-ou-pj": "Pessoa Física",
        "tecnologia": "ADSL1",
        "tipo-de-Produto": "INTERNET",
        "meio-de-acesso": "Cabo Metálico"
    },
    {
        "cidade": "São João do Piauí",
        "uf": "PI",
        "latitude": -8.354661,
        "longitude": -42.255898,
        "empresa": "OI",
        "pf-ou-pj": "Pessoa Física",
        "tecnologia": "ADSL2",
        "tipo-de-Produto": "INTERNET",
        "meio-de-acesso": "Cabo Metálico"
    },
    {
        "cidade": "São Julião",
        "uf": "PI",
        "latitude": -7.083906,
        "longitude": -40.824638,
        "empresa": "OI",
        "pf-ou-pj": "Pessoa Física",
        "tecnologia": "ADSL1",
        "tipo-de-Produto": "INTERNET",
        "meio-de-acesso": "Cabo Metálico"
    },
    {
        "cidade": "São Miguel da Baixa Grande",
        "uf": "PI",
        "latitude": -5.856457,
        "longitude": -42.193423,
        "empresa": "OI",
        "pf-ou-pj": "Pessoa Física",
        "tecnologia": "ADSL1",
        "tipo-de-Produto": "INTERNET",
        "meio-de-acesso": "Cabo Metálico"
    },
    {
        "cidade": "São Miguel do Tapuio",
        "uf": "PI",
        "latitude": -5.497291,
        "longitude": -41.316451,
        "empresa": "OI",
        "pf-ou-pj": "Pessoa Física",
        "tecnologia": "ADSL1",
        "tipo-de-Produto": "INTERNET",
        "meio-de-acesso": "Cabo Metálico"
    },
    {
        "cidade": "São Miguel do Tapuio",
        "uf": "PI",
        "latitude": -5.497291,
        "longitude": -41.316451,
        "empresa": "OI",
        "pf-ou-pj": "Pessoa Física",
        "tecnologia": "ADSL2",
        "tipo-de-Produto": "INTERNET",
        "meio-de-acesso": "Cabo Metálico"
    },
    {
        "cidade": "São Pedro do Piauí",
        "uf": "PI",
        "latitude": -5.92078,
        "longitude": -42.719211,
        "empresa": "OI",
        "pf-ou-pj": "Pessoa Física",
        "tecnologia": "ADSL1",
        "tipo-de-Produto": "INTERNET",
        "meio-de-acesso": "Cabo Metálico"
    },
    {
        "cidade": "São Raimundo Nonato",
        "uf": "PI",
        "latitude": -9.012412,
        "longitude": -42.698659,
        "empresa": "OI",
        "pf-ou-pj": "Pessoa Física",
        "tecnologia": "ADSL1",
        "tipo-de-Produto": "INTERNET",
        "meio-de-acesso": "Cabo Metálico"
    },
    {
        "cidade": "São Raimundo Nonato",
        "uf": "PI",
        "latitude": -9.012412,
        "longitude": -42.698659,
        "empresa": "OI",
        "pf-ou-pj": "Pessoa Física",
        "tecnologia": "ADSL2",
        "tipo-de-Produto": "INTERNET",
        "meio-de-acesso": "Cabo Metálico"
    },
    {
        "cidade": "Tanque do Piauí",
        "uf": "PI",
        "latitude": -6.597869,
        "longitude": -42.279515,
        "empresa": "OI",
        "pf-ou-pj": "Pessoa Física",
        "tecnologia": "ADSL1",
        "tipo-de-Produto": "INTERNET",
        "meio-de-acesso": "Cabo Metálico"
    },
    {
        "cidade": "Teresina",
        "uf": "PI",
        "latitude": -5.091944,
        "longitude": -42.803364,
        "empresa": "OI",
        "pf-ou-pj": "Pessoa Física",
        "tecnologia": "ADSL1",
        "tipo-de-Produto": "INTERNET",
        "meio-de-acesso": "Cabo Metálico"
    },
    {
        "cidade": "Teresina",
        "uf": "PI",
        "latitude": -5.091944,
        "longitude": -42.803364,
        "empresa": "OI",
        "pf-ou-pj": "Pessoa Física",
        "tecnologia": "ADSL2",
        "tipo-de-Produto": "INTERNET",
        "meio-de-acesso": "Cabo Metálico"
    },
    {
        "cidade": "Teresina",
        "uf": "PI",
        "latitude": -5.091944,
        "longitude": -42.803364,
        "empresa": "OI",
        "pf-ou-pj": "Pessoa Física",
        "tecnologia": "FTTH",
        "tipo-de-Produto": "INTERNET",
        "meio-de-acesso": "Fibra"
    },
    {
        "cidade": "União",
        "uf": "PI",
        "latitude": -4.585709,
        "longitude": -42.858285,
        "empresa": "OI",
        "pf-ou-pj": "Pessoa Física",
        "tecnologia": "ADSL1",
        "tipo-de-Produto": "INTERNET",
        "meio-de-acesso": "Cabo Metálico"
    },
    {
        "cidade": "Uruçuí",
        "uf": "PI",
        "latitude": -7.239439,
        "longitude": -44.557683,
        "empresa": "OI",
        "pf-ou-pj": "Pessoa Física",
        "tecnologia": "ADSL1",
        "tipo-de-Produto": "INTERNET",
        "meio-de-acesso": "Cabo Metálico"
    },
    {
        "cidade": "Uruçuí",
        "uf": "PI",
        "latitude": -7.239439,
        "longitude": -44.557683,
        "empresa": "OI",
        "pf-ou-pj": "Pessoa Física",
        "tecnologia": "ADSL2",
        "tipo-de-Produto": "INTERNET",
        "meio-de-acesso": "Cabo Metálico"
    },
    {
        "cidade": "Valença do Piauí",
        "uf": "PI",
        "latitude": -6.403013,
        "longitude": -41.737498,
        "empresa": "OI",
        "pf-ou-pj": "Pessoa Física",
        "tecnologia": "ADSL1",
        "tipo-de-Produto": "INTERNET",
        "meio-de-acesso": "Cabo Metálico"
    },
    {
        "cidade": "Valença do Piauí",
        "uf": "PI",
        "latitude": -6.403013,
        "longitude": -41.737498,
        "empresa": "OI",
        "pf-ou-pj": "Pessoa Física",
        "tecnologia": "ADSL2",
        "tipo-de-Produto": "INTERNET",
        "meio-de-acesso": "Cabo Metálico"
    },
    {
        "cidade": "Várzea Grande",
        "uf": "PI",
        "latitude": -6.548993,
        "longitude": -42.247973,
        "empresa": "OI",
        "pf-ou-pj": "Pessoa Física",
        "tecnologia": "ADSL1",
        "tipo-de-Produto": "INTERNET",
        "meio-de-acesso": "Cabo Metálico"
    },
    {
        "cidade": "Água Branca",
        "uf": "PI",
        "latitude": -5.888564,
        "longitude": -42.636961,
        "empresa": "OI",
        "pf-ou-pj": "Pessoa Física",
        "tecnologia": "ADSL1",
        "tipo-de-Produto": "INTERNET",
        "meio-de-acesso": "Cabo Metálico"
    },
    {
        "cidade": "Água Branca",
        "uf": "PI",
        "latitude": -5.888564,
        "longitude": -42.636961,
        "empresa": "OI",
        "pf-ou-pj": "Pessoa Física",
        "tecnologia": "ADSL2",
        "tipo-de-Produto": "INTERNET",
        "meio-de-acesso": "Cabo Metálico"
    }
]