[
    {
        "cidade": "Almeirim",
        "uf": "PA",
        "latitude": -1.520968,
        "longitude": -52.581573,
        "empresa": "TIM",
        "cnpj": 2421421000111,
        "pf-ou-pj": "Pessoa Jurídica",
        "info-tecnologia": [
            {
                "tecnologia": "ETHERNET",
                "tipo-de-Produto": "INTERNET",
                "meio-de-acesso": "Fibra",
                "quantidade-acesso": 1
            }
        ]
    },
    {
        "cidade": "Altamira",
        "uf": "PA",
        "latitude": -3.204065,
        "longitude": -52.209961,
        "empresa": "TIM",
        "cnpj": 2421421000111,
        "pf-ou-pj": "Pessoa Jurídica",
        "info-tecnologia": [
            {
                "tecnologia": "ETHERNET",
                "tipo-de-Produto": "INTERNET",
                "meio-de-acesso": "Fibra",
                "quantidade-acesso": 1
            }
        ]
    },
    {
        "cidade": "Ananindeua",
        "uf": "PA",
        "latitude": -1.363914,
        "longitude": -48.374298,
        "empresa": "TIM",
        "cnpj": 2421421000111,
        "pf-ou-pj": "Pessoa Jurídica",
        "info-tecnologia": [
            {
                "tecnologia": "ETHERNET",
                "tipo-de-Produto": "INTERNET",
                "meio-de-acesso": "Fibra",
                "quantidade-acesso": 5
            }
        ]
    },
    {
        "cidade": "Belém",
        "uf": "PA",
        "latitude": -1.455396,
        "longitude": -48.489756,
        "empresa": "TIM",
        "cnpj": 2421421000111,
        "pf-ou-pj": "Pessoa Jurídica",
        "info-tecnologia": [
            {
                "tecnologia": "ETHERNET",
                "tipo-de-Produto": "INTERNET",
                "meio-de-acesso": "Fibra",
                "quantidade-acesso": 41
            },
            {
                "tecnologia": "ETHERNET",
                "tipo-de-Produto": "LINHA_DEDICADA",
                "meio-de-acesso": "Fibra",
                "quantidade-acesso": 13
            }
        ]
    },
    {
        "cidade": "Castanhal",
        "uf": "PA",
        "latitude": -1.297971,
        "longitude": -47.916742,
        "empresa": "TIM",
        "cnpj": 2421421000111,
        "pf-ou-pj": "Pessoa Jurídica",
        "info-tecnologia": [
            {
                "tecnologia": "ETHERNET",
                "tipo-de-Produto": "INTERNET",
                "meio-de-acesso": "Fibra",
                "quantidade-acesso": 1
            }
        ]
    },
    {
        "cidade": "Juruti",
        "uf": "PA",
        "latitude": -2.163472,
        "longitude": -56.088903,
        "empresa": "TIM",
        "cnpj": 2421421000111,
        "pf-ou-pj": "Pessoa Jurídica",
        "info-tecnologia": [
            {
                "tecnologia": "ETHERNET",
                "tipo-de-Produto": "INTERNET",
                "meio-de-acesso": "Fibra",
                "quantidade-acesso": 1
            },
            {
                "tecnologia": "ETHERNET",
                "tipo-de-Produto": "INTERNET",
                "meio-de-acesso": "Rádio",
                "quantidade-acesso": 3
            }
        ]
    },
    {
        "cidade": "Marabá",
        "uf": "PA",
        "latitude": -5.38075,
        "longitude": -49.132672,
        "empresa": "TIM",
        "cnpj": 2421421000111,
        "pf-ou-pj": "Pessoa Jurídica",
        "info-tecnologia": [
            {
                "tecnologia": "ETHERNET",
                "tipo-de-Produto": "INTERNET",
                "meio-de-acesso": "Fibra",
                "quantidade-acesso": 4
            }
        ]
    },
    {
        "cidade": "Oriximiná",
        "uf": "PA",
        "latitude": -1.759888,
        "longitude": -55.857937,
        "empresa": "TIM",
        "cnpj": 2421421000111,
        "pf-ou-pj": "Pessoa Jurídica",
        "info-tecnologia": [
            {
                "tecnologia": "ETHERNET",
                "tipo-de-Produto": "INTERNET",
                "meio-de-acesso": "Fibra",
                "quantidade-acesso": 1
            }
        ]
    },
    {
        "cidade": "Ourém",
        "uf": "PA",
        "latitude": -1.541676,
        "longitude": -47.112649,
        "empresa": "TIM",
        "cnpj": 2421421000111,
        "pf-ou-pj": "Pessoa Jurídica",
        "info-tecnologia": [
            {
                "tecnologia": "ETHERNET",
                "tipo-de-Produto": "LINHA_DEDICADA",
                "meio-de-acesso": "Fibra",
                "quantidade-acesso": 2
            }
        ]
    },
    {
        "cidade": "São Félix do Xingu",
        "uf": "PA",
        "latitude": -6.642535,
        "longitude": -51.990382,
        "empresa": "TIM",
        "cnpj": 2421421000111,
        "pf-ou-pj": "Pessoa Jurídica",
        "info-tecnologia": [
            {
                "tecnologia": "ETHERNET",
                "tipo-de-Produto": "LINHA_DEDICADA",
                "meio-de-acesso": "Fibra",
                "quantidade-acesso": 2
            }
        ]
    },
    {
        "cidade": "Terra Santa",
        "uf": "PA",
        "latitude": -2.104435,
        "longitude": -56.487653,
        "empresa": "TIM",
        "cnpj": 2421421000111,
        "pf-ou-pj": "Pessoa Jurídica",
        "info-tecnologia": [
            {
                "tecnologia": "ETHERNET",
                "tipo-de-Produto": "INTERNET",
                "meio-de-acesso": "Fibra",
                "quantidade-acesso": 3
            }
        ]
    }
]