[
    {
        "cidade": "Barra do Garças",
        "uf": "MT",
        "latitude": -15.880412,
        "longitude": -52.263953,
        "empresa": "OI",
        "cnpj": 76535764000143.0,
        "pf-ou-pj": "Pessoa Física",
        "info-tecnologia": [
            {
                "tecnologia": "FTTH",
                "tipo-de-Produto": "INTERNET",
                "meio-de-acesso": "Fibra",
                "quantidade-acesso": 1439
            }
        ]
    },
    {
        "cidade": "Cuiabá",
        "uf": "MT",
        "latitude": -15.600979,
        "longitude": -56.097397,
        "empresa": "OI",
        "cnpj": 76535764000143.0,
        "pf-ou-pj": "Pessoa Física",
        "info-tecnologia": [
            {
                "tecnologia": "FTTH",
                "tipo-de-Produto": "INTERNET",
                "meio-de-acesso": "Fibra",
                "quantidade-acesso": 17836
            }
        ]
    },
    {
        "cidade": "Cáceres",
        "uf": "MT",
        "latitude": -16.076414,
        "longitude": -57.681798,
        "empresa": "OI",
        "cnpj": 76535764000143.0,
        "pf-ou-pj": "Pessoa Física",
        "info-tecnologia": [
            {
                "tecnologia": "FTTH",
                "tipo-de-Produto": "INTERNET",
                "meio-de-acesso": "Fibra",
                "quantidade-acesso": 4063
            }
        ]
    },
    {
        "cidade": "Juína",
        "uf": "MT",
        "latitude": -11.372752,
        "longitude": -58.748314,
        "empresa": "OI",
        "cnpj": 76535764000143.0,
        "pf-ou-pj": "Pessoa Física",
        "info-tecnologia": [
            {
                "tecnologia": "FTTH",
                "tipo-de-Produto": "INTERNET",
                "meio-de-acesso": "Fibra",
                "quantidade-acesso": 1545
            }
        ]
    },
    {
        "cidade": "Pontes e Lacerda",
        "uf": "MT",
        "latitude": -15.221868,
        "longitude": -59.343544,
        "empresa": "OI",
        "cnpj": 76535764000143.0,
        "pf-ou-pj": "Pessoa Física",
        "info-tecnologia": [
            {
                "tecnologia": "FTTH",
                "tipo-de-Produto": "INTERNET",
                "meio-de-acesso": "Fibra",
                "quantidade-acesso": 1093
            }
        ]
    },
    {
        "cidade": "Primavera do Leste",
        "uf": "MT",
        "latitude": -15.543971,
        "longitude": -54.281056,
        "empresa": "OI",
        "cnpj": 76535764000143.0,
        "pf-ou-pj": "Pessoa Física",
        "info-tecnologia": [
            {
                "tecnologia": "FTTH",
                "tipo-de-Produto": "INTERNET",
                "meio-de-acesso": "Fibra",
                "quantidade-acesso": 4678
            }
        ]
    },
    {
        "cidade": "Rondonópolis",
        "uf": "MT",
        "latitude": -16.467251,
        "longitude": -54.637173,
        "empresa": "OI",
        "cnpj": 76535764000143.0,
        "pf-ou-pj": "Pessoa Física",
        "info-tecnologia": [
            {
                "tecnologia": "FTTH",
                "tipo-de-Produto": "INTERNET",
                "meio-de-acesso": "Fibra",
                "quantidade-acesso": 31187
            }
        ]
    },
    {
        "cidade": "Sinop",
        "uf": "MT",
        "latitude": -11.86043,
        "longitude": -55.509062,
        "empresa": "OI",
        "cnpj": 76535764000143.0,
        "pf-ou-pj": "Pessoa Física",
        "info-tecnologia": [
            {
                "tecnologia": "FTTH",
                "tipo-de-Produto": "INTERNET",
                "meio-de-acesso": "Fibra",
                "quantidade-acesso": 5641
            }
        ]
    },
    {
        "cidade": "Tangará da Serra",
        "uf": "MT",
        "latitude": -14.62291,
        "longitude": -57.493278,
        "empresa": "OI",
        "cnpj": 76535764000143.0,
        "pf-ou-pj": "Pessoa Física",
        "info-tecnologia": [
            {
                "tecnologia": "FTTH",
                "tipo-de-Produto": "INTERNET",
                "meio-de-acesso": "Fibra",
                "quantidade-acesso": 1481
            }
        ]
    },
    {
        "cidade": "Várzea Grande",
        "uf": "MT",
        "latitude": -15.645816,
        "longitude": -56.132218,
        "empresa": "OI",
        "cnpj": 76535764000143.0,
        "pf-ou-pj": "Pessoa Física",
        "info-tecnologia": [
            {
                "tecnologia": "FTTH",
                "tipo-de-Produto": "INTERNET",
                "meio-de-acesso": "Fibra",
                "quantidade-acesso": 10923
            }
        ]
    }
]