[
    {
        "cidade": "Angra dos Reis",
        "uf": "RJ",
        "latitude": -23.001074,
        "longitude": -44.31956,
        "empresa": "OI",
        "cnpj": 76535764000143.0,
        "pf-ou-pj": "Pessoa Física",
        "info-tecnologia": [
            {
                "tecnologia": "FTTH",
                "tipo-de-Produto": "INTERNET",
                "meio-de-acesso": "Fibra",
                "quantidade-acesso": 16289
            }
        ]
    },
    {
        "cidade": "Araruama",
        "uf": "RJ",
        "latitude": -22.869651,
        "longitude": -42.332625,
        "empresa": "OI",
        "cnpj": 76535764000143.0,
        "pf-ou-pj": "Pessoa Física",
        "info-tecnologia": [
            {
                "tecnologia": "FTTH",
                "tipo-de-Produto": "INTERNET",
                "meio-de-acesso": "Fibra",
                "quantidade-acesso": 2333
            }
        ]
    },
    {
        "cidade": "Armação dos Búzios",
        "uf": "RJ",
        "latitude": -22.752846,
        "longitude": -41.884559,
        "empresa": "OI",
        "cnpj": 76535764000143.0,
        "pf-ou-pj": "Pessoa Física",
        "info-tecnologia": [
            {
                "tecnologia": "FTTH",
                "tipo-de-Produto": "INTERNET",
                "meio-de-acesso": "Fibra",
                "quantidade-acesso": 9550
            }
        ]
    },
    {
        "cidade": "Barra Mansa",
        "uf": "RJ",
        "latitude": -22.548084,
        "longitude": -44.175241,
        "empresa": "OI",
        "cnpj": 76535764000143.0,
        "pf-ou-pj": "Pessoa Física",
        "info-tecnologia": [
            {
                "tecnologia": "FTTH",
                "tipo-de-Produto": "INTERNET",
                "meio-de-acesso": "Fibra",
                "quantidade-acesso": 3444
            }
        ]
    },
    {
        "cidade": "Barra do Piraí",
        "uf": "RJ",
        "latitude": -22.471531,
        "longitude": -43.826918,
        "empresa": "OI",
        "cnpj": 76535764000143.0,
        "pf-ou-pj": "Pessoa Física",
        "info-tecnologia": [
            {
                "tecnologia": "FTTH",
                "tipo-de-Produto": "INTERNET",
                "meio-de-acesso": "Fibra",
                "quantidade-acesso": 5710
            }
        ]
    },
    {
        "cidade": "Belford Roxo",
        "uf": "RJ",
        "latitude": -22.764042,
        "longitude": -43.39921,
        "empresa": "OI",
        "cnpj": 76535764000143.0,
        "pf-ou-pj": "Pessoa Física",
        "info-tecnologia": [
            {
                "tecnologia": "FTTH",
                "tipo-de-Produto": "INTERNET",
                "meio-de-acesso": "Fibra",
                "quantidade-acesso": 24042
            }
        ]
    },
    {
        "cidade": "Cabo Frio",
        "uf": "RJ",
        "latitude": -22.88943,
        "longitude": -42.028595,
        "empresa": "OI",
        "cnpj": 76535764000143.0,
        "pf-ou-pj": "Pessoa Física",
        "info-tecnologia": [
            {
                "tecnologia": "FTTH",
                "tipo-de-Produto": "INTERNET",
                "meio-de-acesso": "Fibra",
                "quantidade-acesso": 23520
            }
        ]
    },
    {
        "cidade": "Campos dos Goytacazes",
        "uf": "RJ",
        "latitude": -21.762171,
        "longitude": -41.318055,
        "empresa": "OI",
        "cnpj": 76535764000143.0,
        "pf-ou-pj": "Pessoa Física",
        "info-tecnologia": [
            {
                "tecnologia": "FTTH",
                "tipo-de-Produto": "INTERNET",
                "meio-de-acesso": "Fibra",
                "quantidade-acesso": 7153
            }
        ]
    },
    {
        "cidade": "Casimiro de Abreu",
        "uf": "RJ",
        "latitude": -22.481235,
        "longitude": -42.206589,
        "empresa": "OI",
        "cnpj": 76535764000143.0,
        "pf-ou-pj": "Pessoa Física",
        "info-tecnologia": [
            {
                "tecnologia": "FTTH",
                "tipo-de-Produto": "INTERNET",
                "meio-de-acesso": "Fibra",
                "quantidade-acesso": 1076
            }
        ]
    },
    {
        "cidade": "Duque de Caxias",
        "uf": "RJ",
        "latitude": -22.785801,
        "longitude": -43.304895,
        "empresa": "OI",
        "cnpj": 76535764000143.0,
        "pf-ou-pj": "Pessoa Física",
        "info-tecnologia": [
            {
                "tecnologia": "FTTH",
                "tipo-de-Produto": "INTERNET",
                "meio-de-acesso": "Fibra",
                "quantidade-acesso": 63863
            }
        ]
    },
    {
        "cidade": "Itaboraí",
        "uf": "RJ",
        "latitude": -22.756504,
        "longitude": -42.863905,
        "empresa": "OI",
        "cnpj": 76535764000143.0,
        "pf-ou-pj": "Pessoa Física",
        "info-tecnologia": [
            {
                "tecnologia": "FTTH",
                "tipo-de-Produto": "INTERNET",
                "meio-de-acesso": "Fibra",
                "quantidade-acesso": 4
            }
        ]
    },
    {
        "cidade": "Itaguaí",
        "uf": "RJ",
        "latitude": -22.863566,
        "longitude": -43.779821,
        "empresa": "OI",
        "cnpj": 76535764000143.0,
        "pf-ou-pj": "Pessoa Física",
        "info-tecnologia": [
            {
                "tecnologia": "FTTH",
                "tipo-de-Produto": "INTERNET",
                "meio-de-acesso": "Fibra",
                "quantidade-acesso": 6529
            }
        ]
    },
    {
        "cidade": "Mangaratiba",
        "uf": "RJ",
        "latitude": -22.959402,
        "longitude": -44.040892,
        "empresa": "OI",
        "cnpj": 76535764000143.0,
        "pf-ou-pj": "Pessoa Física",
        "info-tecnologia": [
            {
                "tecnologia": "FTTH",
                "tipo-de-Produto": "INTERNET",
                "meio-de-acesso": "Fibra",
                "quantidade-acesso": 1718
            }
        ]
    },
    {
        "cidade": "Maricá",
        "uf": "RJ",
        "latitude": -22.935434,
        "longitude": -42.824587,
        "empresa": "OI",
        "cnpj": 76535764000143.0,
        "pf-ou-pj": "Pessoa Física",
        "info-tecnologia": [
            {
                "tecnologia": "FTTH",
                "tipo-de-Produto": "INTERNET",
                "meio-de-acesso": "Fibra",
                "quantidade-acesso": 3682
            }
        ]
    },
    {
        "cidade": "Mesquita",
        "uf": "RJ",
        "latitude": -22.802811,
        "longitude": -43.460066,
        "empresa": "OI",
        "cnpj": 76535764000143.0,
        "pf-ou-pj": "Pessoa Física",
        "info-tecnologia": [
            {
                "tecnologia": "FTTH",
                "tipo-de-Produto": "INTERNET",
                "meio-de-acesso": "Fibra",
                "quantidade-acesso": 15275
            }
        ]
    },
    {
        "cidade": "Nilópolis",
        "uf": "RJ",
        "latitude": -22.805658,
        "longitude": -43.423344,
        "empresa": "OI",
        "cnpj": 76535764000143.0,
        "pf-ou-pj": "Pessoa Física",
        "info-tecnologia": [
            {
                "tecnologia": "FTTH",
                "tipo-de-Produto": "INTERNET",
                "meio-de-acesso": "Fibra",
                "quantidade-acesso": 26908
            }
        ]
    },
    {
        "cidade": "Niterói",
        "uf": "RJ",
        "latitude": -22.88321,
        "longitude": -43.103367,
        "empresa": "OI",
        "cnpj": 76535764000143.0,
        "pf-ou-pj": "Pessoa Física",
        "info-tecnologia": [
            {
                "tecnologia": "FTTH",
                "tipo-de-Produto": "INTERNET",
                "meio-de-acesso": "Fibra",
                "quantidade-acesso": 28181
            }
        ]
    },
    {
        "cidade": "Nova Friburgo",
        "uf": "RJ",
        "latitude": -22.293224,
        "longitude": -42.537692,
        "empresa": "OI",
        "cnpj": 76535764000143.0,
        "pf-ou-pj": "Pessoa Física",
        "info-tecnologia": [
            {
                "tecnologia": "FTTH",
                "tipo-de-Produto": "INTERNET",
                "meio-de-acesso": "Fibra",
                "quantidade-acesso": 1415
            }
        ]
    },
    {
        "cidade": "Nova Iguaçu",
        "uf": "RJ",
        "latitude": -22.755635,
        "longitude": -43.460325,
        "empresa": "OI",
        "cnpj": 76535764000143.0,
        "pf-ou-pj": "Pessoa Física",
        "info-tecnologia": [
            {
                "tecnologia": "FTTH",
                "tipo-de-Produto": "INTERNET",
                "meio-de-acesso": "Fibra",
                "quantidade-acesso": 35523
            }
        ]
    },
    {
        "cidade": "Paracambi",
        "uf": "RJ",
        "latitude": -22.607811,
        "longitude": -43.710836,
        "empresa": "OI",
        "cnpj": 76535764000143.0,
        "pf-ou-pj": "Pessoa Física",
        "info-tecnologia": [
            {
                "tecnologia": "FTTH",
                "tipo-de-Produto": "INTERNET",
                "meio-de-acesso": "Fibra",
                "quantidade-acesso": 1447
            }
        ]
    },
    {
        "cidade": "Petrópolis",
        "uf": "RJ",
        "latitude": -22.519963,
        "longitude": -43.192613,
        "empresa": "OI",
        "cnpj": 76535764000143.0,
        "pf-ou-pj": "Pessoa Física",
        "info-tecnologia": [
            {
                "tecnologia": "FTTH",
                "tipo-de-Produto": "INTERNET",
                "meio-de-acesso": "Fibra",
                "quantidade-acesso": 43650
            }
        ]
    },
    {
        "cidade": "Pinheiral",
        "uf": "RJ",
        "latitude": -22.517211,
        "longitude": -44.002151,
        "empresa": "OI",
        "cnpj": 76535764000143.0,
        "pf-ou-pj": "Pessoa Física",
        "info-tecnologia": [
            {
                "tecnologia": "FTTH",
                "tipo-de-Produto": "INTERNET",
                "meio-de-acesso": "Fibra",
                "quantidade-acesso": 971
            }
        ]
    },
    {
        "cidade": "Piraí",
        "uf": "RJ",
        "latitude": -22.621497,
        "longitude": -43.908071,
        "empresa": "OI",
        "cnpj": 76535764000143.0,
        "pf-ou-pj": "Pessoa Física",
        "info-tecnologia": [
            {
                "tecnologia": "FTTH",
                "tipo-de-Produto": "INTERNET",
                "meio-de-acesso": "Fibra",
                "quantidade-acesso": 81
            }
        ]
    },
    {
        "cidade": "Queimados",
        "uf": "RJ",
        "latitude": -22.710172,
        "longitude": -43.551808,
        "empresa": "OI",
        "cnpj": 76535764000143.0,
        "pf-ou-pj": "Pessoa Física",
        "info-tecnologia": [
            {
                "tecnologia": "FTTH",
                "tipo-de-Produto": "INTERNET",
                "meio-de-acesso": "Fibra",
                "quantidade-acesso": 16059
            }
        ]
    },
    {
        "cidade": "Resende",
        "uf": "RJ",
        "latitude": -22.470473,
        "longitude": -44.45091,
        "empresa": "OI",
        "cnpj": 76535764000143.0,
        "pf-ou-pj": "Pessoa Física",
        "info-tecnologia": [
            {
                "tecnologia": "FTTH",
                "tipo-de-Produto": "INTERNET",
                "meio-de-acesso": "Fibra",
                "quantidade-acesso": 1376
            }
        ]
    },
    {
        "cidade": "Rio de Janeiro",
        "uf": "RJ",
        "latitude": -22.912897,
        "longitude": -43.200295,
        "empresa": "OI",
        "cnpj": 76535764000143.0,
        "pf-ou-pj": "Pessoa Física",
        "info-tecnologia": [
            {
                "tecnologia": "FTTH",
                "tipo-de-Produto": "INTERNET",
                "meio-de-acesso": "Fibra",
                "quantidade-acesso": 242325
            }
        ]
    },
    {
        "cidade": "Saquarema",
        "uf": "RJ",
        "latitude": -22.929181,
        "longitude": -42.509936,
        "empresa": "OI",
        "cnpj": 76535764000143.0,
        "pf-ou-pj": "Pessoa Física",
        "info-tecnologia": [
            {
                "tecnologia": "FTTH",
                "tipo-de-Produto": "INTERNET",
                "meio-de-acesso": "Fibra",
                "quantidade-acesso": 207
            }
        ]
    },
    {
        "cidade": "Seropédica",
        "uf": "RJ",
        "latitude": -22.752584,
        "longitude": -43.715482,
        "empresa": "OI",
        "cnpj": 76535764000143.0,
        "pf-ou-pj": "Pessoa Física",
        "info-tecnologia": [
            {
                "tecnologia": "FTTH",
                "tipo-de-Produto": "INTERNET",
                "meio-de-acesso": "Fibra",
                "quantidade-acesso": 2
            }
        ]
    },
    {
        "cidade": "São Gonçalo",
        "uf": "RJ",
        "latitude": -22.82679,
        "longitude": -43.063351,
        "empresa": "OI",
        "cnpj": 76535764000143.0,
        "pf-ou-pj": "Pessoa Física",
        "info-tecnologia": [
            {
                "tecnologia": "FTTH",
                "tipo-de-Produto": "INTERNET",
                "meio-de-acesso": "Fibra",
                "quantidade-acesso": 21091
            }
        ]
    },
    {
        "cidade": "São João de Meriti",
        "uf": "RJ",
        "latitude": -22.805776,
        "longitude": -43.37292,
        "empresa": "OI",
        "cnpj": 76535764000143.0,
        "pf-ou-pj": "Pessoa Física",
        "info-tecnologia": [
            {
                "tecnologia": "FTTH",
                "tipo-de-Produto": "INTERNET",
                "meio-de-acesso": "Fibra",
                "quantidade-acesso": 58658
            }
        ]
    },
    {
        "cidade": "São Pedro da Aldeia",
        "uf": "RJ",
        "latitude": -22.842859,
        "longitude": -42.102596,
        "empresa": "OI",
        "cnpj": 76535764000143.0,
        "pf-ou-pj": "Pessoa Física",
        "info-tecnologia": [
            {
                "tecnologia": "FTTH",
                "tipo-de-Produto": "INTERNET",
                "meio-de-acesso": "Fibra",
                "quantidade-acesso": 2856
            }
        ]
    },
    {
        "cidade": "Tanguá",
        "uf": "RJ",
        "latitude": -22.742305,
        "longitude": -42.720189,
        "empresa": "OI",
        "cnpj": 76535764000143.0,
        "pf-ou-pj": "Pessoa Física",
        "info-tecnologia": [
            {
                "tecnologia": "FTTH",
                "tipo-de-Produto": "INTERNET",
                "meio-de-acesso": "Fibra",
                "quantidade-acesso": 12
            }
        ]
    },
    {
        "cidade": "Teresópolis",
        "uf": "RJ",
        "latitude": -22.416464,
        "longitude": -42.97519,
        "empresa": "OI",
        "cnpj": 76535764000143.0,
        "pf-ou-pj": "Pessoa Física",
        "info-tecnologia": [
            {
                "tecnologia": "FTTH",
                "tipo-de-Produto": "INTERNET",
                "meio-de-acesso": "Fibra",
                "quantidade-acesso": 6056
            }
        ]
    },
    {
        "cidade": "Valença",
        "uf": "RJ",
        "latitude": -22.244496,
        "longitude": -43.71288,
        "empresa": "OI",
        "cnpj": 76535764000143.0,
        "pf-ou-pj": "Pessoa Física",
        "info-tecnologia": [
            {
                "tecnologia": "FTTH",
                "tipo-de-Produto": "INTERNET",
                "meio-de-acesso": "Fibra",
                "quantidade-acesso": 4851
            }
        ]
    },
    {
        "cidade": "Volta Redonda",
        "uf": "RJ",
        "latitude": -22.520212,
        "longitude": -44.099555,
        "empresa": "OI",
        "cnpj": 76535764000143.0,
        "pf-ou-pj": "Pessoa Física",
        "info-tecnologia": [
            {
                "tecnologia": "FTTH",
                "tipo-de-Produto": "INTERNET",
                "meio-de-acesso": "Fibra",
                "quantidade-acesso": 28806
            }
        ]
    }
]