[
    {
        "cidade": "Aparecida de Goiânia",
        "uf": "GO",
        "latitude": -16.819804,
        "longitude": -49.246856,
        "empresa": "SKY/AT&T",
        "pf-ou-pj": "Pessoa Jurídica",
        "tecnologia": "LTE",
        "tipo-de-Produto": "INTERNET",
        "meio-de-acesso": "Rádio"
    },
    {
        "cidade": "Formosa",
        "uf": "GO",
        "latitude": -15.539991,
        "longitude": -47.336999,
        "empresa": "SKY/AT&T",
        "pf-ou-pj": "Pessoa Jurídica",
        "tecnologia": "LTE",
        "tipo-de-Produto": "INTERNET",
        "meio-de-acesso": "Rádio"
    },
    {
        "cidade": "Goiânia",
        "uf": "GO",
        "latitude": -16.686439,
        "longitude": -49.264346,
        "empresa": "SKY/AT&T",
        "pf-ou-pj": "Pessoa Jurídica",
        "tecnologia": "LTE",
        "tipo-de-Produto": "INTERNET",
        "meio-de-acesso": "Rádio"
    },
    {
        "cidade": "Luziânia",
        "uf": "GO",
        "latitude": -16.253,
        "longitude": -47.95,
        "empresa": "SKY/AT&T",
        "pf-ou-pj": "Pessoa Jurídica",
        "tecnologia": "LTE",
        "tipo-de-Produto": "INTERNET",
        "meio-de-acesso": "Rádio"
    },
    {
        "cidade": "Mineiros",
        "uf": "GO",
        "latitude": -17.565388,
        "longitude": -52.553672,
        "empresa": "SKY/AT&T",
        "pf-ou-pj": "Pessoa Jurídica",
        "tecnologia": "FTTH",
        "tipo-de-Produto": "INTERNET",
        "meio-de-acesso": "Fibra"
    }
]