[
    {
        "cidade": "Balneário Camboriú",
        "uf": "SC",
        "latitude": -26.992594,
        "longitude": -48.635152,
        "empresa": "SKY/AT&T",
        "pf-ou-pj": "Pessoa Física",
        "tecnologia": "LTE",
        "tipo-de-Produto": "INTERNET",
        "meio-de-acesso": "Rádio"
    },
    {
        "cidade": "Blumenau",
        "uf": "SC",
        "latitude": -26.915501,
        "longitude": -49.070904,
        "empresa": "SKY/AT&T",
        "pf-ou-pj": "Pessoa Física",
        "tecnologia": "LTE",
        "tipo-de-Produto": "INTERNET",
        "meio-de-acesso": "Rádio"
    },
    {
        "cidade": "Concórdia",
        "uf": "SC",
        "latitude": -27.233461,
        "longitude": -52.025962,
        "empresa": "SKY/AT&T",
        "pf-ou-pj": "Pessoa Física",
        "tecnologia": "FTTH",
        "tipo-de-Produto": "INTERNET",
        "meio-de-acesso": "Fibra"
    },
    {
        "cidade": "Garopaba",
        "uf": "SC",
        "latitude": -28.01856,
        "longitude": -48.619896,
        "empresa": "SKY/AT&T",
        "pf-ou-pj": "Pessoa Física",
        "tecnologia": "LTE",
        "tipo-de-Produto": "INTERNET",
        "meio-de-acesso": "Rádio"
    },
    {
        "cidade": "Gaspar",
        "uf": "SC",
        "latitude": -26.933597,
        "longitude": -48.953428,
        "empresa": "SKY/AT&T",
        "pf-ou-pj": "Pessoa Física",
        "tecnologia": "LTE",
        "tipo-de-Produto": "INTERNET",
        "meio-de-acesso": "Rádio"
    },
    {
        "cidade": "Imbituba",
        "uf": "SC",
        "latitude": -28.228367,
        "longitude": -48.665884,
        "empresa": "SKY/AT&T",
        "pf-ou-pj": "Pessoa Física",
        "tecnologia": "FTTH",
        "tipo-de-Produto": "INTERNET",
        "meio-de-acesso": "Fibra"
    },
    {
        "cidade": "Itapema",
        "uf": "SC",
        "latitude": -27.08607,
        "longitude": -48.616038,
        "empresa": "SKY/AT&T",
        "pf-ou-pj": "Pessoa Física",
        "tecnologia": "LTE",
        "tipo-de-Produto": "INTERNET",
        "meio-de-acesso": "Rádio"
    },
    {
        "cidade": "Mafra",
        "uf": "SC",
        "latitude": -26.115935,
        "longitude": -49.808624,
        "empresa": "SKY/AT&T",
        "pf-ou-pj": "Pessoa Física",
        "tecnologia": "FTTH",
        "tipo-de-Produto": "INTERNET",
        "meio-de-acesso": "Fibra"
    },
    {
        "cidade": "Navegantes",
        "uf": "SC",
        "latitude": -26.894293,
        "longitude": -48.654593,
        "empresa": "SKY/AT&T",
        "pf-ou-pj": "Pessoa Física",
        "tecnologia": "FTTH",
        "tipo-de-Produto": "INTERNET",
        "meio-de-acesso": "Fibra"
    },
    {
        "cidade": "Navegantes",
        "uf": "SC",
        "latitude": -26.894293,
        "longitude": -48.654593,
        "empresa": "SKY/AT&T",
        "pf-ou-pj": "Pessoa Física",
        "tecnologia": "LTE",
        "tipo-de-Produto": "INTERNET",
        "meio-de-acesso": "Rádio"
    },
    {
        "cidade": "São Bento do Sul",
        "uf": "SC",
        "latitude": -26.249542,
        "longitude": -49.383077,
        "empresa": "SKY/AT&T",
        "pf-ou-pj": "Pessoa Física",
        "tecnologia": "FTTH",
        "tipo-de-Produto": "INTERNET",
        "meio-de-acesso": "Fibra"
    },
    {
        "cidade": "São Bento do Sul",
        "uf": "SC",
        "latitude": -26.249542,
        "longitude": -49.383077,
        "empresa": "SKY/AT&T",
        "pf-ou-pj": "Pessoa Física",
        "tecnologia": "LTE",
        "tipo-de-Produto": "INTERNET",
        "meio-de-acesso": "Rádio"
    }
]