[
    {
        "cidade": "Abadia de Goiás",
        "uf": "GO",
        "latitude": -16.757326,
        "longitude": -49.441156,
        "empresa": "SKY/AT&T",
        "pf-ou-pj": "Pessoa Física",
        "tecnologia": "LTE",
        "tipo-de-Produto": "INTERNET",
        "meio-de-acesso": "Rádio"
    },
    {
        "cidade": "Anápolis",
        "uf": "GO",
        "latitude": -16.328095,
        "longitude": -48.952958,
        "empresa": "SKY/AT&T",
        "pf-ou-pj": "Pessoa Física",
        "tecnologia": "LTE",
        "tipo-de-Produto": "INTERNET",
        "meio-de-acesso": "Rádio"
    },
    {
        "cidade": "Aparecida de Goiânia",
        "uf": "GO",
        "latitude": -16.819804,
        "longitude": -49.246856,
        "empresa": "SKY/AT&T",
        "pf-ou-pj": "Pessoa Física",
        "tecnologia": "LTE",
        "tipo-de-Produto": "INTERNET",
        "meio-de-acesso": "Rádio"
    },
    {
        "cidade": "Aragoiânia",
        "uf": "GO",
        "latitude": -16.908699,
        "longitude": -49.447649,
        "empresa": "SKY/AT&T",
        "pf-ou-pj": "Pessoa Física",
        "tecnologia": "LTE",
        "tipo-de-Produto": "INTERNET",
        "meio-de-acesso": "Rádio"
    },
    {
        "cidade": "Cidade Ocidental",
        "uf": "GO",
        "latitude": -16.076469,
        "longitude": -47.925211,
        "empresa": "SKY/AT&T",
        "pf-ou-pj": "Pessoa Física",
        "tecnologia": "LTE",
        "tipo-de-Produto": "INTERNET",
        "meio-de-acesso": "Rádio"
    },
    {
        "cidade": "Cristalina",
        "uf": "GO",
        "latitude": -16.767608,
        "longitude": -47.613128,
        "empresa": "SKY/AT&T",
        "pf-ou-pj": "Pessoa Física",
        "tecnologia": "LTE",
        "tipo-de-Produto": "INTERNET",
        "meio-de-acesso": "Rádio"
    },
    {
        "cidade": "Crixás",
        "uf": "GO",
        "latitude": -14.541194,
        "longitude": -49.973977,
        "empresa": "SKY/AT&T",
        "pf-ou-pj": "Pessoa Física",
        "tecnologia": "LTE",
        "tipo-de-Produto": "INTERNET",
        "meio-de-acesso": "Rádio"
    },
    {
        "cidade": "Davinópolis",
        "uf": "GO",
        "latitude": -18.150084,
        "longitude": -47.556795,
        "empresa": "SKY/AT&T",
        "pf-ou-pj": "Pessoa Física",
        "tecnologia": "LTE",
        "tipo-de-Produto": "INTERNET",
        "meio-de-acesso": "Rádio"
    },
    {
        "cidade": "Formosa",
        "uf": "GO",
        "latitude": -15.539991,
        "longitude": -47.336999,
        "empresa": "SKY/AT&T",
        "pf-ou-pj": "Pessoa Física",
        "tecnologia": "LTE",
        "tipo-de-Produto": "INTERNET",
        "meio-de-acesso": "Rádio"
    },
    {
        "cidade": "Goianira",
        "uf": "GO",
        "latitude": -16.494746,
        "longitude": -49.426998,
        "empresa": "SKY/AT&T",
        "pf-ou-pj": "Pessoa Física",
        "tecnologia": "LTE",
        "tipo-de-Produto": "INTERNET",
        "meio-de-acesso": "Rádio"
    },
    {
        "cidade": "Goiânia",
        "uf": "GO",
        "latitude": -16.686439,
        "longitude": -49.264346,
        "empresa": "SKY/AT&T",
        "pf-ou-pj": "Pessoa Física",
        "tecnologia": "LTE",
        "tipo-de-Produto": "INTERNET",
        "meio-de-acesso": "Rádio"
    },
    {
        "cidade": "Hidrolândia",
        "uf": "GO",
        "latitude": -16.962587,
        "longitude": -49.226535,
        "empresa": "SKY/AT&T",
        "pf-ou-pj": "Pessoa Física",
        "tecnologia": "LTE",
        "tipo-de-Produto": "INTERNET",
        "meio-de-acesso": "Rádio"
    },
    {
        "cidade": "Itumbiara",
        "uf": "GO",
        "latitude": -18.409267,
        "longitude": -49.215845,
        "empresa": "SKY/AT&T",
        "pf-ou-pj": "Pessoa Física",
        "tecnologia": "LTE",
        "tipo-de-Produto": "INTERNET",
        "meio-de-acesso": "Rádio"
    },
    {
        "cidade": "Jataí",
        "uf": "GO",
        "latitude": -17.878383,
        "longitude": -51.720424,
        "empresa": "SKY/AT&T",
        "pf-ou-pj": "Pessoa Física",
        "tecnologia": "FTTH",
        "tipo-de-Produto": "INTERNET",
        "meio-de-acesso": "Fibra"
    },
    {
        "cidade": "Jataí",
        "uf": "GO",
        "latitude": -17.878383,
        "longitude": -51.720424,
        "empresa": "SKY/AT&T",
        "pf-ou-pj": "Pessoa Física",
        "tecnologia": "LTE",
        "tipo-de-Produto": "INTERNET",
        "meio-de-acesso": "Rádio"
    },
    {
        "cidade": "Luziânia",
        "uf": "GO",
        "latitude": -16.253,
        "longitude": -47.95,
        "empresa": "SKY/AT&T",
        "pf-ou-pj": "Pessoa Física",
        "tecnologia": "LTE",
        "tipo-de-Produto": "INTERNET",
        "meio-de-acesso": "Rádio"
    },
    {
        "cidade": "Mineiros",
        "uf": "GO",
        "latitude": -17.565388,
        "longitude": -52.553672,
        "empresa": "SKY/AT&T",
        "pf-ou-pj": "Pessoa Física",
        "tecnologia": "FTTH",
        "tipo-de-Produto": "INTERNET",
        "meio-de-acesso": "Fibra"
    },
    {
        "cidade": "Mineiros",
        "uf": "GO",
        "latitude": -17.565388,
        "longitude": -52.553672,
        "empresa": "SKY/AT&T",
        "pf-ou-pj": "Pessoa Física",
        "tecnologia": "LTE",
        "tipo-de-Produto": "INTERNET",
        "meio-de-acesso": "Rádio"
    },
    {
        "cidade": "Novo Gama",
        "uf": "GO",
        "latitude": -16.059185,
        "longitude": -48.041662,
        "empresa": "SKY/AT&T",
        "pf-ou-pj": "Pessoa Física",
        "tecnologia": "LTE",
        "tipo-de-Produto": "INTERNET",
        "meio-de-acesso": "Rádio"
    },
    {
        "cidade": "Orizona",
        "uf": "GO",
        "latitude": -17.033356,
        "longitude": -48.29641,
        "empresa": "SKY/AT&T",
        "pf-ou-pj": "Pessoa Física",
        "tecnologia": "LTE",
        "tipo-de-Produto": "INTERNET",
        "meio-de-acesso": "Rádio"
    },
    {
        "cidade": "Palminópolis",
        "uf": "GO",
        "latitude": -16.79243,
        "longitude": -50.16524,
        "empresa": "SKY/AT&T",
        "pf-ou-pj": "Pessoa Física",
        "tecnologia": "LTE",
        "tipo-de-Produto": "INTERNET",
        "meio-de-acesso": "Rádio"
    },
    {
        "cidade": "Pirenópolis",
        "uf": "GO",
        "latitude": -15.8507,
        "longitude": -48.95843,
        "empresa": "SKY/AT&T",
        "pf-ou-pj": "Pessoa Física",
        "tecnologia": "LTE",
        "tipo-de-Produto": "INTERNET",
        "meio-de-acesso": "Rádio"
    },
    {
        "cidade": "Pires do Rio",
        "uf": "GO",
        "latitude": -17.301901,
        "longitude": -48.276756,
        "empresa": "SKY/AT&T",
        "pf-ou-pj": "Pessoa Física",
        "tecnologia": "LTE",
        "tipo-de-Produto": "INTERNET",
        "meio-de-acesso": "Rádio"
    },
    {
        "cidade": "Planaltina",
        "uf": "GO",
        "latitude": -15.452033,
        "longitude": -47.608885,
        "empresa": "SKY/AT&T",
        "pf-ou-pj": "Pessoa Física",
        "tecnologia": "LTE",
        "tipo-de-Produto": "INTERNET",
        "meio-de-acesso": "Rádio"
    },
    {
        "cidade": "Pontalina",
        "uf": "GO",
        "latitude": -17.522513,
        "longitude": -49.44894,
        "empresa": "SKY/AT&T",
        "pf-ou-pj": "Pessoa Física",
        "tecnologia": "LTE",
        "tipo-de-Produto": "INTERNET",
        "meio-de-acesso": "Rádio"
    },
    {
        "cidade": "Rio Verde",
        "uf": "GO",
        "latitude": -17.792266,
        "longitude": -50.919195,
        "empresa": "SKY/AT&T",
        "pf-ou-pj": "Pessoa Física",
        "tecnologia": "LTE",
        "tipo-de-Produto": "INTERNET",
        "meio-de-acesso": "Rádio"
    },
    {
        "cidade": "Senador Canedo",
        "uf": "GO",
        "latitude": -16.708401,
        "longitude": -49.091398,
        "empresa": "SKY/AT&T",
        "pf-ou-pj": "Pessoa Física",
        "tecnologia": "LTE",
        "tipo-de-Produto": "INTERNET",
        "meio-de-acesso": "Rádio"
    },
    {
        "cidade": "São João d'Aliança",
        "uf": "GO",
        "latitude": null,
        "longitude": null,
        "empresa": "SKY/AT&T",
        "pf-ou-pj": "Pessoa Física",
        "tecnologia": "LTE",
        "tipo-de-Produto": "INTERNET",
        "meio-de-acesso": "Rádio"
    },
    {
        "cidade": "Trindade",
        "uf": "GO",
        "latitude": -16.651708,
        "longitude": -49.492667,
        "empresa": "SKY/AT&T",
        "pf-ou-pj": "Pessoa Física",
        "tecnologia": "LTE",
        "tipo-de-Produto": "INTERNET",
        "meio-de-acesso": "Rádio"
    },
    {
        "cidade": "Valparaíso de Goiás",
        "uf": "GO",
        "latitude": -16.065078,
        "longitude": -47.975675,
        "empresa": "SKY/AT&T",
        "pf-ou-pj": "Pessoa Física",
        "tecnologia": "LTE",
        "tipo-de-Produto": "INTERNET",
        "meio-de-acesso": "Rádio"
    },
    {
        "cidade": "Varjão",
        "uf": "GO",
        "latitude": -17.047062,
        "longitude": -49.631229,
        "empresa": "SKY/AT&T",
        "pf-ou-pj": "Pessoa Física",
        "tecnologia": "LTE",
        "tipo-de-Produto": "INTERNET",
        "meio-de-acesso": "Rádio"
    },
    {
        "cidade": "Vila Boa",
        "uf": "GO",
        "latitude": -15.038705,
        "longitude": -47.052029,
        "empresa": "SKY/AT&T",
        "pf-ou-pj": "Pessoa Física",
        "tecnologia": "LTE",
        "tipo-de-Produto": "INTERNET",
        "meio-de-acesso": "Rádio"
    },
    {
        "cidade": "Águas Lindas de Goiás",
        "uf": "GO",
        "latitude": -15.761746,
        "longitude": -48.281611,
        "empresa": "SKY/AT&T",
        "pf-ou-pj": "Pessoa Física",
        "tecnologia": "LTE",
        "tipo-de-Produto": "INTERNET",
        "meio-de-acesso": "Rádio"
    }
]