[
    {
        "cidade": "Campo Largo",
        "uf": "PR",
        "latitude": -25.452535,
        "longitude": -49.529026,
        "empresa": "SKY/AT&T",
        "pf-ou-pj": "Pessoa Física",
        "tecnologia": "LTE",
        "tipo-de-Produto": "INTERNET",
        "meio-de-acesso": "Rádio"
    },
    {
        "cidade": "Curitiba",
        "uf": "PR",
        "latitude": -25.419547,
        "longitude": -49.264622,
        "empresa": "SKY/AT&T",
        "pf-ou-pj": "Pessoa Física",
        "tecnologia": "LTE",
        "tipo-de-Produto": "INTERNET",
        "meio-de-acesso": "Rádio"
    },
    {
        "cidade": "Foz do Iguaçu",
        "uf": "PR",
        "latitude": -25.542748,
        "longitude": -54.582689,
        "empresa": "SKY/AT&T",
        "pf-ou-pj": "Pessoa Física",
        "tecnologia": "LTE",
        "tipo-de-Produto": "INTERNET",
        "meio-de-acesso": "Rádio"
    },
    {
        "cidade": "Guarapuava",
        "uf": "PR",
        "latitude": -25.390237,
        "longitude": -51.462317,
        "empresa": "SKY/AT&T",
        "pf-ou-pj": "Pessoa Física",
        "tecnologia": "LTE",
        "tipo-de-Produto": "INTERNET",
        "meio-de-acesso": "Rádio"
    },
    {
        "cidade": "Paranaguá",
        "uf": "PR",
        "latitude": -25.516078,
        "longitude": -48.522528,
        "empresa": "SKY/AT&T",
        "pf-ou-pj": "Pessoa Física",
        "tecnologia": "LTE",
        "tipo-de-Produto": "INTERNET",
        "meio-de-acesso": "Rádio"
    },
    {
        "cidade": "Pato Branco",
        "uf": "PR",
        "latitude": -26.229237,
        "longitude": -52.67063,
        "empresa": "SKY/AT&T",
        "pf-ou-pj": "Pessoa Física",
        "tecnologia": "LTE",
        "tipo-de-Produto": "INTERNET",
        "meio-de-acesso": "Rádio"
    },
    {
        "cidade": "Pontal do Paraná",
        "uf": "PR",
        "latitude": -25.673533,
        "longitude": -48.511062,
        "empresa": "SKY/AT&T",
        "pf-ou-pj": "Pessoa Física",
        "tecnologia": "LTE",
        "tipo-de-Produto": "INTERNET",
        "meio-de-acesso": "Rádio"
    },
    {
        "cidade": "São José dos Pinhais",
        "uf": "PR",
        "latitude": -25.531343,
        "longitude": -49.203097,
        "empresa": "SKY/AT&T",
        "pf-ou-pj": "Pessoa Física",
        "tecnologia": "LTE",
        "tipo-de-Produto": "INTERNET",
        "meio-de-acesso": "Rádio"
    },
    {
        "cidade": "Umuarama",
        "uf": "PR",
        "latitude": -23.765634,
        "longitude": -53.32011,
        "empresa": "SKY/AT&T",
        "pf-ou-pj": "Pessoa Física",
        "tecnologia": "LTE",
        "tipo-de-Produto": "INTERNET",
        "meio-de-acesso": "Rádio"
    }
]