[
    {
        "cidade": "Acaraú",
        "uf": "CE",
        "latitude": -2.887689,
        "longitude": -40.118306,
        "empresa": "STARLINK BRAZIL SERVICOS DE INTERNET LTDA.",
        "cnpj": 40154884000153,
        "pf-ou-pj": "Pessoa Física",
        "info-tecnologia": [
            {
                "tecnologia": "VSAT",
                "tipo-de-Produto": "INTERNET",
                "meio-de-acesso": "Satélite",
                "quantidade-acesso": 1
            }
        ]
    },
    {
        "cidade": "Acopiara",
        "uf": "CE",
        "latitude": -6.089114,
        "longitude": -39.448042,
        "empresa": "STARLINK BRAZIL SERVICOS DE INTERNET LTDA.",
        "cnpj": 40154884000153,
        "pf-ou-pj": "Pessoa Física",
        "info-tecnologia": [
            {
                "tecnologia": "VSAT",
                "tipo-de-Produto": "INTERNET",
                "meio-de-acesso": "Satélite",
                "quantidade-acesso": 1
            }
        ]
    },
    {
        "cidade": "Aiuaba",
        "uf": "CE",
        "latitude": -6.571216,
        "longitude": -40.11782,
        "empresa": "STARLINK BRAZIL SERVICOS DE INTERNET LTDA.",
        "cnpj": 40154884000153,
        "pf-ou-pj": "Pessoa Física",
        "info-tecnologia": [
            {
                "tecnologia": "VSAT",
                "tipo-de-Produto": "INTERNET",
                "meio-de-acesso": "Satélite",
                "quantidade-acesso": 4
            }
        ]
    },
    {
        "cidade": "Antonina do Norte",
        "uf": "CE",
        "latitude": -6.769193,
        "longitude": -39.98697,
        "empresa": "STARLINK BRAZIL SERVICOS DE INTERNET LTDA.",
        "cnpj": 40154884000153,
        "pf-ou-pj": "Pessoa Física",
        "info-tecnologia": [
            {
                "tecnologia": "VSAT",
                "tipo-de-Produto": "INTERNET",
                "meio-de-acesso": "Satélite",
                "quantidade-acesso": 2
            }
        ]
    },
    {
        "cidade": "Aquiraz",
        "uf": "CE",
        "latitude": -3.899293,
        "longitude": -38.389563,
        "empresa": "STARLINK BRAZIL SERVICOS DE INTERNET LTDA.",
        "cnpj": 40154884000153,
        "pf-ou-pj": "Pessoa Física",
        "info-tecnologia": [
            {
                "tecnologia": "VSAT",
                "tipo-de-Produto": "INTERNET",
                "meio-de-acesso": "Satélite",
                "quantidade-acesso": 10
            }
        ]
    },
    {
        "cidade": "Aracati",
        "uf": "CE",
        "latitude": -4.558259,
        "longitude": -37.767894,
        "empresa": "STARLINK BRAZIL SERVICOS DE INTERNET LTDA.",
        "cnpj": 40154884000153,
        "pf-ou-pj": "Pessoa Física",
        "info-tecnologia": [
            {
                "tecnologia": "VSAT",
                "tipo-de-Produto": "INTERNET",
                "meio-de-acesso": "Satélite",
                "quantidade-acesso": 2
            }
        ]
    },
    {
        "cidade": "Aracoiaba",
        "uf": "CE",
        "latitude": -4.36872,
        "longitude": -38.812512,
        "empresa": "STARLINK BRAZIL SERVICOS DE INTERNET LTDA.",
        "cnpj": 40154884000153,
        "pf-ou-pj": "Pessoa Física",
        "info-tecnologia": [
            {
                "tecnologia": "VSAT",
                "tipo-de-Produto": "INTERNET",
                "meio-de-acesso": "Satélite",
                "quantidade-acesso": 2
            }
        ]
    },
    {
        "cidade": "Araripe",
        "uf": "CE",
        "latitude": -7.213195,
        "longitude": -40.135894,
        "empresa": "STARLINK BRAZIL SERVICOS DE INTERNET LTDA.",
        "cnpj": 40154884000153,
        "pf-ou-pj": "Pessoa Física",
        "info-tecnologia": [
            {
                "tecnologia": "VSAT",
                "tipo-de-Produto": "INTERNET",
                "meio-de-acesso": "Satélite",
                "quantidade-acesso": 1
            }
        ]
    },
    {
        "cidade": "Aratuba",
        "uf": "CE",
        "latitude": -4.412291,
        "longitude": -39.047117,
        "empresa": "STARLINK BRAZIL SERVICOS DE INTERNET LTDA.",
        "cnpj": 40154884000153,
        "pf-ou-pj": "Pessoa Física",
        "info-tecnologia": [
            {
                "tecnologia": "VSAT",
                "tipo-de-Produto": "INTERNET",
                "meio-de-acesso": "Satélite",
                "quantidade-acesso": 1
            }
        ]
    },
    {
        "cidade": "Banabuiú",
        "uf": "CE",
        "latitude": -5.304544,
        "longitude": -38.913175,
        "empresa": "STARLINK BRAZIL SERVICOS DE INTERNET LTDA.",
        "cnpj": 40154884000153,
        "pf-ou-pj": "Pessoa Física",
        "info-tecnologia": [
            {
                "tecnologia": "VSAT",
                "tipo-de-Produto": "INTERNET",
                "meio-de-acesso": "Satélite",
                "quantidade-acesso": 2
            }
        ]
    },
    {
        "cidade": "Barbalha",
        "uf": "CE",
        "latitude": -7.298203,
        "longitude": -39.30208,
        "empresa": "STARLINK BRAZIL SERVICOS DE INTERNET LTDA.",
        "cnpj": 40154884000153,
        "pf-ou-pj": "Pessoa Física",
        "info-tecnologia": [
            {
                "tecnologia": "VSAT",
                "tipo-de-Produto": "INTERNET",
                "meio-de-acesso": "Satélite",
                "quantidade-acesso": 4
            }
        ]
    },
    {
        "cidade": "Beberibe",
        "uf": "CE",
        "latitude": -4.177415,
        "longitude": -38.127075,
        "empresa": "STARLINK BRAZIL SERVICOS DE INTERNET LTDA.",
        "cnpj": 40154884000153,
        "pf-ou-pj": "Pessoa Física",
        "info-tecnologia": [
            {
                "tecnologia": "VSAT",
                "tipo-de-Produto": "INTERNET",
                "meio-de-acesso": "Satélite",
                "quantidade-acesso": 5
            }
        ]
    },
    {
        "cidade": "Boa Viagem",
        "uf": "CE",
        "latitude": -5.112583,
        "longitude": -39.733652,
        "empresa": "STARLINK BRAZIL SERVICOS DE INTERNET LTDA.",
        "cnpj": 40154884000153,
        "pf-ou-pj": "Pessoa Física",
        "info-tecnologia": [
            {
                "tecnologia": "VSAT",
                "tipo-de-Produto": "INTERNET",
                "meio-de-acesso": "Satélite",
                "quantidade-acesso": 3
            }
        ]
    },
    {
        "cidade": "Brejo Santo",
        "uf": "CE",
        "latitude": -7.484686,
        "longitude": -38.979911,
        "empresa": "STARLINK BRAZIL SERVICOS DE INTERNET LTDA.",
        "cnpj": 40154884000153,
        "pf-ou-pj": "Pessoa Física",
        "info-tecnologia": [
            {
                "tecnologia": "VSAT",
                "tipo-de-Produto": "INTERNET",
                "meio-de-acesso": "Satélite",
                "quantidade-acesso": 1
            }
        ]
    },
    {
        "cidade": "Camocim",
        "uf": "CE",
        "latitude": -2.900499,
        "longitude": -40.854362,
        "empresa": "STARLINK BRAZIL SERVICOS DE INTERNET LTDA.",
        "cnpj": 40154884000153,
        "pf-ou-pj": "Pessoa Física",
        "info-tecnologia": [
            {
                "tecnologia": "VSAT",
                "tipo-de-Produto": "INTERNET",
                "meio-de-acesso": "Satélite",
                "quantidade-acesso": 3
            }
        ]
    },
    {
        "cidade": "Campos Sales",
        "uf": "CE",
        "latitude": -7.067611,
        "longitude": -40.368678,
        "empresa": "STARLINK BRAZIL SERVICOS DE INTERNET LTDA.",
        "cnpj": 40154884000153,
        "pf-ou-pj": "Pessoa Física",
        "info-tecnologia": [
            {
                "tecnologia": "VSAT",
                "tipo-de-Produto": "INTERNET",
                "meio-de-acesso": "Satélite",
                "quantidade-acesso": 5
            }
        ]
    },
    {
        "cidade": "Canindé",
        "uf": "CE",
        "latitude": -4.351618,
        "longitude": -39.315505,
        "empresa": "STARLINK BRAZIL SERVICOS DE INTERNET LTDA.",
        "cnpj": 40154884000153,
        "pf-ou-pj": "Pessoa Física",
        "info-tecnologia": [
            {
                "tecnologia": "VSAT",
                "tipo-de-Produto": "INTERNET",
                "meio-de-acesso": "Satélite",
                "quantidade-acesso": 2
            }
        ]
    },
    {
        "cidade": "Capistrano",
        "uf": "CE",
        "latitude": -4.455688,
        "longitude": -38.904842,
        "empresa": "STARLINK BRAZIL SERVICOS DE INTERNET LTDA.",
        "cnpj": 40154884000153,
        "pf-ou-pj": "Pessoa Física",
        "info-tecnologia": [
            {
                "tecnologia": "VSAT",
                "tipo-de-Produto": "INTERNET",
                "meio-de-acesso": "Satélite",
                "quantidade-acesso": 3
            }
        ]
    },
    {
        "cidade": "Caririaçu",
        "uf": "CE",
        "latitude": -7.028076,
        "longitude": -39.28276,
        "empresa": "STARLINK BRAZIL SERVICOS DE INTERNET LTDA.",
        "cnpj": 40154884000153,
        "pf-ou-pj": "Pessoa Física",
        "info-tecnologia": [
            {
                "tecnologia": "VSAT",
                "tipo-de-Produto": "INTERNET",
                "meio-de-acesso": "Satélite",
                "quantidade-acesso": 1
            }
        ]
    },
    {
        "cidade": "Carnaubal",
        "uf": "CE",
        "latitude": -4.159846,
        "longitude": -40.941304,
        "empresa": "STARLINK BRAZIL SERVICOS DE INTERNET LTDA.",
        "cnpj": 40154884000153,
        "pf-ou-pj": "Pessoa Física",
        "info-tecnologia": [
            {
                "tecnologia": "VSAT",
                "tipo-de-Produto": "INTERNET",
                "meio-de-acesso": "Satélite",
                "quantidade-acesso": 1
            }
        ]
    },
    {
        "cidade": "Cascavel",
        "uf": "CE",
        "latitude": -4.129666,
        "longitude": -38.241178,
        "empresa": "STARLINK BRAZIL SERVICOS DE INTERNET LTDA.",
        "cnpj": 40154884000153,
        "pf-ou-pj": "Pessoa Física",
        "info-tecnologia": [
            {
                "tecnologia": "VSAT",
                "tipo-de-Produto": "INTERNET",
                "meio-de-acesso": "Satélite",
                "quantidade-acesso": 2
            }
        ]
    },
    {
        "cidade": "Caucaia",
        "uf": "CE",
        "latitude": -3.727966,
        "longitude": -38.661931,
        "empresa": "STARLINK BRAZIL SERVICOS DE INTERNET LTDA.",
        "cnpj": 40154884000153,
        "pf-ou-pj": "Pessoa Física",
        "info-tecnologia": [
            {
                "tecnologia": "VSAT",
                "tipo-de-Produto": "INTERNET",
                "meio-de-acesso": "Satélite",
                "quantidade-acesso": 7
            }
        ]
    },
    {
        "cidade": "Chaval",
        "uf": "CE",
        "latitude": -3.035708,
        "longitude": -41.24346,
        "empresa": "STARLINK BRAZIL SERVICOS DE INTERNET LTDA.",
        "cnpj": 40154884000153,
        "pf-ou-pj": "Pessoa Física",
        "info-tecnologia": [
            {
                "tecnologia": "VSAT",
                "tipo-de-Produto": "INTERNET",
                "meio-de-acesso": "Satélite",
                "quantidade-acesso": 1
            }
        ]
    },
    {
        "cidade": "Choró",
        "uf": "CE",
        "latitude": -4.839062,
        "longitude": -39.134397,
        "empresa": "STARLINK BRAZIL SERVICOS DE INTERNET LTDA.",
        "cnpj": 40154884000153,
        "pf-ou-pj": "Pessoa Física",
        "info-tecnologia": [
            {
                "tecnologia": "VSAT",
                "tipo-de-Produto": "INTERNET",
                "meio-de-acesso": "Satélite",
                "quantidade-acesso": 1
            }
        ]
    },
    {
        "cidade": "Crateús",
        "uf": "CE",
        "latitude": -5.167683,
        "longitude": -40.653635,
        "empresa": "STARLINK BRAZIL SERVICOS DE INTERNET LTDA.",
        "cnpj": 40154884000153,
        "pf-ou-pj": "Pessoa Física",
        "info-tecnologia": [
            {
                "tecnologia": "VSAT",
                "tipo-de-Produto": "INTERNET",
                "meio-de-acesso": "Satélite",
                "quantidade-acesso": 2
            }
        ]
    },
    {
        "cidade": "Crato",
        "uf": "CE",
        "latitude": -7.215303,
        "longitude": -39.410299,
        "empresa": "STARLINK BRAZIL SERVICOS DE INTERNET LTDA.",
        "cnpj": 40154884000153,
        "pf-ou-pj": "Pessoa Física",
        "info-tecnologia": [
            {
                "tecnologia": "VSAT",
                "tipo-de-Produto": "INTERNET",
                "meio-de-acesso": "Satélite",
                "quantidade-acesso": 7
            }
        ]
    },
    {
        "cidade": "Cruz",
        "uf": "CE",
        "latitude": -2.918128,
        "longitude": -40.175981,
        "empresa": "STARLINK BRAZIL SERVICOS DE INTERNET LTDA.",
        "cnpj": 40154884000153,
        "pf-ou-pj": "Pessoa Física",
        "info-tecnologia": [
            {
                "tecnologia": "VSAT",
                "tipo-de-Produto": "INTERNET",
                "meio-de-acesso": "Satélite",
                "quantidade-acesso": 2
            }
        ]
    },
    {
        "cidade": "Eusébio",
        "uf": "CE",
        "latitude": -3.892501,
        "longitude": -38.455875,
        "empresa": "STARLINK BRAZIL SERVICOS DE INTERNET LTDA.",
        "cnpj": 40154884000153,
        "pf-ou-pj": "Pessoa Física",
        "info-tecnologia": [
            {
                "tecnologia": "VSAT",
                "tipo-de-Produto": "INTERNET",
                "meio-de-acesso": "Satélite",
                "quantidade-acesso": 21
            }
        ]
    },
    {
        "cidade": "Fortaleza",
        "uf": "CE",
        "latitude": -3.716638,
        "longitude": -38.542298,
        "empresa": "STARLINK BRAZIL SERVICOS DE INTERNET LTDA.",
        "cnpj": 40154884000153,
        "pf-ou-pj": "Pessoa Física",
        "info-tecnologia": [
            {
                "tecnologia": "VSAT",
                "tipo-de-Produto": "INTERNET",
                "meio-de-acesso": "Satélite",
                "quantidade-acesso": 174
            }
        ]
    },
    {
        "cidade": "Fortim",
        "uf": "CE",
        "latitude": -4.451256,
        "longitude": -37.798056,
        "empresa": "STARLINK BRAZIL SERVICOS DE INTERNET LTDA.",
        "cnpj": 40154884000153,
        "pf-ou-pj": "Pessoa Física",
        "info-tecnologia": [
            {
                "tecnologia": "VSAT",
                "tipo-de-Produto": "INTERNET",
                "meio-de-acesso": "Satélite",
                "quantidade-acesso": 1
            }
        ]
    },
    {
        "cidade": "General Sampaio",
        "uf": "CE",
        "latitude": -4.043507,
        "longitude": -39.453958,
        "empresa": "STARLINK BRAZIL SERVICOS DE INTERNET LTDA.",
        "cnpj": 40154884000153,
        "pf-ou-pj": "Pessoa Física",
        "info-tecnologia": [
            {
                "tecnologia": "VSAT",
                "tipo-de-Produto": "INTERNET",
                "meio-de-acesso": "Satélite",
                "quantidade-acesso": 1
            }
        ]
    },
    {
        "cidade": "Guaiúba",
        "uf": "CE",
        "latitude": -4.040571,
        "longitude": -38.640372,
        "empresa": "STARLINK BRAZIL SERVICOS DE INTERNET LTDA.",
        "cnpj": 40154884000153,
        "pf-ou-pj": "Pessoa Física",
        "info-tecnologia": [
            {
                "tecnologia": "VSAT",
                "tipo-de-Produto": "INTERNET",
                "meio-de-acesso": "Satélite",
                "quantidade-acesso": 2
            }
        ]
    },
    {
        "cidade": "Guaramiranga",
        "uf": "CE",
        "latitude": -4.262477,
        "longitude": -38.932044,
        "empresa": "STARLINK BRAZIL SERVICOS DE INTERNET LTDA.",
        "cnpj": 40154884000153,
        "pf-ou-pj": "Pessoa Física",
        "info-tecnologia": [
            {
                "tecnologia": "VSAT",
                "tipo-de-Produto": "INTERNET",
                "meio-de-acesso": "Satélite",
                "quantidade-acesso": 3
            }
        ]
    },
    {
        "cidade": "Horizonte",
        "uf": "CE",
        "latitude": -4.120896,
        "longitude": -38.470674,
        "empresa": "STARLINK BRAZIL SERVICOS DE INTERNET LTDA.",
        "cnpj": 40154884000153,
        "pf-ou-pj": "Pessoa Física",
        "info-tecnologia": [
            {
                "tecnologia": "VSAT",
                "tipo-de-Produto": "INTERNET",
                "meio-de-acesso": "Satélite",
                "quantidade-acesso": 2
            }
        ]
    },
    {
        "cidade": "Icó",
        "uf": "CE",
        "latitude": -6.396271,
        "longitude": -38.855352,
        "empresa": "STARLINK BRAZIL SERVICOS DE INTERNET LTDA.",
        "cnpj": 40154884000153,
        "pf-ou-pj": "Pessoa Física",
        "info-tecnologia": [
            {
                "tecnologia": "VSAT",
                "tipo-de-Produto": "INTERNET",
                "meio-de-acesso": "Satélite",
                "quantidade-acesso": 2
            }
        ]
    },
    {
        "cidade": "Iguatu",
        "uf": "CE",
        "latitude": -6.362806,
        "longitude": -39.28915,
        "empresa": "STARLINK BRAZIL SERVICOS DE INTERNET LTDA.",
        "cnpj": 40154884000153,
        "pf-ou-pj": "Pessoa Física",
        "info-tecnologia": [
            {
                "tecnologia": "VSAT",
                "tipo-de-Produto": "INTERNET",
                "meio-de-acesso": "Satélite",
                "quantidade-acesso": 2
            }
        ]
    },
    {
        "cidade": "Independência",
        "uf": "CE",
        "latitude": -5.387889,
        "longitude": -40.308526,
        "empresa": "STARLINK BRAZIL SERVICOS DE INTERNET LTDA.",
        "cnpj": 40154884000153,
        "pf-ou-pj": "Pessoa Física",
        "info-tecnologia": [
            {
                "tecnologia": "VSAT",
                "tipo-de-Produto": "INTERNET",
                "meio-de-acesso": "Satélite",
                "quantidade-acesso": 2
            }
        ]
    },
    {
        "cidade": "Itaitinga",
        "uf": "CE",
        "latitude": -3.965768,
        "longitude": -38.529763,
        "empresa": "STARLINK BRAZIL SERVICOS DE INTERNET LTDA.",
        "cnpj": 40154884000153,
        "pf-ou-pj": "Pessoa Física",
        "info-tecnologia": [
            {
                "tecnologia": "VSAT",
                "tipo-de-Produto": "INTERNET",
                "meio-de-acesso": "Satélite",
                "quantidade-acesso": 1
            }
        ]
    },
    {
        "cidade": "Itapipoca",
        "uf": "CE",
        "latitude": -3.499329,
        "longitude": -39.583571,
        "empresa": "STARLINK BRAZIL SERVICOS DE INTERNET LTDA.",
        "cnpj": 40154884000153,
        "pf-ou-pj": "Pessoa Física",
        "info-tecnologia": [
            {
                "tecnologia": "VSAT",
                "tipo-de-Produto": "INTERNET",
                "meio-de-acesso": "Satélite",
                "quantidade-acesso": 5
            }
        ]
    },
    {
        "cidade": "Itarema",
        "uf": "CE",
        "latitude": -2.924797,
        "longitude": -39.916654,
        "empresa": "STARLINK BRAZIL SERVICOS DE INTERNET LTDA.",
        "cnpj": 40154884000153,
        "pf-ou-pj": "Pessoa Física",
        "info-tecnologia": [
            {
                "tecnologia": "VSAT",
                "tipo-de-Produto": "INTERNET",
                "meio-de-acesso": "Satélite",
                "quantidade-acesso": 4
            }
        ]
    },
    {
        "cidade": "Itatira",
        "uf": "CE",
        "latitude": -4.526076,
        "longitude": -39.620155,
        "empresa": "STARLINK BRAZIL SERVICOS DE INTERNET LTDA.",
        "cnpj": 40154884000153,
        "pf-ou-pj": "Pessoa Física",
        "info-tecnologia": [
            {
                "tecnologia": "VSAT",
                "tipo-de-Produto": "INTERNET",
                "meio-de-acesso": "Satélite",
                "quantidade-acesso": 2
            }
        ]
    },
    {
        "cidade": "Jaguaretama",
        "uf": "CE",
        "latitude": -5.605096,
        "longitude": -38.763861,
        "empresa": "STARLINK BRAZIL SERVICOS DE INTERNET LTDA.",
        "cnpj": 40154884000153,
        "pf-ou-pj": "Pessoa Física",
        "info-tecnologia": [
            {
                "tecnologia": "VSAT",
                "tipo-de-Produto": "INTERNET",
                "meio-de-acesso": "Satélite",
                "quantidade-acesso": 1
            }
        ]
    },
    {
        "cidade": "Jaguaribara",
        "uf": "CE",
        "latitude": -5.677651,
        "longitude": -38.535878,
        "empresa": "STARLINK BRAZIL SERVICOS DE INTERNET LTDA.",
        "cnpj": 40154884000153,
        "pf-ou-pj": "Pessoa Física",
        "info-tecnologia": [
            {
                "tecnologia": "VSAT",
                "tipo-de-Produto": "INTERNET",
                "meio-de-acesso": "Satélite",
                "quantidade-acesso": 2
            }
        ]
    },
    {
        "cidade": "Jaguaribe",
        "uf": "CE",
        "latitude": -5.902134,
        "longitude": -38.622653,
        "empresa": "STARLINK BRAZIL SERVICOS DE INTERNET LTDA.",
        "cnpj": 40154884000153,
        "pf-ou-pj": "Pessoa Física",
        "info-tecnologia": [
            {
                "tecnologia": "VSAT",
                "tipo-de-Produto": "INTERNET",
                "meio-de-acesso": "Satélite",
                "quantidade-acesso": 1
            }
        ]
    },
    {
        "cidade": "Jaguaruana",
        "uf": "CE",
        "latitude": -4.831508,
        "longitude": -37.780997,
        "empresa": "STARLINK BRAZIL SERVICOS DE INTERNET LTDA.",
        "cnpj": 40154884000153,
        "pf-ou-pj": "Pessoa Física",
        "info-tecnologia": [
            {
                "tecnologia": "VSAT",
                "tipo-de-Produto": "INTERNET",
                "meio-de-acesso": "Satélite",
                "quantidade-acesso": 1
            }
        ]
    },
    {
        "cidade": "Jijoca de Jericoacoara",
        "uf": "CE",
        "latitude": -2.793312,
        "longitude": -40.512742,
        "empresa": "STARLINK BRAZIL SERVICOS DE INTERNET LTDA.",
        "cnpj": 40154884000153,
        "pf-ou-pj": "Pessoa Física",
        "info-tecnologia": [
            {
                "tecnologia": "VSAT",
                "tipo-de-Produto": "INTERNET",
                "meio-de-acesso": "Satélite",
                "quantidade-acesso": 5
            }
        ]
    },
    {
        "cidade": "Juazeiro do Norte",
        "uf": "CE",
        "latitude": -7.196207,
        "longitude": -39.307593,
        "empresa": "STARLINK BRAZIL SERVICOS DE INTERNET LTDA.",
        "cnpj": 40154884000153,
        "pf-ou-pj": "Pessoa Física",
        "info-tecnologia": [
            {
                "tecnologia": "VSAT",
                "tipo-de-Produto": "INTERNET",
                "meio-de-acesso": "Satélite",
                "quantidade-acesso": 6
            }
        ]
    },
    {
        "cidade": "Jucás",
        "uf": "CE",
        "latitude": -6.515229,
        "longitude": -39.518679,
        "empresa": "STARLINK BRAZIL SERVICOS DE INTERNET LTDA.",
        "cnpj": 40154884000153,
        "pf-ou-pj": "Pessoa Física",
        "info-tecnologia": [
            {
                "tecnologia": "VSAT",
                "tipo-de-Produto": "INTERNET",
                "meio-de-acesso": "Satélite",
                "quantidade-acesso": 1
            }
        ]
    },
    {
        "cidade": "Limoeiro do Norte",
        "uf": "CE",
        "latitude": -5.143921,
        "longitude": -38.084693,
        "empresa": "STARLINK BRAZIL SERVICOS DE INTERNET LTDA.",
        "cnpj": 40154884000153,
        "pf-ou-pj": "Pessoa Física",
        "info-tecnologia": [
            {
                "tecnologia": "VSAT",
                "tipo-de-Produto": "INTERNET",
                "meio-de-acesso": "Satélite",
                "quantidade-acesso": 2
            }
        ]
    },
    {
        "cidade": "Maracanaú",
        "uf": "CE",
        "latitude": -3.86699,
        "longitude": -38.625901,
        "empresa": "STARLINK BRAZIL SERVICOS DE INTERNET LTDA.",
        "cnpj": 40154884000153,
        "pf-ou-pj": "Pessoa Física",
        "info-tecnologia": [
            {
                "tecnologia": "VSAT",
                "tipo-de-Produto": "INTERNET",
                "meio-de-acesso": "Satélite",
                "quantidade-acesso": 6
            }
        ]
    },
    {
        "cidade": "Maranguape",
        "uf": "CE",
        "latitude": -3.891432,
        "longitude": -38.682911,
        "empresa": "STARLINK BRAZIL SERVICOS DE INTERNET LTDA.",
        "cnpj": 40154884000153,
        "pf-ou-pj": "Pessoa Física",
        "info-tecnologia": [
            {
                "tecnologia": "VSAT",
                "tipo-de-Produto": "INTERNET",
                "meio-de-acesso": "Satélite",
                "quantidade-acesso": 9
            }
        ]
    },
    {
        "cidade": "Massapê",
        "uf": "CE",
        "latitude": -3.523645,
        "longitude": -40.342271,
        "empresa": "STARLINK BRAZIL SERVICOS DE INTERNET LTDA.",
        "cnpj": 40154884000153,
        "pf-ou-pj": "Pessoa Física",
        "info-tecnologia": [
            {
                "tecnologia": "VSAT",
                "tipo-de-Produto": "INTERNET",
                "meio-de-acesso": "Satélite",
                "quantidade-acesso": 1
            }
        ]
    },
    {
        "cidade": "Milagres",
        "uf": "CE",
        "latitude": -7.297492,
        "longitude": -38.937829,
        "empresa": "STARLINK BRAZIL SERVICOS DE INTERNET LTDA.",
        "cnpj": 40154884000153,
        "pf-ou-pj": "Pessoa Física",
        "info-tecnologia": [
            {
                "tecnologia": "VSAT",
                "tipo-de-Produto": "INTERNET",
                "meio-de-acesso": "Satélite",
                "quantidade-acesso": 2
            }
        ]
    },
    {
        "cidade": "Missão Velha",
        "uf": "CE",
        "latitude": -7.235219,
        "longitude": -39.143046,
        "empresa": "STARLINK BRAZIL SERVICOS DE INTERNET LTDA.",
        "cnpj": 40154884000153,
        "pf-ou-pj": "Pessoa Física",
        "info-tecnologia": [
            {
                "tecnologia": "VSAT",
                "tipo-de-Produto": "INTERNET",
                "meio-de-acesso": "Satélite",
                "quantidade-acesso": 1
            }
        ]
    },
    {
        "cidade": "Morada Nova",
        "uf": "CE",
        "latitude": -5.09736,
        "longitude": -38.370158,
        "empresa": "STARLINK BRAZIL SERVICOS DE INTERNET LTDA.",
        "cnpj": 40154884000153,
        "pf-ou-pj": "Pessoa Física",
        "info-tecnologia": [
            {
                "tecnologia": "VSAT",
                "tipo-de-Produto": "INTERNET",
                "meio-de-acesso": "Satélite",
                "quantidade-acesso": 6
            }
        ]
    },
    {
        "cidade": "Mulungu",
        "uf": "CE",
        "latitude": -4.302938,
        "longitude": -38.995133,
        "empresa": "STARLINK BRAZIL SERVICOS DE INTERNET LTDA.",
        "cnpj": 40154884000153,
        "pf-ou-pj": "Pessoa Física",
        "info-tecnologia": [
            {
                "tecnologia": "VSAT",
                "tipo-de-Produto": "INTERNET",
                "meio-de-acesso": "Satélite",
                "quantidade-acesso": 3
            }
        ]
    },
    {
        "cidade": "Orós",
        "uf": "CE",
        "latitude": -6.251816,
        "longitude": -38.905264,
        "empresa": "STARLINK BRAZIL SERVICOS DE INTERNET LTDA.",
        "cnpj": 40154884000153,
        "pf-ou-pj": "Pessoa Física",
        "info-tecnologia": [
            {
                "tecnologia": "VSAT",
                "tipo-de-Produto": "INTERNET",
                "meio-de-acesso": "Satélite",
                "quantidade-acesso": 1
            }
        ]
    },
    {
        "cidade": "Pacajus",
        "uf": "CE",
        "latitude": -4.171073,
        "longitude": -38.464988,
        "empresa": "STARLINK BRAZIL SERVICOS DE INTERNET LTDA.",
        "cnpj": 40154884000153,
        "pf-ou-pj": "Pessoa Física",
        "info-tecnologia": [
            {
                "tecnologia": "VSAT",
                "tipo-de-Produto": "INTERNET",
                "meio-de-acesso": "Satélite",
                "quantidade-acesso": 1
            }
        ]
    },
    {
        "cidade": "Pacatuba",
        "uf": "CE",
        "latitude": -3.978396,
        "longitude": -38.618296,
        "empresa": "STARLINK BRAZIL SERVICOS DE INTERNET LTDA.",
        "cnpj": 40154884000153,
        "pf-ou-pj": "Pessoa Física",
        "info-tecnologia": [
            {
                "tecnologia": "VSAT",
                "tipo-de-Produto": "INTERNET",
                "meio-de-acesso": "Satélite",
                "quantidade-acesso": 1
            }
        ]
    },
    {
        "cidade": "Pacoti",
        "uf": "CE",
        "latitude": -4.224918,
        "longitude": -38.922011,
        "empresa": "STARLINK BRAZIL SERVICOS DE INTERNET LTDA.",
        "cnpj": 40154884000153,
        "pf-ou-pj": "Pessoa Física",
        "info-tecnologia": [
            {
                "tecnologia": "VSAT",
                "tipo-de-Produto": "INTERNET",
                "meio-de-acesso": "Satélite",
                "quantidade-acesso": 3
            }
        ]
    },
    {
        "cidade": "Pindoretama",
        "uf": "CE",
        "latitude": -4.015839,
        "longitude": -38.306118,
        "empresa": "STARLINK BRAZIL SERVICOS DE INTERNET LTDA.",
        "cnpj": 40154884000153,
        "pf-ou-pj": "Pessoa Física",
        "info-tecnologia": [
            {
                "tecnologia": "VSAT",
                "tipo-de-Produto": "INTERNET",
                "meio-de-acesso": "Satélite",
                "quantidade-acesso": 2
            }
        ]
    },
    {
        "cidade": "Porteiras",
        "uf": "CE",
        "latitude": -7.522647,
        "longitude": -39.114028,
        "empresa": "STARLINK BRAZIL SERVICOS DE INTERNET LTDA.",
        "cnpj": 40154884000153,
        "pf-ou-pj": "Pessoa Física",
        "info-tecnologia": [
            {
                "tecnologia": "VSAT",
                "tipo-de-Produto": "INTERNET",
                "meio-de-acesso": "Satélite",
                "quantidade-acesso": 2
            }
        ]
    },
    {
        "cidade": "Potiretama",
        "uf": "CE",
        "latitude": -5.71287,
        "longitude": -38.157804,
        "empresa": "STARLINK BRAZIL SERVICOS DE INTERNET LTDA.",
        "cnpj": 40154884000153,
        "pf-ou-pj": "Pessoa Física",
        "info-tecnologia": [
            {
                "tecnologia": "VSAT",
                "tipo-de-Produto": "INTERNET",
                "meio-de-acesso": "Satélite",
                "quantidade-acesso": 1
            }
        ]
    },
    {
        "cidade": "Quixadá",
        "uf": "CE",
        "latitude": -4.966301,
        "longitude": -39.015474,
        "empresa": "STARLINK BRAZIL SERVICOS DE INTERNET LTDA.",
        "cnpj": 40154884000153,
        "pf-ou-pj": "Pessoa Física",
        "info-tecnologia": [
            {
                "tecnologia": "VSAT",
                "tipo-de-Produto": "INTERNET",
                "meio-de-acesso": "Satélite",
                "quantidade-acesso": 10
            }
        ]
    },
    {
        "cidade": "Quixeramobim",
        "uf": "CE",
        "latitude": -5.190672,
        "longitude": -39.288947,
        "empresa": "STARLINK BRAZIL SERVICOS DE INTERNET LTDA.",
        "cnpj": 40154884000153,
        "pf-ou-pj": "Pessoa Física",
        "info-tecnologia": [
            {
                "tecnologia": "VSAT",
                "tipo-de-Produto": "INTERNET",
                "meio-de-acesso": "Satélite",
                "quantidade-acesso": 5
            }
        ]
    },
    {
        "cidade": "Redenção",
        "uf": "CE",
        "latitude": -4.215873,
        "longitude": -38.727719,
        "empresa": "STARLINK BRAZIL SERVICOS DE INTERNET LTDA.",
        "cnpj": 40154884000153,
        "pf-ou-pj": "Pessoa Física",
        "info-tecnologia": [
            {
                "tecnologia": "VSAT",
                "tipo-de-Produto": "INTERNET",
                "meio-de-acesso": "Satélite",
                "quantidade-acesso": 1
            }
        ]
    },
    {
        "cidade": "Reriutaba",
        "uf": "CE",
        "latitude": -4.141911,
        "longitude": -40.575915,
        "empresa": "STARLINK BRAZIL SERVICOS DE INTERNET LTDA.",
        "cnpj": 40154884000153,
        "pf-ou-pj": "Pessoa Física",
        "info-tecnologia": [
            {
                "tecnologia": "VSAT",
                "tipo-de-Produto": "INTERNET",
                "meio-de-acesso": "Satélite",
                "quantidade-acesso": 1
            }
        ]
    },
    {
        "cidade": "Russas",
        "uf": "CE",
        "latitude": -4.926727,
        "longitude": -37.972086,
        "empresa": "STARLINK BRAZIL SERVICOS DE INTERNET LTDA.",
        "cnpj": 40154884000153,
        "pf-ou-pj": "Pessoa Física",
        "info-tecnologia": [
            {
                "tecnologia": "VSAT",
                "tipo-de-Produto": "INTERNET",
                "meio-de-acesso": "Satélite",
                "quantidade-acesso": 2
            }
        ]
    },
    {
        "cidade": "Salitre",
        "uf": "CE",
        "latitude": -7.28398,
        "longitude": -40.450013,
        "empresa": "STARLINK BRAZIL SERVICOS DE INTERNET LTDA.",
        "cnpj": 40154884000153,
        "pf-ou-pj": "Pessoa Física",
        "info-tecnologia": [
            {
                "tecnologia": "VSAT",
                "tipo-de-Produto": "INTERNET",
                "meio-de-acesso": "Satélite",
                "quantidade-acesso": 1
            }
        ]
    },
    {
        "cidade": "Santa Quitéria",
        "uf": "CE",
        "latitude": -4.326081,
        "longitude": -40.152305,
        "empresa": "STARLINK BRAZIL SERVICOS DE INTERNET LTDA.",
        "cnpj": 40154884000153,
        "pf-ou-pj": "Pessoa Física",
        "info-tecnologia": [
            {
                "tecnologia": "VSAT",
                "tipo-de-Produto": "INTERNET",
                "meio-de-acesso": "Satélite",
                "quantidade-acesso": 1
            }
        ]
    },
    {
        "cidade": "Senador Pompeu",
        "uf": "CE",
        "latitude": -5.582444,
        "longitude": -39.370369,
        "empresa": "STARLINK BRAZIL SERVICOS DE INTERNET LTDA.",
        "cnpj": 40154884000153,
        "pf-ou-pj": "Pessoa Física",
        "info-tecnologia": [
            {
                "tecnologia": "VSAT",
                "tipo-de-Produto": "INTERNET",
                "meio-de-acesso": "Satélite",
                "quantidade-acesso": 2
            }
        ]
    },
    {
        "cidade": "Sobral",
        "uf": "CE",
        "latitude": -3.689133,
        "longitude": -40.34821,
        "empresa": "STARLINK BRAZIL SERVICOS DE INTERNET LTDA.",
        "cnpj": 40154884000153,
        "pf-ou-pj": "Pessoa Física",
        "info-tecnologia": [
            {
                "tecnologia": "VSAT",
                "tipo-de-Produto": "INTERNET",
                "meio-de-acesso": "Satélite",
                "quantidade-acesso": 7
            }
        ]
    },
    {
        "cidade": "São Gonçalo do Amarante",
        "uf": "CE",
        "latitude": -3.605149,
        "longitude": -38.972646,
        "empresa": "STARLINK BRAZIL SERVICOS DE INTERNET LTDA.",
        "cnpj": 40154884000153,
        "pf-ou-pj": "Pessoa Física",
        "info-tecnologia": [
            {
                "tecnologia": "VSAT",
                "tipo-de-Produto": "INTERNET",
                "meio-de-acesso": "Satélite",
                "quantidade-acesso": 6
            }
        ]
    },
    {
        "cidade": "São Luís do Curu",
        "uf": "CE",
        "latitude": -3.66976,
        "longitude": -39.239123,
        "empresa": "STARLINK BRAZIL SERVICOS DE INTERNET LTDA.",
        "cnpj": 40154884000153,
        "pf-ou-pj": "Pessoa Física",
        "info-tecnologia": [
            {
                "tecnologia": "VSAT",
                "tipo-de-Produto": "INTERNET",
                "meio-de-acesso": "Satélite",
                "quantidade-acesso": 1
            }
        ]
    },
    {
        "cidade": "Tabuleiro do Norte",
        "uf": "CE",
        "latitude": -5.243527,
        "longitude": -38.128175,
        "empresa": "STARLINK BRAZIL SERVICOS DE INTERNET LTDA.",
        "cnpj": 40154884000153,
        "pf-ou-pj": "Pessoa Física",
        "info-tecnologia": [
            {
                "tecnologia": "VSAT",
                "tipo-de-Produto": "INTERNET",
                "meio-de-acesso": "Satélite",
                "quantidade-acesso": 2
            }
        ]
    },
    {
        "cidade": "Tamboril",
        "uf": "CE",
        "latitude": -4.831364,
        "longitude": -40.319593,
        "empresa": "STARLINK BRAZIL SERVICOS DE INTERNET LTDA.",
        "cnpj": 40154884000153,
        "pf-ou-pj": "Pessoa Física",
        "info-tecnologia": [
            {
                "tecnologia": "VSAT",
                "tipo-de-Produto": "INTERNET",
                "meio-de-acesso": "Satélite",
                "quantidade-acesso": 2
            }
        ]
    },
    {
        "cidade": "Tauá",
        "uf": "CE",
        "latitude": -5.985853,
        "longitude": -40.296802,
        "empresa": "STARLINK BRAZIL SERVICOS DE INTERNET LTDA.",
        "cnpj": 40154884000153,
        "pf-ou-pj": "Pessoa Física",
        "info-tecnologia": [
            {
                "tecnologia": "VSAT",
                "tipo-de-Produto": "INTERNET",
                "meio-de-acesso": "Satélite",
                "quantidade-acesso": 5
            }
        ]
    },
    {
        "cidade": "Tianguá",
        "uf": "CE",
        "latitude": -3.729645,
        "longitude": -40.992286,
        "empresa": "STARLINK BRAZIL SERVICOS DE INTERNET LTDA.",
        "cnpj": 40154884000153,
        "pf-ou-pj": "Pessoa Física",
        "info-tecnologia": [
            {
                "tecnologia": "VSAT",
                "tipo-de-Produto": "INTERNET",
                "meio-de-acesso": "Satélite",
                "quantidade-acesso": 6
            }
        ]
    },
    {
        "cidade": "Trairi",
        "uf": "CE",
        "latitude": -3.269323,
        "longitude": -39.268126,
        "empresa": "STARLINK BRAZIL SERVICOS DE INTERNET LTDA.",
        "cnpj": 40154884000153,
        "pf-ou-pj": "Pessoa Física",
        "info-tecnologia": [
            {
                "tecnologia": "VSAT",
                "tipo-de-Produto": "INTERNET",
                "meio-de-acesso": "Satélite",
                "quantidade-acesso": 2
            }
        ]
    },
    {
        "cidade": "Uruoca",
        "uf": "CE",
        "latitude": -3.308194,
        "longitude": -40.56276,
        "empresa": "STARLINK BRAZIL SERVICOS DE INTERNET LTDA.",
        "cnpj": 40154884000153,
        "pf-ou-pj": "Pessoa Física",
        "info-tecnologia": [
            {
                "tecnologia": "VSAT",
                "tipo-de-Produto": "INTERNET",
                "meio-de-acesso": "Satélite",
                "quantidade-acesso": 1
            }
        ]
    },
    {
        "cidade": "Varjota",
        "uf": "CE",
        "latitude": -4.193871,
        "longitude": -40.474083,
        "empresa": "STARLINK BRAZIL SERVICOS DE INTERNET LTDA.",
        "cnpj": 40154884000153,
        "pf-ou-pj": "Pessoa Física",
        "info-tecnologia": [
            {
                "tecnologia": "VSAT",
                "tipo-de-Produto": "INTERNET",
                "meio-de-acesso": "Satélite",
                "quantidade-acesso": 1
            }
        ]
    },
    {
        "cidade": "Viçosa do Ceará",
        "uf": "CE",
        "latitude": -3.566703,
        "longitude": -41.091554,
        "empresa": "STARLINK BRAZIL SERVICOS DE INTERNET LTDA.",
        "cnpj": 40154884000153,
        "pf-ou-pj": "Pessoa Física",
        "info-tecnologia": [
            {
                "tecnologia": "VSAT",
                "tipo-de-Produto": "INTERNET",
                "meio-de-acesso": "Satélite",
                "quantidade-acesso": 1
            }
        ]
    },
    {
        "cidade": "Várzea Alegre",
        "uf": "CE",
        "latitude": -6.782642,
        "longitude": -39.294155,
        "empresa": "STARLINK BRAZIL SERVICOS DE INTERNET LTDA.",
        "cnpj": 40154884000153,
        "pf-ou-pj": "Pessoa Física",
        "info-tecnologia": [
            {
                "tecnologia": "VSAT",
                "tipo-de-Produto": "INTERNET",
                "meio-de-acesso": "Satélite",
                "quantidade-acesso": 2
            }
        ]
    }
]