[
    {
        "cidade": "Aceguá",
        "uf": "RS",
        "latitude": -31.866483,
        "longitude": -54.161467,
        "empresa": "OI",
        "pf-ou-pj": "Pessoa Física",
        "tecnologia": "ADSL1",
        "tipo-de-Produto": "INTERNET",
        "meio-de-acesso": "Cabo Metálico"
    },
    {
        "cidade": "Aceguá",
        "uf": "RS",
        "latitude": -31.866483,
        "longitude": -54.161467,
        "empresa": "OI",
        "pf-ou-pj": "Pessoa Física",
        "tecnologia": "ADSL2",
        "tipo-de-Produto": "INTERNET",
        "meio-de-acesso": "Cabo Metálico"
    },
    {
        "cidade": "Agudo",
        "uf": "RS",
        "latitude": -29.644743,
        "longitude": -53.251458,
        "empresa": "OI",
        "pf-ou-pj": "Pessoa Física",
        "tecnologia": "ADSL1",
        "tipo-de-Produto": "INTERNET",
        "meio-de-acesso": "Cabo Metálico"
    },
    {
        "cidade": "Agudo",
        "uf": "RS",
        "latitude": -29.644743,
        "longitude": -53.251458,
        "empresa": "OI",
        "pf-ou-pj": "Pessoa Física",
        "tecnologia": "ADSL2",
        "tipo-de-Produto": "INTERNET",
        "meio-de-acesso": "Cabo Metálico"
    },
    {
        "cidade": "Ajuricaba",
        "uf": "RS",
        "latitude": -28.23417,
        "longitude": -53.775668,
        "empresa": "OI",
        "pf-ou-pj": "Pessoa Física",
        "tecnologia": "ADSL1",
        "tipo-de-Produto": "INTERNET",
        "meio-de-acesso": "Cabo Metálico"
    },
    {
        "cidade": "Ajuricaba",
        "uf": "RS",
        "latitude": -28.23417,
        "longitude": -53.775668,
        "empresa": "OI",
        "pf-ou-pj": "Pessoa Física",
        "tecnologia": "ADSL2",
        "tipo-de-Produto": "INTERNET",
        "meio-de-acesso": "Cabo Metálico"
    },
    {
        "cidade": "Alecrim",
        "uf": "RS",
        "latitude": -27.657856,
        "longitude": -54.764849,
        "empresa": "OI",
        "pf-ou-pj": "Pessoa Física",
        "tecnologia": "ADSL1",
        "tipo-de-Produto": "INTERNET",
        "meio-de-acesso": "Cabo Metálico"
    },
    {
        "cidade": "Alecrim",
        "uf": "RS",
        "latitude": -27.657856,
        "longitude": -54.764849,
        "empresa": "OI",
        "pf-ou-pj": "Pessoa Física",
        "tecnologia": "ADSL2",
        "tipo-de-Produto": "INTERNET",
        "meio-de-acesso": "Cabo Metálico"
    },
    {
        "cidade": "Alegrete",
        "uf": "RS",
        "latitude": -29.790166,
        "longitude": -55.794862,
        "empresa": "OI",
        "pf-ou-pj": "Pessoa Física",
        "tecnologia": "ADSL1",
        "tipo-de-Produto": "INTERNET",
        "meio-de-acesso": "Cabo Metálico"
    },
    {
        "cidade": "Alegrete",
        "uf": "RS",
        "latitude": -29.790166,
        "longitude": -55.794862,
        "empresa": "OI",
        "pf-ou-pj": "Pessoa Física",
        "tecnologia": "ADSL2",
        "tipo-de-Produto": "INTERNET",
        "meio-de-acesso": "Cabo Metálico"
    },
    {
        "cidade": "Alegrete",
        "uf": "RS",
        "latitude": -29.790166,
        "longitude": -55.794862,
        "empresa": "OI",
        "pf-ou-pj": "Pessoa Física",
        "tecnologia": "FTTH",
        "tipo-de-Produto": "INTERNET",
        "meio-de-acesso": "Fibra"
    },
    {
        "cidade": "Alegria",
        "uf": "RS",
        "latitude": -27.834467,
        "longitude": -54.055732,
        "empresa": "OI",
        "pf-ou-pj": "Pessoa Física",
        "tecnologia": "ADSL2",
        "tipo-de-Produto": "INTERNET",
        "meio-de-acesso": "Cabo Metálico"
    },
    {
        "cidade": "Alpestre",
        "uf": "RS",
        "latitude": -27.250159,
        "longitude": -53.034127,
        "empresa": "OI",
        "pf-ou-pj": "Pessoa Física",
        "tecnologia": "ADSL2",
        "tipo-de-Produto": "INTERNET",
        "meio-de-acesso": "Cabo Metálico"
    },
    {
        "cidade": "Alto Alegre",
        "uf": "RS",
        "latitude": -28.776865,
        "longitude": -52.989255,
        "empresa": "OI",
        "pf-ou-pj": "Pessoa Física",
        "tecnologia": "ADSL2",
        "tipo-de-Produto": "INTERNET",
        "meio-de-acesso": "Cabo Metálico"
    },
    {
        "cidade": "Alvorada",
        "uf": "RS",
        "latitude": -29.9914,
        "longitude": -51.080857,
        "empresa": "OI",
        "pf-ou-pj": "Pessoa Física",
        "tecnologia": "ADSL1",
        "tipo-de-Produto": "INTERNET",
        "meio-de-acesso": "Cabo Metálico"
    },
    {
        "cidade": "Alvorada",
        "uf": "RS",
        "latitude": -29.9914,
        "longitude": -51.080857,
        "empresa": "OI",
        "pf-ou-pj": "Pessoa Física",
        "tecnologia": "ADSL2",
        "tipo-de-Produto": "INTERNET",
        "meio-de-acesso": "Cabo Metálico"
    },
    {
        "cidade": "Alvorada",
        "uf": "RS",
        "latitude": -29.9914,
        "longitude": -51.080857,
        "empresa": "OI",
        "pf-ou-pj": "Pessoa Física",
        "tecnologia": "FTTH",
        "tipo-de-Produto": "INTERNET",
        "meio-de-acesso": "Fibra"
    },
    {
        "cidade": "Amaral Ferrador",
        "uf": "RS",
        "latitude": -30.875579,
        "longitude": -52.250951,
        "empresa": "OI",
        "pf-ou-pj": "Pessoa Física",
        "tecnologia": "ADSL1",
        "tipo-de-Produto": "INTERNET",
        "meio-de-acesso": "Cabo Metálico"
    },
    {
        "cidade": "Ametista do Sul",
        "uf": "RS",
        "latitude": -27.360656,
        "longitude": -53.183005,
        "empresa": "OI",
        "pf-ou-pj": "Pessoa Física",
        "tecnologia": "ADSL1",
        "tipo-de-Produto": "INTERNET",
        "meio-de-acesso": "Cabo Metálico"
    },
    {
        "cidade": "Ametista do Sul",
        "uf": "RS",
        "latitude": -27.360656,
        "longitude": -53.183005,
        "empresa": "OI",
        "pf-ou-pj": "Pessoa Física",
        "tecnologia": "ADSL2",
        "tipo-de-Produto": "INTERNET",
        "meio-de-acesso": "Cabo Metálico"
    },
    {
        "cidade": "André da Rocha",
        "uf": "RS",
        "latitude": -28.628294,
        "longitude": -51.579729,
        "empresa": "OI",
        "pf-ou-pj": "Pessoa Física",
        "tecnologia": "ADSL2",
        "tipo-de-Produto": "INTERNET",
        "meio-de-acesso": "Cabo Metálico"
    },
    {
        "cidade": "Anta Gorda",
        "uf": "RS",
        "latitude": -28.969772,
        "longitude": -52.010191,
        "empresa": "OI",
        "pf-ou-pj": "Pessoa Física",
        "tecnologia": "ADSL1",
        "tipo-de-Produto": "INTERNET",
        "meio-de-acesso": "Cabo Metálico"
    },
    {
        "cidade": "Antônio Prado",
        "uf": "RS",
        "latitude": -28.856544,
        "longitude": -51.288263,
        "empresa": "OI",
        "pf-ou-pj": "Pessoa Física",
        "tecnologia": "ADSL1",
        "tipo-de-Produto": "INTERNET",
        "meio-de-acesso": "Cabo Metálico"
    },
    {
        "cidade": "Antônio Prado",
        "uf": "RS",
        "latitude": -28.856544,
        "longitude": -51.288263,
        "empresa": "OI",
        "pf-ou-pj": "Pessoa Física",
        "tecnologia": "ADSL2",
        "tipo-de-Produto": "INTERNET",
        "meio-de-acesso": "Cabo Metálico"
    },
    {
        "cidade": "Arambaré",
        "uf": "RS",
        "latitude": -30.909248,
        "longitude": -51.504586,
        "empresa": "OI",
        "pf-ou-pj": "Pessoa Física",
        "tecnologia": "ADSL1",
        "tipo-de-Produto": "INTERNET",
        "meio-de-acesso": "Cabo Metálico"
    },
    {
        "cidade": "Arambaré",
        "uf": "RS",
        "latitude": -30.909248,
        "longitude": -51.504586,
        "empresa": "OI",
        "pf-ou-pj": "Pessoa Física",
        "tecnologia": "ADSL2",
        "tipo-de-Produto": "INTERNET",
        "meio-de-acesso": "Cabo Metálico"
    },
    {
        "cidade": "Araricá",
        "uf": "RS",
        "latitude": -29.616832,
        "longitude": -50.929128,
        "empresa": "OI",
        "pf-ou-pj": "Pessoa Física",
        "tecnologia": "ADSL1",
        "tipo-de-Produto": "INTERNET",
        "meio-de-acesso": "Cabo Metálico"
    },
    {
        "cidade": "Araricá",
        "uf": "RS",
        "latitude": -29.616832,
        "longitude": -50.929128,
        "empresa": "OI",
        "pf-ou-pj": "Pessoa Física",
        "tecnologia": "ADSL2",
        "tipo-de-Produto": "INTERNET",
        "meio-de-acesso": "Cabo Metálico"
    },
    {
        "cidade": "Aratiba",
        "uf": "RS",
        "latitude": -27.397787,
        "longitude": -52.297461,
        "empresa": "OI",
        "pf-ou-pj": "Pessoa Física",
        "tecnologia": "ADSL1",
        "tipo-de-Produto": "INTERNET",
        "meio-de-acesso": "Cabo Metálico"
    },
    {
        "cidade": "Aratiba",
        "uf": "RS",
        "latitude": -27.397787,
        "longitude": -52.297461,
        "empresa": "OI",
        "pf-ou-pj": "Pessoa Física",
        "tecnologia": "ADSL2",
        "tipo-de-Produto": "INTERNET",
        "meio-de-acesso": "Cabo Metálico"
    },
    {
        "cidade": "Arroio Grande",
        "uf": "RS",
        "latitude": -32.232657,
        "longitude": -53.086155,
        "empresa": "OI",
        "pf-ou-pj": "Pessoa Física",
        "tecnologia": "ADSL1",
        "tipo-de-Produto": "INTERNET",
        "meio-de-acesso": "Cabo Metálico"
    },
    {
        "cidade": "Arroio Grande",
        "uf": "RS",
        "latitude": -32.232657,
        "longitude": -53.086155,
        "empresa": "OI",
        "pf-ou-pj": "Pessoa Física",
        "tecnologia": "ADSL2",
        "tipo-de-Produto": "INTERNET",
        "meio-de-acesso": "Cabo Metálico"
    },
    {
        "cidade": "Arroio do Meio",
        "uf": "RS",
        "latitude": -29.401353,
        "longitude": -51.955735,
        "empresa": "OI",
        "pf-ou-pj": "Pessoa Física",
        "tecnologia": "ADSL1",
        "tipo-de-Produto": "INTERNET",
        "meio-de-acesso": "Cabo Metálico"
    },
    {
        "cidade": "Arroio do Meio",
        "uf": "RS",
        "latitude": -29.401353,
        "longitude": -51.955735,
        "empresa": "OI",
        "pf-ou-pj": "Pessoa Física",
        "tecnologia": "ADSL2",
        "tipo-de-Produto": "INTERNET",
        "meio-de-acesso": "Cabo Metálico"
    },
    {
        "cidade": "Arroio do Padre",
        "uf": "RS",
        "latitude": -31.438942,
        "longitude": -52.424598,
        "empresa": "OI",
        "pf-ou-pj": "Pessoa Física",
        "tecnologia": "ADSL1",
        "tipo-de-Produto": "INTERNET",
        "meio-de-acesso": "Cabo Metálico"
    },
    {
        "cidade": "Arroio do Sal",
        "uf": "RS",
        "latitude": -29.543872,
        "longitude": -49.889537,
        "empresa": "OI",
        "pf-ou-pj": "Pessoa Física",
        "tecnologia": "ADSL1",
        "tipo-de-Produto": "INTERNET",
        "meio-de-acesso": "Cabo Metálico"
    },
    {
        "cidade": "Arroio do Sal",
        "uf": "RS",
        "latitude": -29.543872,
        "longitude": -49.889537,
        "empresa": "OI",
        "pf-ou-pj": "Pessoa Física",
        "tecnologia": "ADSL2",
        "tipo-de-Produto": "INTERNET",
        "meio-de-acesso": "Cabo Metálico"
    },
    {
        "cidade": "Arroio do Tigre",
        "uf": "RS",
        "latitude": -29.334829,
        "longitude": -53.096627,
        "empresa": "OI",
        "pf-ou-pj": "Pessoa Física",
        "tecnologia": "ADSL1",
        "tipo-de-Produto": "INTERNET",
        "meio-de-acesso": "Cabo Metálico"
    },
    {
        "cidade": "Arroio do Tigre",
        "uf": "RS",
        "latitude": -29.334829,
        "longitude": -53.096627,
        "empresa": "OI",
        "pf-ou-pj": "Pessoa Física",
        "tecnologia": "ADSL2",
        "tipo-de-Produto": "INTERNET",
        "meio-de-acesso": "Cabo Metálico"
    },
    {
        "cidade": "Arroio dos Ratos",
        "uf": "RS",
        "latitude": -30.087545,
        "longitude": -51.727479,
        "empresa": "OI",
        "pf-ou-pj": "Pessoa Física",
        "tecnologia": "ADSL1",
        "tipo-de-Produto": "INTERNET",
        "meio-de-acesso": "Cabo Metálico"
    },
    {
        "cidade": "Arroio dos Ratos",
        "uf": "RS",
        "latitude": -30.087545,
        "longitude": -51.727479,
        "empresa": "OI",
        "pf-ou-pj": "Pessoa Física",
        "tecnologia": "ADSL2",
        "tipo-de-Produto": "INTERNET",
        "meio-de-acesso": "Cabo Metálico"
    },
    {
        "cidade": "Arvorezinha",
        "uf": "RS",
        "latitude": -28.87369,
        "longitude": -52.17808,
        "empresa": "OI",
        "pf-ou-pj": "Pessoa Física",
        "tecnologia": "ADSL1",
        "tipo-de-Produto": "INTERNET",
        "meio-de-acesso": "Cabo Metálico"
    },
    {
        "cidade": "Arvorezinha",
        "uf": "RS",
        "latitude": -28.87369,
        "longitude": -52.17808,
        "empresa": "OI",
        "pf-ou-pj": "Pessoa Física",
        "tecnologia": "ADSL2",
        "tipo-de-Produto": "INTERNET",
        "meio-de-acesso": "Cabo Metálico"
    },
    {
        "cidade": "Augusto Pestana",
        "uf": "RS",
        "latitude": -28.517249,
        "longitude": -53.988292,
        "empresa": "OI",
        "pf-ou-pj": "Pessoa Física",
        "tecnologia": "ADSL1",
        "tipo-de-Produto": "INTERNET",
        "meio-de-acesso": "Cabo Metálico"
    },
    {
        "cidade": "Augusto Pestana",
        "uf": "RS",
        "latitude": -28.517249,
        "longitude": -53.988292,
        "empresa": "OI",
        "pf-ou-pj": "Pessoa Física",
        "tecnologia": "ADSL2",
        "tipo-de-Produto": "INTERNET",
        "meio-de-acesso": "Cabo Metálico"
    },
    {
        "cidade": "Bagé",
        "uf": "RS",
        "latitude": -31.32965,
        "longitude": -54.09992,
        "empresa": "OI",
        "pf-ou-pj": "Pessoa Física",
        "tecnologia": "ADSL1",
        "tipo-de-Produto": "INTERNET",
        "meio-de-acesso": "Cabo Metálico"
    },
    {
        "cidade": "Bagé",
        "uf": "RS",
        "latitude": -31.32965,
        "longitude": -54.09992,
        "empresa": "OI",
        "pf-ou-pj": "Pessoa Física",
        "tecnologia": "ADSL2",
        "tipo-de-Produto": "INTERNET",
        "meio-de-acesso": "Cabo Metálico"
    },
    {
        "cidade": "Bagé",
        "uf": "RS",
        "latitude": -31.32965,
        "longitude": -54.09992,
        "empresa": "OI",
        "pf-ou-pj": "Pessoa Física",
        "tecnologia": "FTTH",
        "tipo-de-Produto": "INTERNET",
        "meio-de-acesso": "Fibra"
    },
    {
        "cidade": "Balneário Pinhal",
        "uf": "RS",
        "latitude": -30.241938,
        "longitude": -50.233655,
        "empresa": "OI",
        "pf-ou-pj": "Pessoa Física",
        "tecnologia": "ADSL1",
        "tipo-de-Produto": "INTERNET",
        "meio-de-acesso": "Cabo Metálico"
    },
    {
        "cidade": "Balneário Pinhal",
        "uf": "RS",
        "latitude": -30.241938,
        "longitude": -50.233655,
        "empresa": "OI",
        "pf-ou-pj": "Pessoa Física",
        "tecnologia": "ADSL2",
        "tipo-de-Produto": "INTERNET",
        "meio-de-acesso": "Cabo Metálico"
    },
    {
        "cidade": "Barra Funda",
        "uf": "RS",
        "latitude": -27.920467,
        "longitude": -53.039067,
        "empresa": "OI",
        "pf-ou-pj": "Pessoa Física",
        "tecnologia": "ADSL1",
        "tipo-de-Produto": "INTERNET",
        "meio-de-acesso": "Cabo Metálico"
    },
    {
        "cidade": "Barra Funda",
        "uf": "RS",
        "latitude": -27.920467,
        "longitude": -53.039067,
        "empresa": "OI",
        "pf-ou-pj": "Pessoa Física",
        "tecnologia": "ADSL2",
        "tipo-de-Produto": "INTERNET",
        "meio-de-acesso": "Cabo Metálico"
    },
    {
        "cidade": "Barra do Quaraí",
        "uf": "RS",
        "latitude": -30.202859,
        "longitude": -57.549722,
        "empresa": "OI",
        "pf-ou-pj": "Pessoa Física",
        "tecnologia": "ADSL1",
        "tipo-de-Produto": "INTERNET",
        "meio-de-acesso": "Cabo Metálico"
    },
    {
        "cidade": "Barra do Quaraí",
        "uf": "RS",
        "latitude": -30.202859,
        "longitude": -57.549722,
        "empresa": "OI",
        "pf-ou-pj": "Pessoa Física",
        "tecnologia": "ADSL2",
        "tipo-de-Produto": "INTERNET",
        "meio-de-acesso": "Cabo Metálico"
    },
    {
        "cidade": "Barra do Ribeiro",
        "uf": "RS",
        "latitude": -30.293884,
        "longitude": -51.301358,
        "empresa": "OI",
        "pf-ou-pj": "Pessoa Física",
        "tecnologia": "ADSL1",
        "tipo-de-Produto": "INTERNET",
        "meio-de-acesso": "Cabo Metálico"
    },
    {
        "cidade": "Barra do Ribeiro",
        "uf": "RS",
        "latitude": -30.293884,
        "longitude": -51.301358,
        "empresa": "OI",
        "pf-ou-pj": "Pessoa Física",
        "tecnologia": "ADSL2",
        "tipo-de-Produto": "INTERNET",
        "meio-de-acesso": "Cabo Metálico"
    },
    {
        "cidade": "Barracão",
        "uf": "RS",
        "latitude": -27.673862,
        "longitude": -51.45855,
        "empresa": "OI",
        "pf-ou-pj": "Pessoa Física",
        "tecnologia": "ADSL1",
        "tipo-de-Produto": "INTERNET",
        "meio-de-acesso": "Cabo Metálico"
    },
    {
        "cidade": "Barros Cassal",
        "uf": "RS",
        "latitude": -29.094686,
        "longitude": -52.583571,
        "empresa": "OI",
        "pf-ou-pj": "Pessoa Física",
        "tecnologia": "ADSL1",
        "tipo-de-Produto": "INTERNET",
        "meio-de-acesso": "Cabo Metálico"
    },
    {
        "cidade": "Barros Cassal",
        "uf": "RS",
        "latitude": -29.094686,
        "longitude": -52.583571,
        "empresa": "OI",
        "pf-ou-pj": "Pessoa Física",
        "tecnologia": "ADSL2",
        "tipo-de-Produto": "INTERNET",
        "meio-de-acesso": "Cabo Metálico"
    },
    {
        "cidade": "Barão",
        "uf": "RS",
        "latitude": -29.372474,
        "longitude": -51.494908,
        "empresa": "OI",
        "pf-ou-pj": "Pessoa Física",
        "tecnologia": "ADSL1",
        "tipo-de-Produto": "INTERNET",
        "meio-de-acesso": "Cabo Metálico"
    },
    {
        "cidade": "Barão",
        "uf": "RS",
        "latitude": -29.372474,
        "longitude": -51.494908,
        "empresa": "OI",
        "pf-ou-pj": "Pessoa Física",
        "tecnologia": "ADSL2",
        "tipo-de-Produto": "INTERNET",
        "meio-de-acesso": "Cabo Metálico"
    },
    {
        "cidade": "Barão de Cotegipe",
        "uf": "RS",
        "latitude": -27.620785,
        "longitude": -52.37982,
        "empresa": "OI",
        "pf-ou-pj": "Pessoa Física",
        "tecnologia": "ADSL1",
        "tipo-de-Produto": "INTERNET",
        "meio-de-acesso": "Cabo Metálico"
    },
    {
        "cidade": "Barão do Triunfo",
        "uf": "RS",
        "latitude": -30.389072,
        "longitude": -51.738441,
        "empresa": "OI",
        "pf-ou-pj": "Pessoa Física",
        "tecnologia": "ADSL1",
        "tipo-de-Produto": "INTERNET",
        "meio-de-acesso": "Cabo Metálico"
    },
    {
        "cidade": "Bento Gonçalves",
        "uf": "RS",
        "latitude": -29.166212,
        "longitude": -51.516476,
        "empresa": "OI",
        "pf-ou-pj": "Pessoa Física",
        "tecnologia": "ADSL1",
        "tipo-de-Produto": "INTERNET",
        "meio-de-acesso": "Cabo Metálico"
    },
    {
        "cidade": "Bento Gonçalves",
        "uf": "RS",
        "latitude": -29.166212,
        "longitude": -51.516476,
        "empresa": "OI",
        "pf-ou-pj": "Pessoa Física",
        "tecnologia": "ADSL2",
        "tipo-de-Produto": "INTERNET",
        "meio-de-acesso": "Cabo Metálico"
    },
    {
        "cidade": "Bento Gonçalves",
        "uf": "RS",
        "latitude": -29.166212,
        "longitude": -51.516476,
        "empresa": "OI",
        "pf-ou-pj": "Pessoa Física",
        "tecnologia": "FTTH",
        "tipo-de-Produto": "INTERNET",
        "meio-de-acesso": "Fibra"
    },
    {
        "cidade": "Boa Vista das Missões",
        "uf": "RS",
        "latitude": -27.667123,
        "longitude": -53.310168,
        "empresa": "OI",
        "pf-ou-pj": "Pessoa Física",
        "tecnologia": "ADSL1",
        "tipo-de-Produto": "INTERNET",
        "meio-de-acesso": "Cabo Metálico"
    },
    {
        "cidade": "Boa Vista das Missões",
        "uf": "RS",
        "latitude": -27.667123,
        "longitude": -53.310168,
        "empresa": "OI",
        "pf-ou-pj": "Pessoa Física",
        "tecnologia": "ADSL2",
        "tipo-de-Produto": "INTERNET",
        "meio-de-acesso": "Cabo Metálico"
    },
    {
        "cidade": "Boa Vista do Buricá",
        "uf": "RS",
        "latitude": -27.66928,
        "longitude": -54.108229,
        "empresa": "OI",
        "pf-ou-pj": "Pessoa Física",
        "tecnologia": "ADSL1",
        "tipo-de-Produto": "INTERNET",
        "meio-de-acesso": "Cabo Metálico"
    },
    {
        "cidade": "Boa Vista do Sul",
        "uf": "RS",
        "latitude": -29.354406,
        "longitude": -51.668725,
        "empresa": "OI",
        "pf-ou-pj": "Pessoa Física",
        "tecnologia": "ADSL1",
        "tipo-de-Produto": "INTERNET",
        "meio-de-acesso": "Cabo Metálico"
    },
    {
        "cidade": "Bom Jesus",
        "uf": "RS",
        "latitude": -28.669703,
        "longitude": -50.429453,
        "empresa": "OI",
        "pf-ou-pj": "Pessoa Física",
        "tecnologia": "ADSL1",
        "tipo-de-Produto": "INTERNET",
        "meio-de-acesso": "Cabo Metálico"
    },
    {
        "cidade": "Bom Jesus",
        "uf": "RS",
        "latitude": -28.669703,
        "longitude": -50.429453,
        "empresa": "OI",
        "pf-ou-pj": "Pessoa Física",
        "tecnologia": "ADSL2",
        "tipo-de-Produto": "INTERNET",
        "meio-de-acesso": "Cabo Metálico"
    },
    {
        "cidade": "Bom Princípio",
        "uf": "RS",
        "latitude": -29.485634,
        "longitude": -51.354763,
        "empresa": "OI",
        "pf-ou-pj": "Pessoa Física",
        "tecnologia": "ADSL1",
        "tipo-de-Produto": "INTERNET",
        "meio-de-acesso": "Cabo Metálico"
    },
    {
        "cidade": "Bom Princípio",
        "uf": "RS",
        "latitude": -29.485634,
        "longitude": -51.354763,
        "empresa": "OI",
        "pf-ou-pj": "Pessoa Física",
        "tecnologia": "ADSL2",
        "tipo-de-Produto": "INTERNET",
        "meio-de-acesso": "Cabo Metálico"
    },
    {
        "cidade": "Bom Progresso",
        "uf": "RS",
        "latitude": -27.539856,
        "longitude": -53.871608,
        "empresa": "OI",
        "pf-ou-pj": "Pessoa Física",
        "tecnologia": "ADSL1",
        "tipo-de-Produto": "INTERNET",
        "meio-de-acesso": "Cabo Metálico"
    },
    {
        "cidade": "Bom Progresso",
        "uf": "RS",
        "latitude": -27.539856,
        "longitude": -53.871608,
        "empresa": "OI",
        "pf-ou-pj": "Pessoa Física",
        "tecnologia": "ADSL2",
        "tipo-de-Produto": "INTERNET",
        "meio-de-acesso": "Cabo Metálico"
    },
    {
        "cidade": "Bom Retiro do Sul",
        "uf": "RS",
        "latitude": -29.607076,
        "longitude": -51.945593,
        "empresa": "OI",
        "pf-ou-pj": "Pessoa Física",
        "tecnologia": "ADSL1",
        "tipo-de-Produto": "INTERNET",
        "meio-de-acesso": "Cabo Metálico"
    },
    {
        "cidade": "Bom Retiro do Sul",
        "uf": "RS",
        "latitude": -29.607076,
        "longitude": -51.945593,
        "empresa": "OI",
        "pf-ou-pj": "Pessoa Física",
        "tecnologia": "ADSL2",
        "tipo-de-Produto": "INTERNET",
        "meio-de-acesso": "Cabo Metálico"
    },
    {
        "cidade": "Boqueirão do Leão",
        "uf": "RS",
        "latitude": -29.30462,
        "longitude": -52.428432,
        "empresa": "OI",
        "pf-ou-pj": "Pessoa Física",
        "tecnologia": "ADSL1",
        "tipo-de-Produto": "INTERNET",
        "meio-de-acesso": "Cabo Metálico"
    },
    {
        "cidade": "Bossoroca",
        "uf": "RS",
        "latitude": -28.729089,
        "longitude": -54.903507,
        "empresa": "OI",
        "pf-ou-pj": "Pessoa Física",
        "tecnologia": "ADSL1",
        "tipo-de-Produto": "INTERNET",
        "meio-de-acesso": "Cabo Metálico"
    },
    {
        "cidade": "Bossoroca",
        "uf": "RS",
        "latitude": -28.729089,
        "longitude": -54.903507,
        "empresa": "OI",
        "pf-ou-pj": "Pessoa Física",
        "tecnologia": "ADSL2",
        "tipo-de-Produto": "INTERNET",
        "meio-de-acesso": "Cabo Metálico"
    },
    {
        "cidade": "Braga",
        "uf": "RS",
        "latitude": -27.617348,
        "longitude": -53.740514,
        "empresa": "OI",
        "pf-ou-pj": "Pessoa Física",
        "tecnologia": "ADSL1",
        "tipo-de-Produto": "INTERNET",
        "meio-de-acesso": "Cabo Metálico"
    },
    {
        "cidade": "Braga",
        "uf": "RS",
        "latitude": -27.617348,
        "longitude": -53.740514,
        "empresa": "OI",
        "pf-ou-pj": "Pessoa Física",
        "tecnologia": "ADSL2",
        "tipo-de-Produto": "INTERNET",
        "meio-de-acesso": "Cabo Metálico"
    },
    {
        "cidade": "Brochier",
        "uf": "RS",
        "latitude": -29.550136,
        "longitude": -51.594516,
        "empresa": "OI",
        "pf-ou-pj": "Pessoa Física",
        "tecnologia": "ADSL1",
        "tipo-de-Produto": "INTERNET",
        "meio-de-acesso": "Cabo Metálico"
    },
    {
        "cidade": "Brochier",
        "uf": "RS",
        "latitude": -29.550136,
        "longitude": -51.594516,
        "empresa": "OI",
        "pf-ou-pj": "Pessoa Física",
        "tecnologia": "ADSL2",
        "tipo-de-Produto": "INTERNET",
        "meio-de-acesso": "Cabo Metálico"
    },
    {
        "cidade": "Butiá",
        "uf": "RS",
        "latitude": -30.11792,
        "longitude": -51.960057,
        "empresa": "OI",
        "pf-ou-pj": "Pessoa Física",
        "tecnologia": "ADSL1",
        "tipo-de-Produto": "INTERNET",
        "meio-de-acesso": "Cabo Metálico"
    },
    {
        "cidade": "Butiá",
        "uf": "RS",
        "latitude": -30.11792,
        "longitude": -51.960057,
        "empresa": "OI",
        "pf-ou-pj": "Pessoa Física",
        "tecnologia": "ADSL2",
        "tipo-de-Produto": "INTERNET",
        "meio-de-acesso": "Cabo Metálico"
    },
    {
        "cidade": "Cacequi",
        "uf": "RS",
        "latitude": -29.888295,
        "longitude": -54.821998,
        "empresa": "OI",
        "pf-ou-pj": "Pessoa Física",
        "tecnologia": "ADSL1",
        "tipo-de-Produto": "INTERNET",
        "meio-de-acesso": "Cabo Metálico"
    },
    {
        "cidade": "Cacequi",
        "uf": "RS",
        "latitude": -29.888295,
        "longitude": -54.821998,
        "empresa": "OI",
        "pf-ou-pj": "Pessoa Física",
        "tecnologia": "ADSL2",
        "tipo-de-Produto": "INTERNET",
        "meio-de-acesso": "Cabo Metálico"
    },
    {
        "cidade": "Cachoeira do Sul",
        "uf": "RS",
        "latitude": -30.032988,
        "longitude": -52.892756,
        "empresa": "OI",
        "pf-ou-pj": "Pessoa Física",
        "tecnologia": "ADSL1",
        "tipo-de-Produto": "INTERNET",
        "meio-de-acesso": "Cabo Metálico"
    },
    {
        "cidade": "Cachoeira do Sul",
        "uf": "RS",
        "latitude": -30.032988,
        "longitude": -52.892756,
        "empresa": "OI",
        "pf-ou-pj": "Pessoa Física",
        "tecnologia": "ADSL2",
        "tipo-de-Produto": "INTERNET",
        "meio-de-acesso": "Cabo Metálico"
    },
    {
        "cidade": "Cachoeirinha",
        "uf": "RS",
        "latitude": -29.947222,
        "longitude": -51.101606,
        "empresa": "OI",
        "pf-ou-pj": "Pessoa Física",
        "tecnologia": "ADSL1",
        "tipo-de-Produto": "INTERNET",
        "meio-de-acesso": "Cabo Metálico"
    },
    {
        "cidade": "Cachoeirinha",
        "uf": "RS",
        "latitude": -29.947222,
        "longitude": -51.101606,
        "empresa": "OI",
        "pf-ou-pj": "Pessoa Física",
        "tecnologia": "ADSL2",
        "tipo-de-Produto": "INTERNET",
        "meio-de-acesso": "Cabo Metálico"
    },
    {
        "cidade": "Cachoeirinha",
        "uf": "RS",
        "latitude": -29.947222,
        "longitude": -51.101606,
        "empresa": "OI",
        "pf-ou-pj": "Pessoa Física",
        "tecnologia": "FTTH",
        "tipo-de-Produto": "INTERNET",
        "meio-de-acesso": "Fibra"
    },
    {
        "cidade": "Cacique Doble",
        "uf": "RS",
        "latitude": -27.767044,
        "longitude": -51.659671,
        "empresa": "OI",
        "pf-ou-pj": "Pessoa Física",
        "tecnologia": "ADSL2",
        "tipo-de-Produto": "INTERNET",
        "meio-de-acesso": "Cabo Metálico"
    },
    {
        "cidade": "Caibaté",
        "uf": "RS",
        "latitude": -28.290475,
        "longitude": -54.645407,
        "empresa": "OI",
        "pf-ou-pj": "Pessoa Física",
        "tecnologia": "ADSL1",
        "tipo-de-Produto": "INTERNET",
        "meio-de-acesso": "Cabo Metálico"
    },
    {
        "cidade": "Caibaté",
        "uf": "RS",
        "latitude": -28.290475,
        "longitude": -54.645407,
        "empresa": "OI",
        "pf-ou-pj": "Pessoa Física",
        "tecnologia": "ADSL2",
        "tipo-de-Produto": "INTERNET",
        "meio-de-acesso": "Cabo Metálico"
    },
    {
        "cidade": "Caiçara",
        "uf": "RS",
        "latitude": -27.279121,
        "longitude": -53.42567,
        "empresa": "OI",
        "pf-ou-pj": "Pessoa Física",
        "tecnologia": "ADSL2",
        "tipo-de-Produto": "INTERNET",
        "meio-de-acesso": "Cabo Metálico"
    },
    {
        "cidade": "Camaquã",
        "uf": "RS",
        "latitude": -30.848897,
        "longitude": -51.80431,
        "empresa": "OI",
        "pf-ou-pj": "Pessoa Física",
        "tecnologia": "ADSL1",
        "tipo-de-Produto": "INTERNET",
        "meio-de-acesso": "Cabo Metálico"
    },
    {
        "cidade": "Camaquã",
        "uf": "RS",
        "latitude": -30.848897,
        "longitude": -51.80431,
        "empresa": "OI",
        "pf-ou-pj": "Pessoa Física",
        "tecnologia": "ADSL2",
        "tipo-de-Produto": "INTERNET",
        "meio-de-acesso": "Cabo Metálico"
    },
    {
        "cidade": "Camaquã",
        "uf": "RS",
        "latitude": -30.848897,
        "longitude": -51.80431,
        "empresa": "OI",
        "pf-ou-pj": "Pessoa Física",
        "tecnologia": "FTTH",
        "tipo-de-Produto": "INTERNET",
        "meio-de-acesso": "Fibra"
    },
    {
        "cidade": "Camargo",
        "uf": "RS",
        "latitude": -28.587979,
        "longitude": -52.200263,
        "empresa": "OI",
        "pf-ou-pj": "Pessoa Física",
        "tecnologia": "ADSL1",
        "tipo-de-Produto": "INTERNET",
        "meio-de-acesso": "Cabo Metálico"
    },
    {
        "cidade": "Camargo",
        "uf": "RS",
        "latitude": -28.587979,
        "longitude": -52.200263,
        "empresa": "OI",
        "pf-ou-pj": "Pessoa Física",
        "tecnologia": "ADSL2",
        "tipo-de-Produto": "INTERNET",
        "meio-de-acesso": "Cabo Metálico"
    },
    {
        "cidade": "Cambará do Sul",
        "uf": "RS",
        "latitude": -29.047408,
        "longitude": -50.146507,
        "empresa": "OI",
        "pf-ou-pj": "Pessoa Física",
        "tecnologia": "ADSL1",
        "tipo-de-Produto": "INTERNET",
        "meio-de-acesso": "Cabo Metálico"
    },
    {
        "cidade": "Cambará do Sul",
        "uf": "RS",
        "latitude": -29.047408,
        "longitude": -50.146507,
        "empresa": "OI",
        "pf-ou-pj": "Pessoa Física",
        "tecnologia": "ADSL2",
        "tipo-de-Produto": "INTERNET",
        "meio-de-acesso": "Cabo Metálico"
    },
    {
        "cidade": "Campestre da Serra",
        "uf": "RS",
        "latitude": -28.792585,
        "longitude": -51.094148,
        "empresa": "OI",
        "pf-ou-pj": "Pessoa Física",
        "tecnologia": "ADSL1",
        "tipo-de-Produto": "INTERNET",
        "meio-de-acesso": "Cabo Metálico"
    },
    {
        "cidade": "Campina das Missões",
        "uf": "RS",
        "latitude": -27.988833,
        "longitude": -54.841648,
        "empresa": "OI",
        "pf-ou-pj": "Pessoa Física",
        "tecnologia": "ADSL1",
        "tipo-de-Produto": "INTERNET",
        "meio-de-acesso": "Cabo Metálico"
    },
    {
        "cidade": "Campina das Missões",
        "uf": "RS",
        "latitude": -27.988833,
        "longitude": -54.841648,
        "empresa": "OI",
        "pf-ou-pj": "Pessoa Física",
        "tecnologia": "ADSL2",
        "tipo-de-Produto": "INTERNET",
        "meio-de-acesso": "Cabo Metálico"
    },
    {
        "cidade": "Campinas do Sul",
        "uf": "RS",
        "latitude": -27.717426,
        "longitude": -52.624808,
        "empresa": "OI",
        "pf-ou-pj": "Pessoa Física",
        "tecnologia": "ADSL1",
        "tipo-de-Produto": "INTERNET",
        "meio-de-acesso": "Cabo Metálico"
    },
    {
        "cidade": "Campo Bom",
        "uf": "RS",
        "latitude": -29.674694,
        "longitude": -51.060601,
        "empresa": "OI",
        "pf-ou-pj": "Pessoa Física",
        "tecnologia": "ADSL1",
        "tipo-de-Produto": "INTERNET",
        "meio-de-acesso": "Cabo Metálico"
    },
    {
        "cidade": "Campo Bom",
        "uf": "RS",
        "latitude": -29.674694,
        "longitude": -51.060601,
        "empresa": "OI",
        "pf-ou-pj": "Pessoa Física",
        "tecnologia": "ADSL2",
        "tipo-de-Produto": "INTERNET",
        "meio-de-acesso": "Cabo Metálico"
    },
    {
        "cidade": "Campo Bom",
        "uf": "RS",
        "latitude": -29.674694,
        "longitude": -51.060601,
        "empresa": "OI",
        "pf-ou-pj": "Pessoa Física",
        "tecnologia": "FTTH",
        "tipo-de-Produto": "INTERNET",
        "meio-de-acesso": "Fibra"
    },
    {
        "cidade": "Campo Novo",
        "uf": "RS",
        "latitude": -27.6792,
        "longitude": -53.805209,
        "empresa": "OI",
        "pf-ou-pj": "Pessoa Física",
        "tecnologia": "ADSL1",
        "tipo-de-Produto": "INTERNET",
        "meio-de-acesso": "Cabo Metálico"
    },
    {
        "cidade": "Campo Novo",
        "uf": "RS",
        "latitude": -27.6792,
        "longitude": -53.805209,
        "empresa": "OI",
        "pf-ou-pj": "Pessoa Física",
        "tecnologia": "ADSL2",
        "tipo-de-Produto": "INTERNET",
        "meio-de-acesso": "Cabo Metálico"
    },
    {
        "cidade": "Campos Borges",
        "uf": "RS",
        "latitude": -28.887148,
        "longitude": -53.000812,
        "empresa": "OI",
        "pf-ou-pj": "Pessoa Física",
        "tecnologia": "ADSL1",
        "tipo-de-Produto": "INTERNET",
        "meio-de-acesso": "Cabo Metálico"
    },
    {
        "cidade": "Campos Borges",
        "uf": "RS",
        "latitude": -28.887148,
        "longitude": -53.000812,
        "empresa": "OI",
        "pf-ou-pj": "Pessoa Física",
        "tecnologia": "ADSL2",
        "tipo-de-Produto": "INTERNET",
        "meio-de-acesso": "Cabo Metálico"
    },
    {
        "cidade": "Candelária",
        "uf": "RS",
        "latitude": -29.668391,
        "longitude": -52.789495,
        "empresa": "OI",
        "pf-ou-pj": "Pessoa Física",
        "tecnologia": "ADSL1",
        "tipo-de-Produto": "INTERNET",
        "meio-de-acesso": "Cabo Metálico"
    },
    {
        "cidade": "Candelária",
        "uf": "RS",
        "latitude": -29.668391,
        "longitude": -52.789495,
        "empresa": "OI",
        "pf-ou-pj": "Pessoa Física",
        "tecnologia": "ADSL2",
        "tipo-de-Produto": "INTERNET",
        "meio-de-acesso": "Cabo Metálico"
    },
    {
        "cidade": "Candiota",
        "uf": "RS",
        "latitude": -31.551553,
        "longitude": -53.677275,
        "empresa": "OI",
        "pf-ou-pj": "Pessoa Física",
        "tecnologia": "ADSL1",
        "tipo-de-Produto": "INTERNET",
        "meio-de-acesso": "Cabo Metálico"
    },
    {
        "cidade": "Candiota",
        "uf": "RS",
        "latitude": -31.551553,
        "longitude": -53.677275,
        "empresa": "OI",
        "pf-ou-pj": "Pessoa Física",
        "tecnologia": "ADSL2",
        "tipo-de-Produto": "INTERNET",
        "meio-de-acesso": "Cabo Metálico"
    },
    {
        "cidade": "Canela",
        "uf": "RS",
        "latitude": -29.355993,
        "longitude": -50.811921,
        "empresa": "OI",
        "pf-ou-pj": "Pessoa Física",
        "tecnologia": "ADSL1",
        "tipo-de-Produto": "INTERNET",
        "meio-de-acesso": "Cabo Metálico"
    },
    {
        "cidade": "Canela",
        "uf": "RS",
        "latitude": -29.355993,
        "longitude": -50.811921,
        "empresa": "OI",
        "pf-ou-pj": "Pessoa Física",
        "tecnologia": "ADSL2",
        "tipo-de-Produto": "INTERNET",
        "meio-de-acesso": "Cabo Metálico"
    },
    {
        "cidade": "Canguçu",
        "uf": "RS",
        "latitude": -31.39598,
        "longitude": -52.678254,
        "empresa": "OI",
        "pf-ou-pj": "Pessoa Física",
        "tecnologia": "ADSL1",
        "tipo-de-Produto": "INTERNET",
        "meio-de-acesso": "Cabo Metálico"
    },
    {
        "cidade": "Canguçu",
        "uf": "RS",
        "latitude": -31.39598,
        "longitude": -52.678254,
        "empresa": "OI",
        "pf-ou-pj": "Pessoa Física",
        "tecnologia": "ADSL2",
        "tipo-de-Produto": "INTERNET",
        "meio-de-acesso": "Cabo Metálico"
    },
    {
        "cidade": "Canoas",
        "uf": "RS",
        "latitude": -29.912758,
        "longitude": -51.185681,
        "empresa": "OI",
        "pf-ou-pj": "Pessoa Física",
        "tecnologia": "ADSL1",
        "tipo-de-Produto": "INTERNET",
        "meio-de-acesso": "Cabo Metálico"
    },
    {
        "cidade": "Canoas",
        "uf": "RS",
        "latitude": -29.912758,
        "longitude": -51.185681,
        "empresa": "OI",
        "pf-ou-pj": "Pessoa Física",
        "tecnologia": "ADSL2",
        "tipo-de-Produto": "INTERNET",
        "meio-de-acesso": "Cabo Metálico"
    },
    {
        "cidade": "Canoas",
        "uf": "RS",
        "latitude": -29.912758,
        "longitude": -51.185681,
        "empresa": "OI",
        "pf-ou-pj": "Pessoa Física",
        "tecnologia": "FTTH",
        "tipo-de-Produto": "INTERNET",
        "meio-de-acesso": "Fibra"
    },
    {
        "cidade": "Capitão",
        "uf": "RS",
        "latitude": -29.267386,
        "longitude": -51.98528,
        "empresa": "OI",
        "pf-ou-pj": "Pessoa Física",
        "tecnologia": "ADSL1",
        "tipo-de-Produto": "INTERNET",
        "meio-de-acesso": "Cabo Metálico"
    },
    {
        "cidade": "Capitão",
        "uf": "RS",
        "latitude": -29.267386,
        "longitude": -51.98528,
        "empresa": "OI",
        "pf-ou-pj": "Pessoa Física",
        "tecnologia": "ADSL2",
        "tipo-de-Produto": "INTERNET",
        "meio-de-acesso": "Cabo Metálico"
    },
    {
        "cidade": "Capivari do Sul",
        "uf": "RS",
        "latitude": -30.138251,
        "longitude": -50.515152,
        "empresa": "OI",
        "pf-ou-pj": "Pessoa Física",
        "tecnologia": "ADSL1",
        "tipo-de-Produto": "INTERNET",
        "meio-de-acesso": "Cabo Metálico"
    },
    {
        "cidade": "Capão da Canoa",
        "uf": "RS",
        "latitude": -29.764242,
        "longitude": -50.028243,
        "empresa": "OI",
        "pf-ou-pj": "Pessoa Física",
        "tecnologia": "ADSL1",
        "tipo-de-Produto": "INTERNET",
        "meio-de-acesso": "Cabo Metálico"
    },
    {
        "cidade": "Capão da Canoa",
        "uf": "RS",
        "latitude": -29.764242,
        "longitude": -50.028243,
        "empresa": "OI",
        "pf-ou-pj": "Pessoa Física",
        "tecnologia": "ADSL2",
        "tipo-de-Produto": "INTERNET",
        "meio-de-acesso": "Cabo Metálico"
    },
    {
        "cidade": "Capão do Leão",
        "uf": "RS",
        "latitude": -31.75646,
        "longitude": -52.488879,
        "empresa": "OI",
        "pf-ou-pj": "Pessoa Física",
        "tecnologia": "ADSL1",
        "tipo-de-Produto": "INTERNET",
        "meio-de-acesso": "Cabo Metálico"
    },
    {
        "cidade": "Capão do Leão",
        "uf": "RS",
        "latitude": -31.75646,
        "longitude": -52.488879,
        "empresa": "OI",
        "pf-ou-pj": "Pessoa Física",
        "tecnologia": "ADSL2",
        "tipo-de-Produto": "INTERNET",
        "meio-de-acesso": "Cabo Metálico"
    },
    {
        "cidade": "Carazinho",
        "uf": "RS",
        "latitude": -28.295844,
        "longitude": -52.79326,
        "empresa": "OI",
        "pf-ou-pj": "Pessoa Física",
        "tecnologia": "ADSL1",
        "tipo-de-Produto": "INTERNET",
        "meio-de-acesso": "Cabo Metálico"
    },
    {
        "cidade": "Carazinho",
        "uf": "RS",
        "latitude": -28.295844,
        "longitude": -52.79326,
        "empresa": "OI",
        "pf-ou-pj": "Pessoa Física",
        "tecnologia": "ADSL2",
        "tipo-de-Produto": "INTERNET",
        "meio-de-acesso": "Cabo Metálico"
    },
    {
        "cidade": "Carazinho",
        "uf": "RS",
        "latitude": -28.295844,
        "longitude": -52.79326,
        "empresa": "OI",
        "pf-ou-pj": "Pessoa Física",
        "tecnologia": "FTTH",
        "tipo-de-Produto": "INTERNET",
        "meio-de-acesso": "Fibra"
    },
    {
        "cidade": "Carlos Barbosa",
        "uf": "RS",
        "latitude": -29.296949,
        "longitude": -51.502847,
        "empresa": "OI",
        "pf-ou-pj": "Pessoa Física",
        "tecnologia": "ADSL1",
        "tipo-de-Produto": "INTERNET",
        "meio-de-acesso": "Cabo Metálico"
    },
    {
        "cidade": "Carlos Barbosa",
        "uf": "RS",
        "latitude": -29.296949,
        "longitude": -51.502847,
        "empresa": "OI",
        "pf-ou-pj": "Pessoa Física",
        "tecnologia": "ADSL2",
        "tipo-de-Produto": "INTERNET",
        "meio-de-acesso": "Cabo Metálico"
    },
    {
        "cidade": "Casca",
        "uf": "RS",
        "latitude": -28.560516,
        "longitude": -51.981452,
        "empresa": "OI",
        "pf-ou-pj": "Pessoa Física",
        "tecnologia": "ADSL1",
        "tipo-de-Produto": "INTERNET",
        "meio-de-acesso": "Cabo Metálico"
    },
    {
        "cidade": "Casca",
        "uf": "RS",
        "latitude": -28.560516,
        "longitude": -51.981452,
        "empresa": "OI",
        "pf-ou-pj": "Pessoa Física",
        "tecnologia": "ADSL2",
        "tipo-de-Produto": "INTERNET",
        "meio-de-acesso": "Cabo Metálico"
    },
    {
        "cidade": "Caseiros",
        "uf": "RS",
        "latitude": -28.25816,
        "longitude": -51.686108,
        "empresa": "OI",
        "pf-ou-pj": "Pessoa Física",
        "tecnologia": "ADSL1",
        "tipo-de-Produto": "INTERNET",
        "meio-de-acesso": "Cabo Metálico"
    },
    {
        "cidade": "Caseiros",
        "uf": "RS",
        "latitude": -28.25816,
        "longitude": -51.686108,
        "empresa": "OI",
        "pf-ou-pj": "Pessoa Física",
        "tecnologia": "ADSL2",
        "tipo-de-Produto": "INTERNET",
        "meio-de-acesso": "Cabo Metálico"
    },
    {
        "cidade": "Catuípe",
        "uf": "RS",
        "latitude": -28.255356,
        "longitude": -54.013215,
        "empresa": "OI",
        "pf-ou-pj": "Pessoa Física",
        "tecnologia": "ADSL1",
        "tipo-de-Produto": "INTERNET",
        "meio-de-acesso": "Cabo Metálico"
    },
    {
        "cidade": "Catuípe",
        "uf": "RS",
        "latitude": -28.255356,
        "longitude": -54.013215,
        "empresa": "OI",
        "pf-ou-pj": "Pessoa Física",
        "tecnologia": "ADSL2",
        "tipo-de-Produto": "INTERNET",
        "meio-de-acesso": "Cabo Metálico"
    },
    {
        "cidade": "Caxias do Sul",
        "uf": "RS",
        "latitude": -29.162905,
        "longitude": -51.179161,
        "empresa": "OI",
        "pf-ou-pj": "Pessoa Física",
        "tecnologia": "ADSL1",
        "tipo-de-Produto": "INTERNET",
        "meio-de-acesso": "Cabo Metálico"
    },
    {
        "cidade": "Caxias do Sul",
        "uf": "RS",
        "latitude": -29.162905,
        "longitude": -51.179161,
        "empresa": "OI",
        "pf-ou-pj": "Pessoa Física",
        "tecnologia": "ADSL2",
        "tipo-de-Produto": "INTERNET",
        "meio-de-acesso": "Cabo Metálico"
    },
    {
        "cidade": "Caxias do Sul",
        "uf": "RS",
        "latitude": -29.162905,
        "longitude": -51.179161,
        "empresa": "OI",
        "pf-ou-pj": "Pessoa Física",
        "tecnologia": "FTTH",
        "tipo-de-Produto": "INTERNET",
        "meio-de-acesso": "Fibra"
    },
    {
        "cidade": "Caçapava do Sul",
        "uf": "RS",
        "latitude": -30.51436,
        "longitude": -53.482684,
        "empresa": "OI",
        "pf-ou-pj": "Pessoa Física",
        "tecnologia": "ADSL1",
        "tipo-de-Produto": "INTERNET",
        "meio-de-acesso": "Cabo Metálico"
    },
    {
        "cidade": "Caçapava do Sul",
        "uf": "RS",
        "latitude": -30.51436,
        "longitude": -53.482684,
        "empresa": "OI",
        "pf-ou-pj": "Pessoa Física",
        "tecnologia": "ADSL2",
        "tipo-de-Produto": "INTERNET",
        "meio-de-acesso": "Cabo Metálico"
    },
    {
        "cidade": "Cerrito",
        "uf": "RS",
        "latitude": -31.841917,
        "longitude": -52.800442,
        "empresa": "OI",
        "pf-ou-pj": "Pessoa Física",
        "tecnologia": "ADSL1",
        "tipo-de-Produto": "INTERNET",
        "meio-de-acesso": "Cabo Metálico"
    },
    {
        "cidade": "Cerro Branco",
        "uf": "RS",
        "latitude": -29.656986,
        "longitude": -52.94061,
        "empresa": "OI",
        "pf-ou-pj": "Pessoa Física",
        "tecnologia": "ADSL2",
        "tipo-de-Produto": "INTERNET",
        "meio-de-acesso": "Cabo Metálico"
    },
    {
        "cidade": "Cerro Grande",
        "uf": "RS",
        "latitude": -27.610621,
        "longitude": -53.167233,
        "empresa": "OI",
        "pf-ou-pj": "Pessoa Física",
        "tecnologia": "ADSL1",
        "tipo-de-Produto": "INTERNET",
        "meio-de-acesso": "Cabo Metálico"
    },
    {
        "cidade": "Cerro Grande",
        "uf": "RS",
        "latitude": -27.610621,
        "longitude": -53.167233,
        "empresa": "OI",
        "pf-ou-pj": "Pessoa Física",
        "tecnologia": "ADSL2",
        "tipo-de-Produto": "INTERNET",
        "meio-de-acesso": "Cabo Metálico"
    },
    {
        "cidade": "Cerro Grande do Sul",
        "uf": "RS",
        "latitude": -30.590472,
        "longitude": -51.741846,
        "empresa": "OI",
        "pf-ou-pj": "Pessoa Física",
        "tecnologia": "ADSL1",
        "tipo-de-Produto": "INTERNET",
        "meio-de-acesso": "Cabo Metálico"
    },
    {
        "cidade": "Cerro Grande do Sul",
        "uf": "RS",
        "latitude": -30.590472,
        "longitude": -51.741846,
        "empresa": "OI",
        "pf-ou-pj": "Pessoa Física",
        "tecnologia": "ADSL2",
        "tipo-de-Produto": "INTERNET",
        "meio-de-acesso": "Cabo Metálico"
    },
    {
        "cidade": "Cerro Largo",
        "uf": "RS",
        "latitude": -28.146251,
        "longitude": -54.742791,
        "empresa": "OI",
        "pf-ou-pj": "Pessoa Física",
        "tecnologia": "ADSL1",
        "tipo-de-Produto": "INTERNET",
        "meio-de-acesso": "Cabo Metálico"
    },
    {
        "cidade": "Cerro Largo",
        "uf": "RS",
        "latitude": -28.146251,
        "longitude": -54.742791,
        "empresa": "OI",
        "pf-ou-pj": "Pessoa Física",
        "tecnologia": "ADSL2",
        "tipo-de-Produto": "INTERNET",
        "meio-de-acesso": "Cabo Metálico"
    },
    {
        "cidade": "Chapada",
        "uf": "RS",
        "latitude": -28.055865,
        "longitude": -53.066519,
        "empresa": "OI",
        "pf-ou-pj": "Pessoa Física",
        "tecnologia": "ADSL1",
        "tipo-de-Produto": "INTERNET",
        "meio-de-acesso": "Cabo Metálico"
    },
    {
        "cidade": "Chapada",
        "uf": "RS",
        "latitude": -28.055865,
        "longitude": -53.066519,
        "empresa": "OI",
        "pf-ou-pj": "Pessoa Física",
        "tecnologia": "ADSL2",
        "tipo-de-Produto": "INTERNET",
        "meio-de-acesso": "Cabo Metálico"
    },
    {
        "cidade": "Charqueadas",
        "uf": "RS",
        "latitude": -29.962478,
        "longitude": -51.628872,
        "empresa": "OI",
        "pf-ou-pj": "Pessoa Física",
        "tecnologia": "ADSL1",
        "tipo-de-Produto": "INTERNET",
        "meio-de-acesso": "Cabo Metálico"
    },
    {
        "cidade": "Charqueadas",
        "uf": "RS",
        "latitude": -29.962478,
        "longitude": -51.628872,
        "empresa": "OI",
        "pf-ou-pj": "Pessoa Física",
        "tecnologia": "ADSL2",
        "tipo-de-Produto": "INTERNET",
        "meio-de-acesso": "Cabo Metálico"
    },
    {
        "cidade": "Chiapetta",
        "uf": "RS",
        "latitude": -27.923017,
        "longitude": -53.941871,
        "empresa": "OI",
        "pf-ou-pj": "Pessoa Física",
        "tecnologia": "ADSL1",
        "tipo-de-Produto": "INTERNET",
        "meio-de-acesso": "Cabo Metálico"
    },
    {
        "cidade": "Chuí",
        "uf": "RS",
        "latitude": -33.68663,
        "longitude": -53.459369,
        "empresa": "OI",
        "pf-ou-pj": "Pessoa Física",
        "tecnologia": "ADSL1",
        "tipo-de-Produto": "INTERNET",
        "meio-de-acesso": "Cabo Metálico"
    },
    {
        "cidade": "Chuí",
        "uf": "RS",
        "latitude": -33.68663,
        "longitude": -53.459369,
        "empresa": "OI",
        "pf-ou-pj": "Pessoa Física",
        "tecnologia": "ADSL2",
        "tipo-de-Produto": "INTERNET",
        "meio-de-acesso": "Cabo Metálico"
    },
    {
        "cidade": "Cidreira",
        "uf": "RS",
        "latitude": -30.160386,
        "longitude": -50.233747,
        "empresa": "OI",
        "pf-ou-pj": "Pessoa Física",
        "tecnologia": "ADSL1",
        "tipo-de-Produto": "INTERNET",
        "meio-de-acesso": "Cabo Metálico"
    },
    {
        "cidade": "Cidreira",
        "uf": "RS",
        "latitude": -30.160386,
        "longitude": -50.233747,
        "empresa": "OI",
        "pf-ou-pj": "Pessoa Física",
        "tecnologia": "ADSL2",
        "tipo-de-Produto": "INTERNET",
        "meio-de-acesso": "Cabo Metálico"
    },
    {
        "cidade": "Ciríaco",
        "uf": "RS",
        "latitude": -28.341913,
        "longitude": -51.874143,
        "empresa": "OI",
        "pf-ou-pj": "Pessoa Física",
        "tecnologia": "ADSL1",
        "tipo-de-Produto": "INTERNET",
        "meio-de-acesso": "Cabo Metálico"
    },
    {
        "cidade": "Colinas",
        "uf": "RS",
        "latitude": -29.394781,
        "longitude": -51.855564,
        "empresa": "OI",
        "pf-ou-pj": "Pessoa Física",
        "tecnologia": "ADSL1",
        "tipo-de-Produto": "INTERNET",
        "meio-de-acesso": "Cabo Metálico"
    },
    {
        "cidade": "Colinas",
        "uf": "RS",
        "latitude": -29.394781,
        "longitude": -51.855564,
        "empresa": "OI",
        "pf-ou-pj": "Pessoa Física",
        "tecnologia": "ADSL2",
        "tipo-de-Produto": "INTERNET",
        "meio-de-acesso": "Cabo Metálico"
    },
    {
        "cidade": "Colorado",
        "uf": "RS",
        "latitude": -28.525842,
        "longitude": -52.99282,
        "empresa": "OI",
        "pf-ou-pj": "Pessoa Física",
        "tecnologia": "ADSL1",
        "tipo-de-Produto": "INTERNET",
        "meio-de-acesso": "Cabo Metálico"
    },
    {
        "cidade": "Colorado",
        "uf": "RS",
        "latitude": -28.525842,
        "longitude": -52.99282,
        "empresa": "OI",
        "pf-ou-pj": "Pessoa Física",
        "tecnologia": "ADSL2",
        "tipo-de-Produto": "INTERNET",
        "meio-de-acesso": "Cabo Metálico"
    },
    {
        "cidade": "Condor",
        "uf": "RS",
        "latitude": -28.207533,
        "longitude": -53.490545,
        "empresa": "OI",
        "pf-ou-pj": "Pessoa Física",
        "tecnologia": "ADSL1",
        "tipo-de-Produto": "INTERNET",
        "meio-de-acesso": "Cabo Metálico"
    },
    {
        "cidade": "Condor",
        "uf": "RS",
        "latitude": -28.207533,
        "longitude": -53.490545,
        "empresa": "OI",
        "pf-ou-pj": "Pessoa Física",
        "tecnologia": "ADSL2",
        "tipo-de-Produto": "INTERNET",
        "meio-de-acesso": "Cabo Metálico"
    },
    {
        "cidade": "Constantina",
        "uf": "RS",
        "latitude": -27.731974,
        "longitude": -52.993799,
        "empresa": "OI",
        "pf-ou-pj": "Pessoa Física",
        "tecnologia": "ADSL1",
        "tipo-de-Produto": "INTERNET",
        "meio-de-acesso": "Cabo Metálico"
    },
    {
        "cidade": "Constantina",
        "uf": "RS",
        "latitude": -27.731974,
        "longitude": -52.993799,
        "empresa": "OI",
        "pf-ou-pj": "Pessoa Física",
        "tecnologia": "ADSL2",
        "tipo-de-Produto": "INTERNET",
        "meio-de-acesso": "Cabo Metálico"
    },
    {
        "cidade": "Coronel Barros",
        "uf": "RS",
        "latitude": -28.392148,
        "longitude": -54.068621,
        "empresa": "OI",
        "pf-ou-pj": "Pessoa Física",
        "tecnologia": "ADSL1",
        "tipo-de-Produto": "INTERNET",
        "meio-de-acesso": "Cabo Metálico"
    },
    {
        "cidade": "Coronel Barros",
        "uf": "RS",
        "latitude": -28.392148,
        "longitude": -54.068621,
        "empresa": "OI",
        "pf-ou-pj": "Pessoa Física",
        "tecnologia": "ADSL2",
        "tipo-de-Produto": "INTERNET",
        "meio-de-acesso": "Cabo Metálico"
    },
    {
        "cidade": "Coronel Bicaco",
        "uf": "RS",
        "latitude": -27.719699,
        "longitude": -53.702164,
        "empresa": "OI",
        "pf-ou-pj": "Pessoa Física",
        "tecnologia": "ADSL1",
        "tipo-de-Produto": "INTERNET",
        "meio-de-acesso": "Cabo Metálico"
    },
    {
        "cidade": "Coronel Bicaco",
        "uf": "RS",
        "latitude": -27.719699,
        "longitude": -53.702164,
        "empresa": "OI",
        "pf-ou-pj": "Pessoa Física",
        "tecnologia": "ADSL2",
        "tipo-de-Produto": "INTERNET",
        "meio-de-acesso": "Cabo Metálico"
    },
    {
        "cidade": "Coronel Pilar",
        "uf": "RS",
        "latitude": -29.269476,
        "longitude": -51.684731,
        "empresa": "OI",
        "pf-ou-pj": "Pessoa Física",
        "tecnologia": "ADSL1",
        "tipo-de-Produto": "INTERNET",
        "meio-de-acesso": "Cabo Metálico"
    },
    {
        "cidade": "Coronel Pilar",
        "uf": "RS",
        "latitude": -29.269476,
        "longitude": -51.684731,
        "empresa": "OI",
        "pf-ou-pj": "Pessoa Física",
        "tecnologia": "ADSL2",
        "tipo-de-Produto": "INTERNET",
        "meio-de-acesso": "Cabo Metálico"
    },
    {
        "cidade": "Cotiporã",
        "uf": "RS",
        "latitude": -28.989106,
        "longitude": -51.697067,
        "empresa": "OI",
        "pf-ou-pj": "Pessoa Física",
        "tecnologia": "ADSL1",
        "tipo-de-Produto": "INTERNET",
        "meio-de-acesso": "Cabo Metálico"
    },
    {
        "cidade": "Cotiporã",
        "uf": "RS",
        "latitude": -28.989106,
        "longitude": -51.697067,
        "empresa": "OI",
        "pf-ou-pj": "Pessoa Física",
        "tecnologia": "ADSL2",
        "tipo-de-Produto": "INTERNET",
        "meio-de-acesso": "Cabo Metálico"
    },
    {
        "cidade": "Coxilha",
        "uf": "RS",
        "latitude": -28.12797,
        "longitude": -52.302343,
        "empresa": "OI",
        "pf-ou-pj": "Pessoa Física",
        "tecnologia": "ADSL1",
        "tipo-de-Produto": "INTERNET",
        "meio-de-acesso": "Cabo Metálico"
    },
    {
        "cidade": "Crissiumal",
        "uf": "RS",
        "latitude": -27.49989,
        "longitude": -54.099372,
        "empresa": "OI",
        "pf-ou-pj": "Pessoa Física",
        "tecnologia": "ADSL1",
        "tipo-de-Produto": "INTERNET",
        "meio-de-acesso": "Cabo Metálico"
    },
    {
        "cidade": "Crissiumal",
        "uf": "RS",
        "latitude": -27.49989,
        "longitude": -54.099372,
        "empresa": "OI",
        "pf-ou-pj": "Pessoa Física",
        "tecnologia": "ADSL2",
        "tipo-de-Produto": "INTERNET",
        "meio-de-acesso": "Cabo Metálico"
    },
    {
        "cidade": "Cristal",
        "uf": "RS",
        "latitude": -31.004634,
        "longitude": -52.043618,
        "empresa": "OI",
        "pf-ou-pj": "Pessoa Física",
        "tecnologia": "ADSL1",
        "tipo-de-Produto": "INTERNET",
        "meio-de-acesso": "Cabo Metálico"
    },
    {
        "cidade": "Cristal",
        "uf": "RS",
        "latitude": -31.004634,
        "longitude": -52.043618,
        "empresa": "OI",
        "pf-ou-pj": "Pessoa Física",
        "tecnologia": "ADSL2",
        "tipo-de-Produto": "INTERNET",
        "meio-de-acesso": "Cabo Metálico"
    },
    {
        "cidade": "Cruz Alta",
        "uf": "RS",
        "latitude": -28.645001,
        "longitude": -53.604831,
        "empresa": "OI",
        "pf-ou-pj": "Pessoa Física",
        "tecnologia": "ADSL1",
        "tipo-de-Produto": "INTERNET",
        "meio-de-acesso": "Cabo Metálico"
    },
    {
        "cidade": "Cruz Alta",
        "uf": "RS",
        "latitude": -28.645001,
        "longitude": -53.604831,
        "empresa": "OI",
        "pf-ou-pj": "Pessoa Física",
        "tecnologia": "ADSL2",
        "tipo-de-Produto": "INTERNET",
        "meio-de-acesso": "Cabo Metálico"
    },
    {
        "cidade": "Cruz Alta",
        "uf": "RS",
        "latitude": -28.645001,
        "longitude": -53.604831,
        "empresa": "OI",
        "pf-ou-pj": "Pessoa Física",
        "tecnologia": "FTTH",
        "tipo-de-Produto": "INTERNET",
        "meio-de-acesso": "Fibra"
    },
    {
        "cidade": "Cruzeiro do Sul",
        "uf": "RS",
        "latitude": -29.514835,
        "longitude": -51.992778,
        "empresa": "OI",
        "pf-ou-pj": "Pessoa Física",
        "tecnologia": "ADSL1",
        "tipo-de-Produto": "INTERNET",
        "meio-de-acesso": "Cabo Metálico"
    },
    {
        "cidade": "Cruzeiro do Sul",
        "uf": "RS",
        "latitude": -29.514835,
        "longitude": -51.992778,
        "empresa": "OI",
        "pf-ou-pj": "Pessoa Física",
        "tecnologia": "ADSL2",
        "tipo-de-Produto": "INTERNET",
        "meio-de-acesso": "Cabo Metálico"
    },
    {
        "cidade": "Cândido Godói",
        "uf": "RS",
        "latitude": -27.951509,
        "longitude": -54.751722,
        "empresa": "OI",
        "pf-ou-pj": "Pessoa Física",
        "tecnologia": "ADSL1",
        "tipo-de-Produto": "INTERNET",
        "meio-de-acesso": "Cabo Metálico"
    },
    {
        "cidade": "Cândido Godói",
        "uf": "RS",
        "latitude": -27.951509,
        "longitude": -54.751722,
        "empresa": "OI",
        "pf-ou-pj": "Pessoa Física",
        "tecnologia": "ADSL2",
        "tipo-de-Produto": "INTERNET",
        "meio-de-acesso": "Cabo Metálico"
    },
    {
        "cidade": "David Canabarro",
        "uf": "RS",
        "latitude": -28.384907,
        "longitude": -51.848205,
        "empresa": "OI",
        "pf-ou-pj": "Pessoa Física",
        "tecnologia": "ADSL1",
        "tipo-de-Produto": "INTERNET",
        "meio-de-acesso": "Cabo Metálico"
    },
    {
        "cidade": "David Canabarro",
        "uf": "RS",
        "latitude": -28.384907,
        "longitude": -51.848205,
        "empresa": "OI",
        "pf-ou-pj": "Pessoa Física",
        "tecnologia": "ADSL2",
        "tipo-de-Produto": "INTERNET",
        "meio-de-acesso": "Cabo Metálico"
    },
    {
        "cidade": "Dezesseis de Novembro",
        "uf": "RS",
        "latitude": -28.219036,
        "longitude": -55.061709,
        "empresa": "OI",
        "pf-ou-pj": "Pessoa Física",
        "tecnologia": "ADSL1",
        "tipo-de-Produto": "INTERNET",
        "meio-de-acesso": "Cabo Metálico"
    },
    {
        "cidade": "Dezesseis de Novembro",
        "uf": "RS",
        "latitude": -28.219036,
        "longitude": -55.061709,
        "empresa": "OI",
        "pf-ou-pj": "Pessoa Física",
        "tecnologia": "ADSL2",
        "tipo-de-Produto": "INTERNET",
        "meio-de-acesso": "Cabo Metálico"
    },
    {
        "cidade": "Dois Irmãos",
        "uf": "RS",
        "latitude": -29.58356,
        "longitude": -51.089776,
        "empresa": "OI",
        "pf-ou-pj": "Pessoa Física",
        "tecnologia": "ADSL1",
        "tipo-de-Produto": "INTERNET",
        "meio-de-acesso": "Cabo Metálico"
    },
    {
        "cidade": "Dois Irmãos",
        "uf": "RS",
        "latitude": -29.58356,
        "longitude": -51.089776,
        "empresa": "OI",
        "pf-ou-pj": "Pessoa Física",
        "tecnologia": "ADSL2",
        "tipo-de-Produto": "INTERNET",
        "meio-de-acesso": "Cabo Metálico"
    },
    {
        "cidade": "Dois Irmãos das Missões",
        "uf": "RS",
        "latitude": -27.662103,
        "longitude": -53.530413,
        "empresa": "OI",
        "pf-ou-pj": "Pessoa Física",
        "tecnologia": "ADSL2",
        "tipo-de-Produto": "INTERNET",
        "meio-de-acesso": "Cabo Metálico"
    },
    {
        "cidade": "Dois Lajeados",
        "uf": "RS",
        "latitude": -28.983006,
        "longitude": -51.839584,
        "empresa": "OI",
        "pf-ou-pj": "Pessoa Física",
        "tecnologia": "ADSL1",
        "tipo-de-Produto": "INTERNET",
        "meio-de-acesso": "Cabo Metálico"
    },
    {
        "cidade": "Dom Feliciano",
        "uf": "RS",
        "latitude": -30.700354,
        "longitude": -52.102645,
        "empresa": "OI",
        "pf-ou-pj": "Pessoa Física",
        "tecnologia": "ADSL1",
        "tipo-de-Produto": "INTERNET",
        "meio-de-acesso": "Cabo Metálico"
    },
    {
        "cidade": "Dom Feliciano",
        "uf": "RS",
        "latitude": -30.700354,
        "longitude": -52.102645,
        "empresa": "OI",
        "pf-ou-pj": "Pessoa Física",
        "tecnologia": "ADSL2",
        "tipo-de-Produto": "INTERNET",
        "meio-de-acesso": "Cabo Metálico"
    },
    {
        "cidade": "Dom Pedrito",
        "uf": "RS",
        "latitude": -30.97559,
        "longitude": -54.66936,
        "empresa": "OI",
        "pf-ou-pj": "Pessoa Física",
        "tecnologia": "ADSL1",
        "tipo-de-Produto": "INTERNET",
        "meio-de-acesso": "Cabo Metálico"
    },
    {
        "cidade": "Dom Pedrito",
        "uf": "RS",
        "latitude": -30.97559,
        "longitude": -54.66936,
        "empresa": "OI",
        "pf-ou-pj": "Pessoa Física",
        "tecnologia": "ADSL2",
        "tipo-de-Produto": "INTERNET",
        "meio-de-acesso": "Cabo Metálico"
    },
    {
        "cidade": "Dona Francisca",
        "uf": "RS",
        "latitude": -29.619507,
        "longitude": -53.361737,
        "empresa": "OI",
        "pf-ou-pj": "Pessoa Física",
        "tecnologia": "ADSL1",
        "tipo-de-Produto": "INTERNET",
        "meio-de-acesso": "Cabo Metálico"
    },
    {
        "cidade": "Dona Francisca",
        "uf": "RS",
        "latitude": -29.619507,
        "longitude": -53.361737,
        "empresa": "OI",
        "pf-ou-pj": "Pessoa Física",
        "tecnologia": "ADSL2",
        "tipo-de-Produto": "INTERNET",
        "meio-de-acesso": "Cabo Metálico"
    },
    {
        "cidade": "Doutor Maurício Cardoso",
        "uf": "RS",
        "latitude": -27.510309,
        "longitude": -54.357746,
        "empresa": "OI",
        "pf-ou-pj": "Pessoa Física",
        "tecnologia": "ADSL1",
        "tipo-de-Produto": "INTERNET",
        "meio-de-acesso": "Cabo Metálico"
    },
    {
        "cidade": "Doutor Maurício Cardoso",
        "uf": "RS",
        "latitude": -27.510309,
        "longitude": -54.357746,
        "empresa": "OI",
        "pf-ou-pj": "Pessoa Física",
        "tecnologia": "ADSL2",
        "tipo-de-Produto": "INTERNET",
        "meio-de-acesso": "Cabo Metálico"
    },
    {
        "cidade": "Eldorado do Sul",
        "uf": "RS",
        "latitude": -30.084676,
        "longitude": -51.618702,
        "empresa": "OI",
        "pf-ou-pj": "Pessoa Física",
        "tecnologia": "ADSL1",
        "tipo-de-Produto": "INTERNET",
        "meio-de-acesso": "Cabo Metálico"
    },
    {
        "cidade": "Eldorado do Sul",
        "uf": "RS",
        "latitude": -30.084676,
        "longitude": -51.618702,
        "empresa": "OI",
        "pf-ou-pj": "Pessoa Física",
        "tecnologia": "ADSL2",
        "tipo-de-Produto": "INTERNET",
        "meio-de-acesso": "Cabo Metálico"
    },
    {
        "cidade": "Eldorado do Sul",
        "uf": "RS",
        "latitude": -30.084676,
        "longitude": -51.618702,
        "empresa": "OI",
        "pf-ou-pj": "Pessoa Física",
        "tecnologia": "FTTH",
        "tipo-de-Produto": "INTERNET",
        "meio-de-acesso": "Fibra"
    },
    {
        "cidade": "Encantado",
        "uf": "RS",
        "latitude": -29.235141,
        "longitude": -51.870282,
        "empresa": "OI",
        "pf-ou-pj": "Pessoa Física",
        "tecnologia": "ADSL1",
        "tipo-de-Produto": "INTERNET",
        "meio-de-acesso": "Cabo Metálico"
    },
    {
        "cidade": "Encantado",
        "uf": "RS",
        "latitude": -29.235141,
        "longitude": -51.870282,
        "empresa": "OI",
        "pf-ou-pj": "Pessoa Física",
        "tecnologia": "ADSL2",
        "tipo-de-Produto": "INTERNET",
        "meio-de-acesso": "Cabo Metálico"
    },
    {
        "cidade": "Encruzilhada do Sul",
        "uf": "RS",
        "latitude": -30.542998,
        "longitude": -52.520381,
        "empresa": "OI",
        "pf-ou-pj": "Pessoa Física",
        "tecnologia": "ADSL1",
        "tipo-de-Produto": "INTERNET",
        "meio-de-acesso": "Cabo Metálico"
    },
    {
        "cidade": "Encruzilhada do Sul",
        "uf": "RS",
        "latitude": -30.542998,
        "longitude": -52.520381,
        "empresa": "OI",
        "pf-ou-pj": "Pessoa Física",
        "tecnologia": "ADSL2",
        "tipo-de-Produto": "INTERNET",
        "meio-de-acesso": "Cabo Metálico"
    },
    {
        "cidade": "Engenho Velho",
        "uf": "RS",
        "latitude": -27.706026,
        "longitude": -52.91454,
        "empresa": "OI",
        "pf-ou-pj": "Pessoa Física",
        "tecnologia": "ADSL1",
        "tipo-de-Produto": "INTERNET",
        "meio-de-acesso": "Cabo Metálico"
    },
    {
        "cidade": "Entre Rios do Sul",
        "uf": "RS",
        "latitude": -27.529836,
        "longitude": -52.734708,
        "empresa": "OI",
        "pf-ou-pj": "Pessoa Física",
        "tecnologia": "ADSL1",
        "tipo-de-Produto": "INTERNET",
        "meio-de-acesso": "Cabo Metálico"
    },
    {
        "cidade": "Entre-Ijuís",
        "uf": "RS",
        "latitude": -28.368556,
        "longitude": -54.268588,
        "empresa": "OI",
        "pf-ou-pj": "Pessoa Física",
        "tecnologia": "ADSL1",
        "tipo-de-Produto": "INTERNET",
        "meio-de-acesso": "Cabo Metálico"
    },
    {
        "cidade": "Entre-Ijuís",
        "uf": "RS",
        "latitude": -28.368556,
        "longitude": -54.268588,
        "empresa": "OI",
        "pf-ou-pj": "Pessoa Física",
        "tecnologia": "ADSL2",
        "tipo-de-Produto": "INTERNET",
        "meio-de-acesso": "Cabo Metálico"
    },
    {
        "cidade": "Erebango",
        "uf": "RS",
        "latitude": -27.854386,
        "longitude": -52.300486,
        "empresa": "OI",
        "pf-ou-pj": "Pessoa Física",
        "tecnologia": "ADSL1",
        "tipo-de-Produto": "INTERNET",
        "meio-de-acesso": "Cabo Metálico"
    },
    {
        "cidade": "Erebango",
        "uf": "RS",
        "latitude": -27.854386,
        "longitude": -52.300486,
        "empresa": "OI",
        "pf-ou-pj": "Pessoa Física",
        "tecnologia": "ADSL2",
        "tipo-de-Produto": "INTERNET",
        "meio-de-acesso": "Cabo Metálico"
    },
    {
        "cidade": "Erechim",
        "uf": "RS",
        "latitude": -27.63638,
        "longitude": -52.26969,
        "empresa": "OI",
        "pf-ou-pj": "Pessoa Física",
        "tecnologia": "ADSL1",
        "tipo-de-Produto": "INTERNET",
        "meio-de-acesso": "Cabo Metálico"
    },
    {
        "cidade": "Erechim",
        "uf": "RS",
        "latitude": -27.63638,
        "longitude": -52.26969,
        "empresa": "OI",
        "pf-ou-pj": "Pessoa Física",
        "tecnologia": "ADSL2",
        "tipo-de-Produto": "INTERNET",
        "meio-de-acesso": "Cabo Metálico"
    },
    {
        "cidade": "Erechim",
        "uf": "RS",
        "latitude": -27.63638,
        "longitude": -52.26969,
        "empresa": "OI",
        "pf-ou-pj": "Pessoa Física",
        "tecnologia": "FTTH",
        "tipo-de-Produto": "INTERNET",
        "meio-de-acesso": "Fibra"
    },
    {
        "cidade": "Ernestina",
        "uf": "RS",
        "latitude": -28.497674,
        "longitude": -52.583566,
        "empresa": "OI",
        "pf-ou-pj": "Pessoa Física",
        "tecnologia": "ADSL1",
        "tipo-de-Produto": "INTERNET",
        "meio-de-acesso": "Cabo Metálico"
    },
    {
        "cidade": "Ernestina",
        "uf": "RS",
        "latitude": -28.497674,
        "longitude": -52.583566,
        "empresa": "OI",
        "pf-ou-pj": "Pessoa Física",
        "tecnologia": "ADSL2",
        "tipo-de-Produto": "INTERNET",
        "meio-de-acesso": "Cabo Metálico"
    },
    {
        "cidade": "Erval Grande",
        "uf": "RS",
        "latitude": -27.392599,
        "longitude": -52.574036,
        "empresa": "OI",
        "pf-ou-pj": "Pessoa Física",
        "tecnologia": "ADSL1",
        "tipo-de-Produto": "INTERNET",
        "meio-de-acesso": "Cabo Metálico"
    },
    {
        "cidade": "Erval Seco",
        "uf": "RS",
        "latitude": -27.544314,
        "longitude": -53.500501,
        "empresa": "OI",
        "pf-ou-pj": "Pessoa Física",
        "tecnologia": "ADSL2",
        "tipo-de-Produto": "INTERNET",
        "meio-de-acesso": "Cabo Metálico"
    },
    {
        "cidade": "Esmeralda",
        "uf": "RS",
        "latitude": -28.051762,
        "longitude": -51.19327,
        "empresa": "OI",
        "pf-ou-pj": "Pessoa Física",
        "tecnologia": "ADSL1",
        "tipo-de-Produto": "INTERNET",
        "meio-de-acesso": "Cabo Metálico"
    },
    {
        "cidade": "Esmeralda",
        "uf": "RS",
        "latitude": -28.051762,
        "longitude": -51.19327,
        "empresa": "OI",
        "pf-ou-pj": "Pessoa Física",
        "tecnologia": "ADSL2",
        "tipo-de-Produto": "INTERNET",
        "meio-de-acesso": "Cabo Metálico"
    },
    {
        "cidade": "Espumoso",
        "uf": "RS",
        "latitude": -28.728633,
        "longitude": -52.84608,
        "empresa": "OI",
        "pf-ou-pj": "Pessoa Física",
        "tecnologia": "ADSL1",
        "tipo-de-Produto": "INTERNET",
        "meio-de-acesso": "Cabo Metálico"
    },
    {
        "cidade": "Espumoso",
        "uf": "RS",
        "latitude": -28.728633,
        "longitude": -52.84608,
        "empresa": "OI",
        "pf-ou-pj": "Pessoa Física",
        "tecnologia": "ADSL2",
        "tipo-de-Produto": "INTERNET",
        "meio-de-acesso": "Cabo Metálico"
    },
    {
        "cidade": "Estação",
        "uf": "RS",
        "latitude": -27.913468,
        "longitude": -52.263536,
        "empresa": "OI",
        "pf-ou-pj": "Pessoa Física",
        "tecnologia": "ADSL1",
        "tipo-de-Produto": "INTERNET",
        "meio-de-acesso": "Cabo Metálico"
    },
    {
        "cidade": "Estação",
        "uf": "RS",
        "latitude": -27.913468,
        "longitude": -52.263536,
        "empresa": "OI",
        "pf-ou-pj": "Pessoa Física",
        "tecnologia": "ADSL2",
        "tipo-de-Produto": "INTERNET",
        "meio-de-acesso": "Cabo Metálico"
    },
    {
        "cidade": "Esteio",
        "uf": "RS",
        "latitude": -29.851963,
        "longitude": -51.184065,
        "empresa": "OI",
        "pf-ou-pj": "Pessoa Física",
        "tecnologia": "ADSL1",
        "tipo-de-Produto": "INTERNET",
        "meio-de-acesso": "Cabo Metálico"
    },
    {
        "cidade": "Esteio",
        "uf": "RS",
        "latitude": -29.851963,
        "longitude": -51.184065,
        "empresa": "OI",
        "pf-ou-pj": "Pessoa Física",
        "tecnologia": "ADSL2",
        "tipo-de-Produto": "INTERNET",
        "meio-de-acesso": "Cabo Metálico"
    },
    {
        "cidade": "Esteio",
        "uf": "RS",
        "latitude": -29.851963,
        "longitude": -51.184065,
        "empresa": "OI",
        "pf-ou-pj": "Pessoa Física",
        "tecnologia": "FTTH",
        "tipo-de-Produto": "INTERNET",
        "meio-de-acesso": "Fibra"
    },
    {
        "cidade": "Estrela",
        "uf": "RS",
        "latitude": -29.500207,
        "longitude": -51.949508,
        "empresa": "OI",
        "pf-ou-pj": "Pessoa Física",
        "tecnologia": "ADSL1",
        "tipo-de-Produto": "INTERNET",
        "meio-de-acesso": "Cabo Metálico"
    },
    {
        "cidade": "Estrela",
        "uf": "RS",
        "latitude": -29.500207,
        "longitude": -51.949508,
        "empresa": "OI",
        "pf-ou-pj": "Pessoa Física",
        "tecnologia": "ADSL2",
        "tipo-de-Produto": "INTERNET",
        "meio-de-acesso": "Cabo Metálico"
    },
    {
        "cidade": "Estância Velha",
        "uf": "RS",
        "latitude": -29.65354,
        "longitude": -51.184339,
        "empresa": "OI",
        "pf-ou-pj": "Pessoa Física",
        "tecnologia": "ADSL1",
        "tipo-de-Produto": "INTERNET",
        "meio-de-acesso": "Cabo Metálico"
    },
    {
        "cidade": "Estância Velha",
        "uf": "RS",
        "latitude": -29.65354,
        "longitude": -51.184339,
        "empresa": "OI",
        "pf-ou-pj": "Pessoa Física",
        "tecnologia": "ADSL2",
        "tipo-de-Produto": "INTERNET",
        "meio-de-acesso": "Cabo Metálico"
    },
    {
        "cidade": "Estância Velha",
        "uf": "RS",
        "latitude": -29.65354,
        "longitude": -51.184339,
        "empresa": "OI",
        "pf-ou-pj": "Pessoa Física",
        "tecnologia": "FTTH",
        "tipo-de-Produto": "INTERNET",
        "meio-de-acesso": "Fibra"
    },
    {
        "cidade": "Eugênio de Castro",
        "uf": "RS",
        "latitude": -28.531467,
        "longitude": -54.15059,
        "empresa": "OI",
        "pf-ou-pj": "Pessoa Física",
        "tecnologia": "ADSL1",
        "tipo-de-Produto": "INTERNET",
        "meio-de-acesso": "Cabo Metálico"
    },
    {
        "cidade": "Eugênio de Castro",
        "uf": "RS",
        "latitude": -28.531467,
        "longitude": -54.15059,
        "empresa": "OI",
        "pf-ou-pj": "Pessoa Física",
        "tecnologia": "ADSL2",
        "tipo-de-Produto": "INTERNET",
        "meio-de-acesso": "Cabo Metálico"
    },
    {
        "cidade": "Fagundes Varela",
        "uf": "RS",
        "latitude": -28.879386,
        "longitude": -51.701425,
        "empresa": "OI",
        "pf-ou-pj": "Pessoa Física",
        "tecnologia": "ADSL2",
        "tipo-de-Produto": "INTERNET",
        "meio-de-acesso": "Cabo Metálico"
    },
    {
        "cidade": "Farroupilha",
        "uf": "RS",
        "latitude": -29.222689,
        "longitude": -51.341853,
        "empresa": "OI",
        "pf-ou-pj": "Pessoa Física",
        "tecnologia": "ADSL1",
        "tipo-de-Produto": "INTERNET",
        "meio-de-acesso": "Cabo Metálico"
    },
    {
        "cidade": "Farroupilha",
        "uf": "RS",
        "latitude": -29.222689,
        "longitude": -51.341853,
        "empresa": "OI",
        "pf-ou-pj": "Pessoa Física",
        "tecnologia": "ADSL2",
        "tipo-de-Produto": "INTERNET",
        "meio-de-acesso": "Cabo Metálico"
    },
    {
        "cidade": "Farroupilha",
        "uf": "RS",
        "latitude": -29.222689,
        "longitude": -51.341853,
        "empresa": "OI",
        "pf-ou-pj": "Pessoa Física",
        "tecnologia": "FTTH",
        "tipo-de-Produto": "INTERNET",
        "meio-de-acesso": "Fibra"
    },
    {
        "cidade": "Faxinal do Soturno",
        "uf": "RS",
        "latitude": -29.578836,
        "longitude": -53.44839,
        "empresa": "OI",
        "pf-ou-pj": "Pessoa Física",
        "tecnologia": "ADSL1",
        "tipo-de-Produto": "INTERNET",
        "meio-de-acesso": "Cabo Metálico"
    },
    {
        "cidade": "Faxinal do Soturno",
        "uf": "RS",
        "latitude": -29.578836,
        "longitude": -53.44839,
        "empresa": "OI",
        "pf-ou-pj": "Pessoa Física",
        "tecnologia": "ADSL2",
        "tipo-de-Produto": "INTERNET",
        "meio-de-acesso": "Cabo Metálico"
    },
    {
        "cidade": "Feliz",
        "uf": "RS",
        "latitude": -29.452703,
        "longitude": -51.303186,
        "empresa": "OI",
        "pf-ou-pj": "Pessoa Física",
        "tecnologia": "ADSL1",
        "tipo-de-Produto": "INTERNET",
        "meio-de-acesso": "Cabo Metálico"
    },
    {
        "cidade": "Feliz",
        "uf": "RS",
        "latitude": -29.452703,
        "longitude": -51.303186,
        "empresa": "OI",
        "pf-ou-pj": "Pessoa Física",
        "tecnologia": "ADSL2",
        "tipo-de-Produto": "INTERNET",
        "meio-de-acesso": "Cabo Metálico"
    },
    {
        "cidade": "Flores da Cunha",
        "uf": "RS",
        "latitude": -29.026147,
        "longitude": -51.187457,
        "empresa": "OI",
        "pf-ou-pj": "Pessoa Física",
        "tecnologia": "ADSL1",
        "tipo-de-Produto": "INTERNET",
        "meio-de-acesso": "Cabo Metálico"
    },
    {
        "cidade": "Flores da Cunha",
        "uf": "RS",
        "latitude": -29.026147,
        "longitude": -51.187457,
        "empresa": "OI",
        "pf-ou-pj": "Pessoa Física",
        "tecnologia": "ADSL2",
        "tipo-de-Produto": "INTERNET",
        "meio-de-acesso": "Cabo Metálico"
    },
    {
        "cidade": "Flores da Cunha",
        "uf": "RS",
        "latitude": -29.026147,
        "longitude": -51.187457,
        "empresa": "OI",
        "pf-ou-pj": "Pessoa Física",
        "tecnologia": "FTTH",
        "tipo-de-Produto": "INTERNET",
        "meio-de-acesso": "Fibra"
    },
    {
        "cidade": "Fontoura Xavier",
        "uf": "RS",
        "latitude": -28.981655,
        "longitude": -52.344455,
        "empresa": "OI",
        "pf-ou-pj": "Pessoa Física",
        "tecnologia": "ADSL1",
        "tipo-de-Produto": "INTERNET",
        "meio-de-acesso": "Cabo Metálico"
    },
    {
        "cidade": "Fontoura Xavier",
        "uf": "RS",
        "latitude": -28.981655,
        "longitude": -52.344455,
        "empresa": "OI",
        "pf-ou-pj": "Pessoa Física",
        "tecnologia": "ADSL2",
        "tipo-de-Produto": "INTERNET",
        "meio-de-acesso": "Cabo Metálico"
    },
    {
        "cidade": "Formigueiro",
        "uf": "RS",
        "latitude": -30.003518,
        "longitude": -53.495928,
        "empresa": "OI",
        "pf-ou-pj": "Pessoa Física",
        "tecnologia": "ADSL1",
        "tipo-de-Produto": "INTERNET",
        "meio-de-acesso": "Cabo Metálico"
    },
    {
        "cidade": "Formigueiro",
        "uf": "RS",
        "latitude": -30.003518,
        "longitude": -53.495928,
        "empresa": "OI",
        "pf-ou-pj": "Pessoa Física",
        "tecnologia": "ADSL2",
        "tipo-de-Produto": "INTERNET",
        "meio-de-acesso": "Cabo Metálico"
    },
    {
        "cidade": "Fortaleza dos Valos",
        "uf": "RS",
        "latitude": -28.798596,
        "longitude": -53.224906,
        "empresa": "OI",
        "pf-ou-pj": "Pessoa Física",
        "tecnologia": "ADSL1",
        "tipo-de-Produto": "INTERNET",
        "meio-de-acesso": "Cabo Metálico"
    },
    {
        "cidade": "Fortaleza dos Valos",
        "uf": "RS",
        "latitude": -28.798596,
        "longitude": -53.224906,
        "empresa": "OI",
        "pf-ou-pj": "Pessoa Física",
        "tecnologia": "ADSL2",
        "tipo-de-Produto": "INTERNET",
        "meio-de-acesso": "Cabo Metálico"
    },
    {
        "cidade": "Frederico Westphalen",
        "uf": "RS",
        "latitude": -27.358644,
        "longitude": -53.395824,
        "empresa": "OI",
        "pf-ou-pj": "Pessoa Física",
        "tecnologia": "ADSL1",
        "tipo-de-Produto": "INTERNET",
        "meio-de-acesso": "Cabo Metálico"
    },
    {
        "cidade": "Frederico Westphalen",
        "uf": "RS",
        "latitude": -27.358644,
        "longitude": -53.395824,
        "empresa": "OI",
        "pf-ou-pj": "Pessoa Física",
        "tecnologia": "ADSL2",
        "tipo-de-Produto": "INTERNET",
        "meio-de-acesso": "Cabo Metálico"
    },
    {
        "cidade": "Frederico Westphalen",
        "uf": "RS",
        "latitude": -27.358644,
        "longitude": -53.395824,
        "empresa": "OI",
        "pf-ou-pj": "Pessoa Física",
        "tecnologia": "FTTB",
        "tipo-de-Produto": "LINHA_DEDICADA",
        "meio-de-acesso": "Fibra"
    },
    {
        "cidade": "Garibaldi",
        "uf": "RS",
        "latitude": -29.258979,
        "longitude": -51.535179,
        "empresa": "OI",
        "pf-ou-pj": "Pessoa Física",
        "tecnologia": "ADSL1",
        "tipo-de-Produto": "INTERNET",
        "meio-de-acesso": "Cabo Metálico"
    },
    {
        "cidade": "Garibaldi",
        "uf": "RS",
        "latitude": -29.258979,
        "longitude": -51.535179,
        "empresa": "OI",
        "pf-ou-pj": "Pessoa Física",
        "tecnologia": "ADSL2",
        "tipo-de-Produto": "INTERNET",
        "meio-de-acesso": "Cabo Metálico"
    },
    {
        "cidade": "Garibaldi",
        "uf": "RS",
        "latitude": -29.258979,
        "longitude": -51.535179,
        "empresa": "OI",
        "pf-ou-pj": "Pessoa Física",
        "tecnologia": "FTTH",
        "tipo-de-Produto": "INTERNET",
        "meio-de-acesso": "Fibra"
    },
    {
        "cidade": "Gaurama",
        "uf": "RS",
        "latitude": -27.585587,
        "longitude": -52.091529,
        "empresa": "OI",
        "pf-ou-pj": "Pessoa Física",
        "tecnologia": "ADSL1",
        "tipo-de-Produto": "INTERNET",
        "meio-de-acesso": "Cabo Metálico"
    },
    {
        "cidade": "Gaurama",
        "uf": "RS",
        "latitude": -27.585587,
        "longitude": -52.091529,
        "empresa": "OI",
        "pf-ou-pj": "Pessoa Física",
        "tecnologia": "ADSL2",
        "tipo-de-Produto": "INTERNET",
        "meio-de-acesso": "Cabo Metálico"
    },
    {
        "cidade": "General Câmara",
        "uf": "RS",
        "latitude": -29.903173,
        "longitude": -51.761178,
        "empresa": "OI",
        "pf-ou-pj": "Pessoa Física",
        "tecnologia": "ADSL1",
        "tipo-de-Produto": "INTERNET",
        "meio-de-acesso": "Cabo Metálico"
    },
    {
        "cidade": "General Câmara",
        "uf": "RS",
        "latitude": -29.903173,
        "longitude": -51.761178,
        "empresa": "OI",
        "pf-ou-pj": "Pessoa Física",
        "tecnologia": "ADSL2",
        "tipo-de-Produto": "INTERNET",
        "meio-de-acesso": "Cabo Metálico"
    },
    {
        "cidade": "Getúlio Vargas",
        "uf": "RS",
        "latitude": -27.891093,
        "longitude": -52.229357,
        "empresa": "OI",
        "pf-ou-pj": "Pessoa Física",
        "tecnologia": "ADSL1",
        "tipo-de-Produto": "INTERNET",
        "meio-de-acesso": "Cabo Metálico"
    },
    {
        "cidade": "Getúlio Vargas",
        "uf": "RS",
        "latitude": -27.891093,
        "longitude": -52.229357,
        "empresa": "OI",
        "pf-ou-pj": "Pessoa Física",
        "tecnologia": "ADSL2",
        "tipo-de-Produto": "INTERNET",
        "meio-de-acesso": "Cabo Metálico"
    },
    {
        "cidade": "Giruá",
        "uf": "RS",
        "latitude": -28.029664,
        "longitude": -54.35168,
        "empresa": "OI",
        "pf-ou-pj": "Pessoa Física",
        "tecnologia": "ADSL1",
        "tipo-de-Produto": "INTERNET",
        "meio-de-acesso": "Cabo Metálico"
    },
    {
        "cidade": "Giruá",
        "uf": "RS",
        "latitude": -28.029664,
        "longitude": -54.35168,
        "empresa": "OI",
        "pf-ou-pj": "Pessoa Física",
        "tecnologia": "ADSL2",
        "tipo-de-Produto": "INTERNET",
        "meio-de-acesso": "Cabo Metálico"
    },
    {
        "cidade": "Glorinha",
        "uf": "RS",
        "latitude": -29.879798,
        "longitude": -50.773363,
        "empresa": "OI",
        "pf-ou-pj": "Pessoa Física",
        "tecnologia": "ADSL1",
        "tipo-de-Produto": "INTERNET",
        "meio-de-acesso": "Cabo Metálico"
    },
    {
        "cidade": "Glorinha",
        "uf": "RS",
        "latitude": -29.879798,
        "longitude": -50.773363,
        "empresa": "OI",
        "pf-ou-pj": "Pessoa Física",
        "tecnologia": "ADSL2",
        "tipo-de-Produto": "INTERNET",
        "meio-de-acesso": "Cabo Metálico"
    },
    {
        "cidade": "Gramado",
        "uf": "RS",
        "latitude": -29.373351,
        "longitude": -50.876164,
        "empresa": "OI",
        "pf-ou-pj": "Pessoa Física",
        "tecnologia": "ADSL1",
        "tipo-de-Produto": "INTERNET",
        "meio-de-acesso": "Cabo Metálico"
    },
    {
        "cidade": "Gramado",
        "uf": "RS",
        "latitude": -29.373351,
        "longitude": -50.876164,
        "empresa": "OI",
        "pf-ou-pj": "Pessoa Física",
        "tecnologia": "ADSL2",
        "tipo-de-Produto": "INTERNET",
        "meio-de-acesso": "Cabo Metálico"
    },
    {
        "cidade": "Gravataí",
        "uf": "RS",
        "latitude": -29.941319,
        "longitude": -50.986891,
        "empresa": "OI",
        "pf-ou-pj": "Pessoa Física",
        "tecnologia": "ADSL1",
        "tipo-de-Produto": "INTERNET",
        "meio-de-acesso": "Cabo Metálico"
    },
    {
        "cidade": "Gravataí",
        "uf": "RS",
        "latitude": -29.941319,
        "longitude": -50.986891,
        "empresa": "OI",
        "pf-ou-pj": "Pessoa Física",
        "tecnologia": "ADSL2",
        "tipo-de-Produto": "INTERNET",
        "meio-de-acesso": "Cabo Metálico"
    },
    {
        "cidade": "Gravataí",
        "uf": "RS",
        "latitude": -29.941319,
        "longitude": -50.986891,
        "empresa": "OI",
        "pf-ou-pj": "Pessoa Física",
        "tecnologia": "FTTH",
        "tipo-de-Produto": "INTERNET",
        "meio-de-acesso": "Fibra"
    },
    {
        "cidade": "Guabiju",
        "uf": "RS",
        "latitude": -28.542083,
        "longitude": -51.69483,
        "empresa": "OI",
        "pf-ou-pj": "Pessoa Física",
        "tecnologia": "ADSL1",
        "tipo-de-Produto": "INTERNET",
        "meio-de-acesso": "Cabo Metálico"
    },
    {
        "cidade": "Guaporé",
        "uf": "RS",
        "latitude": -28.839917,
        "longitude": -51.889542,
        "empresa": "OI",
        "pf-ou-pj": "Pessoa Física",
        "tecnologia": "ADSL1",
        "tipo-de-Produto": "INTERNET",
        "meio-de-acesso": "Cabo Metálico"
    },
    {
        "cidade": "Guaporé",
        "uf": "RS",
        "latitude": -28.839917,
        "longitude": -51.889542,
        "empresa": "OI",
        "pf-ou-pj": "Pessoa Física",
        "tecnologia": "ADSL2",
        "tipo-de-Produto": "INTERNET",
        "meio-de-acesso": "Cabo Metálico"
    },
    {
        "cidade": "Guarani das Missões",
        "uf": "RS",
        "latitude": -28.149117,
        "longitude": -54.562937,
        "empresa": "OI",
        "pf-ou-pj": "Pessoa Física",
        "tecnologia": "ADSL1",
        "tipo-de-Produto": "INTERNET",
        "meio-de-acesso": "Cabo Metálico"
    },
    {
        "cidade": "Guarani das Missões",
        "uf": "RS",
        "latitude": -28.149117,
        "longitude": -54.562937,
        "empresa": "OI",
        "pf-ou-pj": "Pessoa Física",
        "tecnologia": "ADSL2",
        "tipo-de-Produto": "INTERNET",
        "meio-de-acesso": "Cabo Metálico"
    },
    {
        "cidade": "Guaíba",
        "uf": "RS",
        "latitude": -30.108592,
        "longitude": -51.323314,
        "empresa": "OI",
        "pf-ou-pj": "Pessoa Física",
        "tecnologia": "ADSL1",
        "tipo-de-Produto": "INTERNET",
        "meio-de-acesso": "Cabo Metálico"
    },
    {
        "cidade": "Guaíba",
        "uf": "RS",
        "latitude": -30.108592,
        "longitude": -51.323314,
        "empresa": "OI",
        "pf-ou-pj": "Pessoa Física",
        "tecnologia": "ADSL2",
        "tipo-de-Produto": "INTERNET",
        "meio-de-acesso": "Cabo Metálico"
    },
    {
        "cidade": "Guaíba",
        "uf": "RS",
        "latitude": -30.108592,
        "longitude": -51.323314,
        "empresa": "OI",
        "pf-ou-pj": "Pessoa Física",
        "tecnologia": "FTTH",
        "tipo-de-Produto": "INTERNET",
        "meio-de-acesso": "Fibra"
    },
    {
        "cidade": "Harmonia",
        "uf": "RS",
        "latitude": -29.545556,
        "longitude": -51.418502,
        "empresa": "OI",
        "pf-ou-pj": "Pessoa Física",
        "tecnologia": "ADSL1",
        "tipo-de-Produto": "INTERNET",
        "meio-de-acesso": "Cabo Metálico"
    },
    {
        "cidade": "Harmonia",
        "uf": "RS",
        "latitude": -29.545556,
        "longitude": -51.418502,
        "empresa": "OI",
        "pf-ou-pj": "Pessoa Física",
        "tecnologia": "ADSL2",
        "tipo-de-Produto": "INTERNET",
        "meio-de-acesso": "Cabo Metálico"
    },
    {
        "cidade": "Herval",
        "uf": "RS",
        "latitude": -32.023985,
        "longitude": -53.394362,
        "empresa": "OI",
        "pf-ou-pj": "Pessoa Física",
        "tecnologia": "ADSL1",
        "tipo-de-Produto": "INTERNET",
        "meio-de-acesso": "Cabo Metálico"
    },
    {
        "cidade": "Herval",
        "uf": "RS",
        "latitude": -32.023985,
        "longitude": -53.394362,
        "empresa": "OI",
        "pf-ou-pj": "Pessoa Física",
        "tecnologia": "ADSL2",
        "tipo-de-Produto": "INTERNET",
        "meio-de-acesso": "Cabo Metálico"
    },
    {
        "cidade": "Horizontina",
        "uf": "RS",
        "latitude": -27.628238,
        "longitude": -54.305336,
        "empresa": "OI",
        "pf-ou-pj": "Pessoa Física",
        "tecnologia": "ADSL1",
        "tipo-de-Produto": "INTERNET",
        "meio-de-acesso": "Cabo Metálico"
    },
    {
        "cidade": "Horizontina",
        "uf": "RS",
        "latitude": -27.628238,
        "longitude": -54.305336,
        "empresa": "OI",
        "pf-ou-pj": "Pessoa Física",
        "tecnologia": "ADSL2",
        "tipo-de-Produto": "INTERNET",
        "meio-de-acesso": "Cabo Metálico"
    },
    {
        "cidade": "Hulha Negra",
        "uf": "RS",
        "latitude": -31.406721,
        "longitude": -53.866702,
        "empresa": "OI",
        "pf-ou-pj": "Pessoa Física",
        "tecnologia": "ADSL2",
        "tipo-de-Produto": "INTERNET",
        "meio-de-acesso": "Cabo Metálico"
    },
    {
        "cidade": "Humaitá",
        "uf": "RS",
        "latitude": -27.569065,
        "longitude": -53.969525,
        "empresa": "OI",
        "pf-ou-pj": "Pessoa Física",
        "tecnologia": "ADSL1",
        "tipo-de-Produto": "INTERNET",
        "meio-de-acesso": "Cabo Metálico"
    },
    {
        "cidade": "Humaitá",
        "uf": "RS",
        "latitude": -27.569065,
        "longitude": -53.969525,
        "empresa": "OI",
        "pf-ou-pj": "Pessoa Física",
        "tecnologia": "ADSL2",
        "tipo-de-Produto": "INTERNET",
        "meio-de-acesso": "Cabo Metálico"
    },
    {
        "cidade": "Ibarama",
        "uf": "RS",
        "latitude": -29.420321,
        "longitude": -53.129493,
        "empresa": "OI",
        "pf-ou-pj": "Pessoa Física",
        "tecnologia": "ADSL2",
        "tipo-de-Produto": "INTERNET",
        "meio-de-acesso": "Cabo Metálico"
    },
    {
        "cidade": "Ibiaçá",
        "uf": "RS",
        "latitude": -28.056556,
        "longitude": -51.859851,
        "empresa": "OI",
        "pf-ou-pj": "Pessoa Física",
        "tecnologia": "ADSL1",
        "tipo-de-Produto": "INTERNET",
        "meio-de-acesso": "Cabo Metálico"
    },
    {
        "cidade": "Ibiaçá",
        "uf": "RS",
        "latitude": -28.056556,
        "longitude": -51.859851,
        "empresa": "OI",
        "pf-ou-pj": "Pessoa Física",
        "tecnologia": "ADSL2",
        "tipo-de-Produto": "INTERNET",
        "meio-de-acesso": "Cabo Metálico"
    },
    {
        "cidade": "Ibiraiaras",
        "uf": "RS",
        "latitude": -28.374095,
        "longitude": -51.63767,
        "empresa": "OI",
        "pf-ou-pj": "Pessoa Física",
        "tecnologia": "ADSL1",
        "tipo-de-Produto": "INTERNET",
        "meio-de-acesso": "Cabo Metálico"
    },
    {
        "cidade": "Ibiraiaras",
        "uf": "RS",
        "latitude": -28.374095,
        "longitude": -51.63767,
        "empresa": "OI",
        "pf-ou-pj": "Pessoa Física",
        "tecnologia": "ADSL2",
        "tipo-de-Produto": "INTERNET",
        "meio-de-acesso": "Cabo Metálico"
    },
    {
        "cidade": "Ibirapuitã",
        "uf": "RS",
        "latitude": -28.624707,
        "longitude": -52.515796,
        "empresa": "OI",
        "pf-ou-pj": "Pessoa Física",
        "tecnologia": "ADSL2",
        "tipo-de-Produto": "INTERNET",
        "meio-de-acesso": "Cabo Metálico"
    },
    {
        "cidade": "Ibirubá",
        "uf": "RS",
        "latitude": -28.630161,
        "longitude": -53.096124,
        "empresa": "OI",
        "pf-ou-pj": "Pessoa Física",
        "tecnologia": "ADSL1",
        "tipo-de-Produto": "INTERNET",
        "meio-de-acesso": "Cabo Metálico"
    },
    {
        "cidade": "Ibirubá",
        "uf": "RS",
        "latitude": -28.630161,
        "longitude": -53.096124,
        "empresa": "OI",
        "pf-ou-pj": "Pessoa Física",
        "tecnologia": "ADSL2",
        "tipo-de-Produto": "INTERNET",
        "meio-de-acesso": "Cabo Metálico"
    },
    {
        "cidade": "Igrejinha",
        "uf": "RS",
        "latitude": -29.569318,
        "longitude": -50.791894,
        "empresa": "OI",
        "pf-ou-pj": "Pessoa Física",
        "tecnologia": "ADSL1",
        "tipo-de-Produto": "INTERNET",
        "meio-de-acesso": "Cabo Metálico"
    },
    {
        "cidade": "Igrejinha",
        "uf": "RS",
        "latitude": -29.569318,
        "longitude": -50.791894,
        "empresa": "OI",
        "pf-ou-pj": "Pessoa Física",
        "tecnologia": "ADSL2",
        "tipo-de-Produto": "INTERNET",
        "meio-de-acesso": "Cabo Metálico"
    },
    {
        "cidade": "Ijuí",
        "uf": "RS",
        "latitude": -28.388048,
        "longitude": -53.91996,
        "empresa": "OI",
        "pf-ou-pj": "Pessoa Física",
        "tecnologia": "ADSL1",
        "tipo-de-Produto": "INTERNET",
        "meio-de-acesso": "Cabo Metálico"
    },
    {
        "cidade": "Ijuí",
        "uf": "RS",
        "latitude": -28.388048,
        "longitude": -53.91996,
        "empresa": "OI",
        "pf-ou-pj": "Pessoa Física",
        "tecnologia": "ADSL2",
        "tipo-de-Produto": "INTERNET",
        "meio-de-acesso": "Cabo Metálico"
    },
    {
        "cidade": "Ijuí",
        "uf": "RS",
        "latitude": -28.388048,
        "longitude": -53.91996,
        "empresa": "OI",
        "pf-ou-pj": "Pessoa Física",
        "tecnologia": "FTTH",
        "tipo-de-Produto": "INTERNET",
        "meio-de-acesso": "Fibra"
    },
    {
        "cidade": "Ilópolis",
        "uf": "RS",
        "latitude": -28.92825,
        "longitude": -52.125816,
        "empresa": "OI",
        "pf-ou-pj": "Pessoa Física",
        "tecnologia": "ADSL1",
        "tipo-de-Produto": "INTERNET",
        "meio-de-acesso": "Cabo Metálico"
    },
    {
        "cidade": "Imbé",
        "uf": "RS",
        "latitude": -29.975269,
        "longitude": -50.128068,
        "empresa": "OI",
        "pf-ou-pj": "Pessoa Física",
        "tecnologia": "ADSL1",
        "tipo-de-Produto": "INTERNET",
        "meio-de-acesso": "Cabo Metálico"
    },
    {
        "cidade": "Imbé",
        "uf": "RS",
        "latitude": -29.975269,
        "longitude": -50.128068,
        "empresa": "OI",
        "pf-ou-pj": "Pessoa Física",
        "tecnologia": "ADSL2",
        "tipo-de-Produto": "INTERNET",
        "meio-de-acesso": "Cabo Metálico"
    },
    {
        "cidade": "Imigrante",
        "uf": "RS",
        "latitude": -29.350776,
        "longitude": -51.774752,
        "empresa": "OI",
        "pf-ou-pj": "Pessoa Física",
        "tecnologia": "ADSL1",
        "tipo-de-Produto": "INTERNET",
        "meio-de-acesso": "Cabo Metálico"
    },
    {
        "cidade": "Imigrante",
        "uf": "RS",
        "latitude": -29.350776,
        "longitude": -51.774752,
        "empresa": "OI",
        "pf-ou-pj": "Pessoa Física",
        "tecnologia": "ADSL2",
        "tipo-de-Produto": "INTERNET",
        "meio-de-acesso": "Cabo Metálico"
    },
    {
        "cidade": "Independência",
        "uf": "RS",
        "latitude": -27.835411,
        "longitude": -54.18864,
        "empresa": "OI",
        "pf-ou-pj": "Pessoa Física",
        "tecnologia": "ADSL1",
        "tipo-de-Produto": "INTERNET",
        "meio-de-acesso": "Cabo Metálico"
    },
    {
        "cidade": "Independência",
        "uf": "RS",
        "latitude": -27.835411,
        "longitude": -54.18864,
        "empresa": "OI",
        "pf-ou-pj": "Pessoa Física",
        "tecnologia": "ADSL2",
        "tipo-de-Produto": "INTERNET",
        "meio-de-acesso": "Cabo Metálico"
    },
    {
        "cidade": "Inhacorá",
        "uf": "RS",
        "latitude": -27.875187,
        "longitude": -54.014978,
        "empresa": "OI",
        "pf-ou-pj": "Pessoa Física",
        "tecnologia": "ADSL1",
        "tipo-de-Produto": "INTERNET",
        "meio-de-acesso": "Cabo Metálico"
    },
    {
        "cidade": "Inhacorá",
        "uf": "RS",
        "latitude": -27.875187,
        "longitude": -54.014978,
        "empresa": "OI",
        "pf-ou-pj": "Pessoa Física",
        "tecnologia": "ADSL2",
        "tipo-de-Produto": "INTERNET",
        "meio-de-acesso": "Cabo Metálico"
    },
    {
        "cidade": "Ipiranga do Sul",
        "uf": "RS",
        "latitude": -27.940366,
        "longitude": -52.427124,
        "empresa": "OI",
        "pf-ou-pj": "Pessoa Física",
        "tecnologia": "ADSL1",
        "tipo-de-Produto": "INTERNET",
        "meio-de-acesso": "Cabo Metálico"
    },
    {
        "cidade": "Ipê",
        "uf": "RS",
        "latitude": -28.817098,
        "longitude": -51.285931,
        "empresa": "OI",
        "pf-ou-pj": "Pessoa Física",
        "tecnologia": "ADSL1",
        "tipo-de-Produto": "INTERNET",
        "meio-de-acesso": "Cabo Metálico"
    },
    {
        "cidade": "Ipê",
        "uf": "RS",
        "latitude": -28.817098,
        "longitude": -51.285931,
        "empresa": "OI",
        "pf-ou-pj": "Pessoa Física",
        "tecnologia": "ADSL2",
        "tipo-de-Produto": "INTERNET",
        "meio-de-acesso": "Cabo Metálico"
    },
    {
        "cidade": "Iraí",
        "uf": "RS",
        "latitude": -27.19507,
        "longitude": -53.254322,
        "empresa": "OI",
        "pf-ou-pj": "Pessoa Física",
        "tecnologia": "ADSL1",
        "tipo-de-Produto": "INTERNET",
        "meio-de-acesso": "Cabo Metálico"
    },