[
    {
        "cidade": "Acarape",
        "uf": "CE",
        "latitude": null,
        "longitude": null,
        "empresa": "OI",
        "pf-ou-pj": "Pessoa Física",
        "tecnologia": "ADSL2",
        "tipo-de-Produto": "INTERNET",
        "meio-de-acesso": "Cabo Metálico"
    },
    {
        "cidade": "Acaraú",
        "uf": "CE",
        "latitude": -2.887689,
        "longitude": -40.118306,
        "empresa": "OI",
        "pf-ou-pj": "Pessoa Física",
        "tecnologia": "ADSL1",
        "tipo-de-Produto": "INTERNET",
        "meio-de-acesso": "Cabo Metálico"
    },
    {
        "cidade": "Acaraú",
        "uf": "CE",
        "latitude": -2.887689,
        "longitude": -40.118306,
        "empresa": "OI",
        "pf-ou-pj": "Pessoa Física",
        "tecnologia": "ADSL2",
        "tipo-de-Produto": "INTERNET",
        "meio-de-acesso": "Cabo Metálico"
    },
    {
        "cidade": "Acopiara",
        "uf": "CE",
        "latitude": -6.089114,
        "longitude": -39.448042,
        "empresa": "OI",
        "pf-ou-pj": "Pessoa Física",
        "tecnologia": "ADSL1",
        "tipo-de-Produto": "INTERNET",
        "meio-de-acesso": "Cabo Metálico"
    },
    {
        "cidade": "Acopiara",
        "uf": "CE",
        "latitude": -6.089114,
        "longitude": -39.448042,
        "empresa": "OI",
        "pf-ou-pj": "Pessoa Física",
        "tecnologia": "ADSL2",
        "tipo-de-Produto": "INTERNET",
        "meio-de-acesso": "Cabo Metálico"
    },
    {
        "cidade": "Alcântaras",
        "uf": "CE",
        "latitude": -3.585369,
        "longitude": -40.547867,
        "empresa": "OI",
        "pf-ou-pj": "Pessoa Física",
        "tecnologia": "ADSL2",
        "tipo-de-Produto": "INTERNET",
        "meio-de-acesso": "Cabo Metálico"
    },
    {
        "cidade": "Alto Santo",
        "uf": "CE",
        "latitude": -5.508941,
        "longitude": -38.274318,
        "empresa": "OI",
        "pf-ou-pj": "Pessoa Física",
        "tecnologia": "ADSL2",
        "tipo-de-Produto": "INTERNET",
        "meio-de-acesso": "Cabo Metálico"
    },
    {
        "cidade": "Amontada",
        "uf": "CE",
        "latitude": -3.360166,
        "longitude": -39.828816,
        "empresa": "OI",
        "pf-ou-pj": "Pessoa Física",
        "tecnologia": "ADSL2",
        "tipo-de-Produto": "INTERNET",
        "meio-de-acesso": "Cabo Metálico"
    },
    {
        "cidade": "Apuiarés",
        "uf": "CE",
        "latitude": -3.945057,
        "longitude": -39.43593,
        "empresa": "OI",
        "pf-ou-pj": "Pessoa Física",
        "tecnologia": "ADSL1",
        "tipo-de-Produto": "INTERNET",
        "meio-de-acesso": "Cabo Metálico"
    },
    {
        "cidade": "Aquiraz",
        "uf": "CE",
        "latitude": -3.899293,
        "longitude": -38.389563,
        "empresa": "OI",
        "pf-ou-pj": "Pessoa Física",
        "tecnologia": "ADSL1",
        "tipo-de-Produto": "INTERNET",
        "meio-de-acesso": "Cabo Metálico"
    },
    {
        "cidade": "Aquiraz",
        "uf": "CE",
        "latitude": -3.899293,
        "longitude": -38.389563,
        "empresa": "OI",
        "pf-ou-pj": "Pessoa Física",
        "tecnologia": "ADSL2",
        "tipo-de-Produto": "INTERNET",
        "meio-de-acesso": "Cabo Metálico"
    },
    {
        "cidade": "Aracati",
        "uf": "CE",
        "latitude": -4.558259,
        "longitude": -37.767894,
        "empresa": "OI",
        "pf-ou-pj": "Pessoa Física",
        "tecnologia": "ADSL1",
        "tipo-de-Produto": "INTERNET",
        "meio-de-acesso": "Cabo Metálico"
    },
    {
        "cidade": "Aracati",
        "uf": "CE",
        "latitude": -4.558259,
        "longitude": -37.767894,
        "empresa": "OI",
        "pf-ou-pj": "Pessoa Física",
        "tecnologia": "ADSL2",
        "tipo-de-Produto": "INTERNET",
        "meio-de-acesso": "Cabo Metálico"
    },
    {
        "cidade": "Aracoiaba",
        "uf": "CE",
        "latitude": -4.36872,
        "longitude": -38.812512,
        "empresa": "OI",
        "pf-ou-pj": "Pessoa Física",
        "tecnologia": "ADSL2",
        "tipo-de-Produto": "INTERNET",
        "meio-de-acesso": "Cabo Metálico"
    },
    {
        "cidade": "Ararendá",
        "uf": "CE",
        "latitude": -4.745667,
        "longitude": -40.83099,
        "empresa": "OI",
        "pf-ou-pj": "Pessoa Física",
        "tecnologia": "ADSL2",
        "tipo-de-Produto": "INTERNET",
        "meio-de-acesso": "Cabo Metálico"
    },
    {
        "cidade": "Araripe",
        "uf": "CE",
        "latitude": -7.213195,
        "longitude": -40.135894,
        "empresa": "OI",
        "pf-ou-pj": "Pessoa Física",
        "tecnologia": "ADSL1",
        "tipo-de-Produto": "INTERNET",
        "meio-de-acesso": "Cabo Metálico"
    },
    {
        "cidade": "Arneiroz",
        "uf": "CE",
        "latitude": -6.316499,
        "longitude": -40.165285,
        "empresa": "OI",
        "pf-ou-pj": "Pessoa Física",
        "tecnologia": "ADSL1",
        "tipo-de-Produto": "INTERNET",
        "meio-de-acesso": "Cabo Metálico"
    },
    {
        "cidade": "Assaré",
        "uf": "CE",
        "latitude": -6.866897,
        "longitude": -39.868872,
        "empresa": "OI",
        "pf-ou-pj": "Pessoa Física",
        "tecnologia": "ADSL2",
        "tipo-de-Produto": "INTERNET",
        "meio-de-acesso": "Cabo Metálico"
    },
    {
        "cidade": "Barbalha",
        "uf": "CE",
        "latitude": -7.298203,
        "longitude": -39.30208,
        "empresa": "OI",
        "pf-ou-pj": "Pessoa Física",
        "tecnologia": "ADSL1",
        "tipo-de-Produto": "INTERNET",
        "meio-de-acesso": "Cabo Metálico"
    },
    {
        "cidade": "Barbalha",
        "uf": "CE",
        "latitude": -7.298203,
        "longitude": -39.30208,
        "empresa": "OI",
        "pf-ou-pj": "Pessoa Física",
        "tecnologia": "ADSL2",
        "tipo-de-Produto": "INTERNET",
        "meio-de-acesso": "Cabo Metálico"
    },
    {
        "cidade": "Barbalha",
        "uf": "CE",
        "latitude": -7.298203,
        "longitude": -39.30208,
        "empresa": "OI",
        "pf-ou-pj": "Pessoa Física",
        "tecnologia": "FTTH",
        "tipo-de-Produto": "INTERNET",
        "meio-de-acesso": "Fibra"
    },
    {
        "cidade": "Barreira",
        "uf": "CE",
        "latitude": -4.289206,
        "longitude": -38.64291,
        "empresa": "OI",
        "pf-ou-pj": "Pessoa Física",
        "tecnologia": "ADSL1",
        "tipo-de-Produto": "INTERNET",
        "meio-de-acesso": "Cabo Metálico"
    },
    {
        "cidade": "Barreira",
        "uf": "CE",
        "latitude": -4.289206,
        "longitude": -38.64291,
        "empresa": "OI",
        "pf-ou-pj": "Pessoa Física",
        "tecnologia": "ADSL2",
        "tipo-de-Produto": "INTERNET",
        "meio-de-acesso": "Cabo Metálico"
    },
    {
        "cidade": "Barroquinha",
        "uf": "CE",
        "latitude": -3.020514,
        "longitude": -41.13585,
        "empresa": "OI",
        "pf-ou-pj": "Pessoa Física",
        "tecnologia": "ADSL1",
        "tipo-de-Produto": "INTERNET",
        "meio-de-acesso": "Cabo Metálico"
    },
    {
        "cidade": "Baturité",
        "uf": "CE",
        "latitude": -4.325983,
        "longitude": -38.881206,
        "empresa": "OI",
        "pf-ou-pj": "Pessoa Física",
        "tecnologia": "ADSL1",
        "tipo-de-Produto": "INTERNET",
        "meio-de-acesso": "Cabo Metálico"
    },
    {
        "cidade": "Baturité",
        "uf": "CE",
        "latitude": -4.325983,
        "longitude": -38.881206,
        "empresa": "OI",
        "pf-ou-pj": "Pessoa Física",
        "tecnologia": "ADSL2",
        "tipo-de-Produto": "INTERNET",
        "meio-de-acesso": "Cabo Metálico"
    },
    {
        "cidade": "Beberibe",
        "uf": "CE",
        "latitude": -4.177415,
        "longitude": -38.127075,
        "empresa": "OI",
        "pf-ou-pj": "Pessoa Física",
        "tecnologia": "ADSL1",
        "tipo-de-Produto": "INTERNET",
        "meio-de-acesso": "Cabo Metálico"
    },
    {
        "cidade": "Beberibe",
        "uf": "CE",
        "latitude": -4.177415,
        "longitude": -38.127075,
        "empresa": "OI",
        "pf-ou-pj": "Pessoa Física",
        "tecnologia": "ADSL2",
        "tipo-de-Produto": "INTERNET",
        "meio-de-acesso": "Cabo Metálico"
    },
    {
        "cidade": "Bela Cruz",
        "uf": "CE",
        "latitude": -3.049964,
        "longitude": -40.167127,
        "empresa": "OI",
        "pf-ou-pj": "Pessoa Física",
        "tecnologia": "ADSL2",
        "tipo-de-Produto": "INTERNET",
        "meio-de-acesso": "Cabo Metálico"
    },
    {
        "cidade": "Boa Viagem",
        "uf": "CE",
        "latitude": -5.112583,
        "longitude": -39.733652,
        "empresa": "OI",
        "pf-ou-pj": "Pessoa Física",
        "tecnologia": "ADSL1",
        "tipo-de-Produto": "INTERNET",
        "meio-de-acesso": "Cabo Metálico"
    },
    {
        "cidade": "Boa Viagem",
        "uf": "CE",
        "latitude": -5.112583,
        "longitude": -39.733652,
        "empresa": "OI",
        "pf-ou-pj": "Pessoa Física",
        "tecnologia": "ADSL2",
        "tipo-de-Produto": "INTERNET",
        "meio-de-acesso": "Cabo Metálico"
    },
    {
        "cidade": "Boa Viagem",
        "uf": "CE",
        "latitude": -5.112583,
        "longitude": -39.733652,
        "empresa": "OI",
        "pf-ou-pj": "Pessoa Física",
        "tecnologia": "FWA",
        "tipo-de-Produto": "LINHA_DEDICADA",
        "meio-de-acesso": "Cabo Metálico"
    },
    {
        "cidade": "Brejo Santo",
        "uf": "CE",
        "latitude": -7.484686,
        "longitude": -38.979911,
        "empresa": "OI",
        "pf-ou-pj": "Pessoa Física",
        "tecnologia": "ADSL1",
        "tipo-de-Produto": "INTERNET",
        "meio-de-acesso": "Cabo Metálico"
    },
    {
        "cidade": "Brejo Santo",
        "uf": "CE",
        "latitude": -7.484686,
        "longitude": -38.979911,
        "empresa": "OI",
        "pf-ou-pj": "Pessoa Física",
        "tecnologia": "ADSL2",
        "tipo-de-Produto": "INTERNET",
        "meio-de-acesso": "Cabo Metálico"
    },
    {
        "cidade": "Camocim",
        "uf": "CE",
        "latitude": -2.900499,
        "longitude": -40.854362,
        "empresa": "OI",
        "pf-ou-pj": "Pessoa Física",
        "tecnologia": "ADSL1",
        "tipo-de-Produto": "INTERNET",
        "meio-de-acesso": "Cabo Metálico"
    },
    {
        "cidade": "Camocim",
        "uf": "CE",
        "latitude": -2.900499,
        "longitude": -40.854362,
        "empresa": "OI",
        "pf-ou-pj": "Pessoa Física",
        "tecnologia": "ADSL2",
        "tipo-de-Produto": "INTERNET",
        "meio-de-acesso": "Cabo Metálico"
    },
    {
        "cidade": "Campos Sales",
        "uf": "CE",
        "latitude": -7.067611,
        "longitude": -40.368678,
        "empresa": "OI",
        "pf-ou-pj": "Pessoa Física",
        "tecnologia": "ADSL1",
        "tipo-de-Produto": "INTERNET",
        "meio-de-acesso": "Cabo Metálico"
    },
    {
        "cidade": "Campos Sales",
        "uf": "CE",
        "latitude": -7.067611,
        "longitude": -40.368678,
        "empresa": "OI",
        "pf-ou-pj": "Pessoa Física",
        "tecnologia": "ADSL2",
        "tipo-de-Produto": "INTERNET",
        "meio-de-acesso": "Cabo Metálico"
    },
    {
        "cidade": "Canindé",
        "uf": "CE",
        "latitude": -4.351618,
        "longitude": -39.315505,
        "empresa": "OI",
        "pf-ou-pj": "Pessoa Física",
        "tecnologia": "ADSL1",
        "tipo-de-Produto": "INTERNET",
        "meio-de-acesso": "Cabo Metálico"
    },
    {
        "cidade": "Canindé",
        "uf": "CE",
        "latitude": -4.351618,
        "longitude": -39.315505,
        "empresa": "OI",
        "pf-ou-pj": "Pessoa Física",
        "tecnologia": "ADSL2",
        "tipo-de-Produto": "INTERNET",
        "meio-de-acesso": "Cabo Metálico"
    },
    {
        "cidade": "Capistrano",
        "uf": "CE",
        "latitude": -4.455688,
        "longitude": -38.904842,
        "empresa": "OI",
        "pf-ou-pj": "Pessoa Física",
        "tecnologia": "ADSL1",
        "tipo-de-Produto": "INTERNET",
        "meio-de-acesso": "Cabo Metálico"
    },
    {
        "cidade": "Capistrano",
        "uf": "CE",
        "latitude": -4.455688,
        "longitude": -38.904842,
        "empresa": "OI",
        "pf-ou-pj": "Pessoa Física",
        "tecnologia": "ADSL2",
        "tipo-de-Produto": "INTERNET",
        "meio-de-acesso": "Cabo Metálico"
    },
    {
        "cidade": "Caridade",
        "uf": "CE",
        "latitude": -4.225141,
        "longitude": -39.191166,
        "empresa": "OI",
        "pf-ou-pj": "Pessoa Física",
        "tecnologia": "ADSL1",
        "tipo-de-Produto": "INTERNET",
        "meio-de-acesso": "Cabo Metálico"
    },
    {
        "cidade": "Cariús",
        "uf": "CE",
        "latitude": -6.524282,
        "longitude": -39.491619,
        "empresa": "OI",
        "pf-ou-pj": "Pessoa Física",
        "tecnologia": "ADSL1",
        "tipo-de-Produto": "INTERNET",
        "meio-de-acesso": "Cabo Metálico"
    },
    {
        "cidade": "Carnaubal",
        "uf": "CE",
        "latitude": -4.159846,
        "longitude": -40.941304,
        "empresa": "OI",
        "pf-ou-pj": "Pessoa Física",
        "tecnologia": "ADSL2",
        "tipo-de-Produto": "INTERNET",
        "meio-de-acesso": "Cabo Metálico"
    },
    {
        "cidade": "Cascavel",
        "uf": "CE",
        "latitude": -4.129666,
        "longitude": -38.241178,
        "empresa": "OI",
        "pf-ou-pj": "Pessoa Física",
        "tecnologia": "ADSL1",
        "tipo-de-Produto": "INTERNET",
        "meio-de-acesso": "Cabo Metálico"
    },
    {
        "cidade": "Cascavel",
        "uf": "CE",
        "latitude": -4.129666,
        "longitude": -38.241178,
        "empresa": "OI",
        "pf-ou-pj": "Pessoa Física",
        "tecnologia": "ADSL2",
        "tipo-de-Produto": "INTERNET",
        "meio-de-acesso": "Cabo Metálico"
    },
    {
        "cidade": "Catarina",
        "uf": "CE",
        "latitude": -6.122911,
        "longitude": -39.873644,
        "empresa": "OI",
        "pf-ou-pj": "Pessoa Física",
        "tecnologia": "ADSL1",
        "tipo-de-Produto": "INTERNET",
        "meio-de-acesso": "Cabo Metálico"
    },
    {
        "cidade": "Catarina",
        "uf": "CE",
        "latitude": -6.122911,
        "longitude": -39.873644,
        "empresa": "OI",
        "pf-ou-pj": "Pessoa Física",
        "tecnologia": "ADSL2",
        "tipo-de-Produto": "INTERNET",
        "meio-de-acesso": "Cabo Metálico"
    },
    {
        "cidade": "Caucaia",
        "uf": "CE",
        "latitude": -3.727966,
        "longitude": -38.661931,
        "empresa": "OI",
        "pf-ou-pj": "Pessoa Física",
        "tecnologia": "ADSL1",
        "tipo-de-Produto": "INTERNET",
        "meio-de-acesso": "Cabo Metálico"
    },
    {
        "cidade": "Caucaia",
        "uf": "CE",
        "latitude": -3.727966,
        "longitude": -38.661931,
        "empresa": "OI",
        "pf-ou-pj": "Pessoa Física",
        "tecnologia": "ADSL2",
        "tipo-de-Produto": "INTERNET",
        "meio-de-acesso": "Cabo Metálico"
    },
    {
        "cidade": "Caucaia",
        "uf": "CE",
        "latitude": -3.727966,
        "longitude": -38.661931,
        "empresa": "OI",
        "pf-ou-pj": "Pessoa Física",
        "tecnologia": "FTTH",
        "tipo-de-Produto": "INTERNET",
        "meio-de-acesso": "Fibra"
    },
    {
        "cidade": "Chaval",
        "uf": "CE",
        "latitude": -3.035708,
        "longitude": -41.24346,
        "empresa": "OI",
        "pf-ou-pj": "Pessoa Física",
        "tecnologia": "ADSL2",
        "tipo-de-Produto": "INTERNET",
        "meio-de-acesso": "Cabo Metálico"
    },
    {
        "cidade": "Chorozinho",
        "uf": "CE",
        "latitude": -4.28873,
        "longitude": -38.498572,
        "empresa": "OI",
        "pf-ou-pj": "Pessoa Física",
        "tecnologia": "ADSL1",
        "tipo-de-Produto": "INTERNET",
        "meio-de-acesso": "Cabo Metálico"
    },
    {
        "cidade": "Chorozinho",
        "uf": "CE",
        "latitude": -4.28873,
        "longitude": -38.498572,
        "empresa": "OI",
        "pf-ou-pj": "Pessoa Física",
        "tecnologia": "ADSL2",
        "tipo-de-Produto": "INTERNET",
        "meio-de-acesso": "Cabo Metálico"
    },
    {
        "cidade": "Choró",
        "uf": "CE",
        "latitude": -4.839062,
        "longitude": -39.134397,
        "empresa": "OI",
        "pf-ou-pj": "Pessoa Física",
        "tecnologia": "ADSL1",
        "tipo-de-Produto": "INTERNET",
        "meio-de-acesso": "Cabo Metálico"
    },
    {
        "cidade": "Choró",
        "uf": "CE",
        "latitude": -4.839062,
        "longitude": -39.134397,
        "empresa": "OI",
        "pf-ou-pj": "Pessoa Física",
        "tecnologia": "ADSL2",
        "tipo-de-Produto": "INTERNET",
        "meio-de-acesso": "Cabo Metálico"
    },
    {
        "cidade": "Coreaú",
        "uf": "CE",
        "latitude": -3.541496,
        "longitude": -40.658656,
        "empresa": "OI",
        "pf-ou-pj": "Pessoa Física",
        "tecnologia": "ADSL1",
        "tipo-de-Produto": "INTERNET",
        "meio-de-acesso": "Cabo Metálico"
    },
    {
        "cidade": "Coreaú",
        "uf": "CE",
        "latitude": -3.541496,
        "longitude": -40.658656,
        "empresa": "OI",
        "pf-ou-pj": "Pessoa Física",
        "tecnologia": "ADSL2",
        "tipo-de-Produto": "INTERNET",
        "meio-de-acesso": "Cabo Metálico"
    },
    {
        "cidade": "Crateús",
        "uf": "CE",
        "latitude": -5.167683,
        "longitude": -40.653635,
        "empresa": "OI",
        "pf-ou-pj": "Pessoa Física",
        "tecnologia": "ADSL1",
        "tipo-de-Produto": "INTERNET",
        "meio-de-acesso": "Cabo Metálico"
    },
    {
        "cidade": "Crateús",
        "uf": "CE",
        "latitude": -5.167683,
        "longitude": -40.653635,
        "empresa": "OI",
        "pf-ou-pj": "Pessoa Física",
        "tecnologia": "ADSL2",
        "tipo-de-Produto": "INTERNET",
        "meio-de-acesso": "Cabo Metálico"
    },
    {
        "cidade": "Crato",
        "uf": "CE",
        "latitude": -7.215303,
        "longitude": -39.410299,
        "empresa": "OI",
        "pf-ou-pj": "Pessoa Física",
        "tecnologia": "ADSL1",
        "tipo-de-Produto": "INTERNET",
        "meio-de-acesso": "Cabo Metálico"
    },
    {
        "cidade": "Crato",
        "uf": "CE",
        "latitude": -7.215303,
        "longitude": -39.410299,
        "empresa": "OI",
        "pf-ou-pj": "Pessoa Física",
        "tecnologia": "ADSL2",
        "tipo-de-Produto": "INTERNET",
        "meio-de-acesso": "Cabo Metálico"
    },
    {
        "cidade": "Crato",
        "uf": "CE",
        "latitude": -7.215303,
        "longitude": -39.410299,
        "empresa": "OI",
        "pf-ou-pj": "Pessoa Física",
        "tecnologia": "FTTH",
        "tipo-de-Produto": "INTERNET",
        "meio-de-acesso": "Fibra"
    },
    {
        "cidade": "Croatá",
        "uf": "CE",
        "latitude": -4.404805,
        "longitude": -40.902228,
        "empresa": "OI",
        "pf-ou-pj": "Pessoa Física",
        "tecnologia": "ADSL2",
        "tipo-de-Produto": "INTERNET",
        "meio-de-acesso": "Cabo Metálico"
    },
    {
        "cidade": "Eusébio",
        "uf": "CE",
        "latitude": -3.892501,
        "longitude": -38.455875,
        "empresa": "OI",
        "pf-ou-pj": "Pessoa Física",
        "tecnologia": "ADSL1",
        "tipo-de-Produto": "INTERNET",
        "meio-de-acesso": "Cabo Metálico"
    },
    {
        "cidade": "Eusébio",
        "uf": "CE",
        "latitude": -3.892501,
        "longitude": -38.455875,
        "empresa": "OI",
        "pf-ou-pj": "Pessoa Física",
        "tecnologia": "ADSL2",
        "tipo-de-Produto": "INTERNET",
        "meio-de-acesso": "Cabo Metálico"
    },
    {
        "cidade": "Forquilha",
        "uf": "CE",
        "latitude": -3.799447,
        "longitude": -40.263405,
        "empresa": "OI",
        "pf-ou-pj": "Pessoa Física",
        "tecnologia": "ADSL1",
        "tipo-de-Produto": "INTERNET",
        "meio-de-acesso": "Cabo Metálico"
    },
    {
        "cidade": "Forquilha",
        "uf": "CE",
        "latitude": -3.799447,
        "longitude": -40.263405,
        "empresa": "OI",
        "pf-ou-pj": "Pessoa Física",
        "tecnologia": "ADSL2",
        "tipo-de-Produto": "INTERNET",
        "meio-de-acesso": "Cabo Metálico"
    },
    {
        "cidade": "Fortaleza",
        "uf": "CE",
        "latitude": -3.716638,
        "longitude": -38.542298,
        "empresa": "OI",
        "pf-ou-pj": "Pessoa Física",
        "tecnologia": "ADSL1",
        "tipo-de-Produto": "INTERNET",
        "meio-de-acesso": "Cabo Metálico"
    },
    {
        "cidade": "Fortaleza",
        "uf": "CE",
        "latitude": -3.716638,
        "longitude": -38.542298,
        "empresa": "OI",
        "pf-ou-pj": "Pessoa Física",
        "tecnologia": "ADSL2",
        "tipo-de-Produto": "INTERNET",
        "meio-de-acesso": "Cabo Metálico"
    },
    {
        "cidade": "Fortaleza",
        "uf": "CE",
        "latitude": -3.716638,
        "longitude": -38.542298,
        "empresa": "OI",
        "pf-ou-pj": "Pessoa Física",
        "tecnologia": "FTTH",
        "tipo-de-Produto": "INTERNET",
        "meio-de-acesso": "Fibra"
    },
    {
        "cidade": "Fortaleza",
        "uf": "CE",
        "latitude": -3.716638,
        "longitude": -38.542298,
        "empresa": "OI",
        "pf-ou-pj": "Pessoa Física",
        "tecnologia": "FWA",
        "tipo-de-Produto": "LINHA_DEDICADA",
        "meio-de-acesso": "Cabo Metálico"
    },
    {
        "cidade": "Fortim",
        "uf": "CE",
        "latitude": -4.451256,
        "longitude": -37.798056,
        "empresa": "OI",
        "pf-ou-pj": "Pessoa Física",
        "tecnologia": "ADSL1",
        "tipo-de-Produto": "INTERNET",
        "meio-de-acesso": "Cabo Metálico"
    },
    {
        "cidade": "Fortim",
        "uf": "CE",
        "latitude": -4.451256,
        "longitude": -37.798056,
        "empresa": "OI",
        "pf-ou-pj": "Pessoa Física",
        "tecnologia": "ADSL2",
        "tipo-de-Produto": "INTERNET",
        "meio-de-acesso": "Cabo Metálico"
    },
    {
        "cidade": "Frecheirinha",
        "uf": "CE",
        "latitude": -3.755572,
        "longitude": -40.818019,
        "empresa": "OI",
        "pf-ou-pj": "Pessoa Física",
        "tecnologia": "ADSL1",
        "tipo-de-Produto": "INTERNET",
        "meio-de-acesso": "Cabo Metálico"
    },
    {
        "cidade": "Granja",
        "uf": "CE",
        "latitude": -3.127879,
        "longitude": -40.837205,
        "empresa": "OI",
        "pf-ou-pj": "Pessoa Física",
        "tecnologia": "ADSL1",
        "tipo-de-Produto": "INTERNET",
        "meio-de-acesso": "Cabo Metálico"
    },
    {
        "cidade": "Granja",
        "uf": "CE",
        "latitude": -3.127879,
        "longitude": -40.837205,
        "empresa": "OI",
        "pf-ou-pj": "Pessoa Física",
        "tecnologia": "ADSL2",
        "tipo-de-Produto": "INTERNET",
        "meio-de-acesso": "Cabo Metálico"
    },
    {
        "cidade": "Groaíras",
        "uf": "CE",
        "latitude": -3.917868,
        "longitude": -40.385225,
        "empresa": "OI",
        "pf-ou-pj": "Pessoa Física",
        "tecnologia": "ADSL1",
        "tipo-de-Produto": "INTERNET",
        "meio-de-acesso": "Cabo Metálico"
    },
    {
        "cidade": "Guaiúba",
        "uf": "CE",
        "latitude": -4.040571,
        "longitude": -38.640372,
        "empresa": "OI",
        "pf-ou-pj": "Pessoa Física",
        "tecnologia": "ADSL2",
        "tipo-de-Produto": "INTERNET",
        "meio-de-acesso": "Cabo Metálico"
    },
    {
        "cidade": "Guaraciaba do Norte",
        "uf": "CE",
        "latitude": -4.158136,
        "longitude": -40.747588,
        "empresa": "OI",
        "pf-ou-pj": "Pessoa Física",
        "tecnologia": "ADSL2",
        "tipo-de-Produto": "INTERNET",
        "meio-de-acesso": "Cabo Metálico"
    },
    {
        "cidade": "Guaramiranga",
        "uf": "CE",
        "latitude": -4.262477,
        "longitude": -38.932044,
        "empresa": "OI",
        "pf-ou-pj": "Pessoa Física",
        "tecnologia": "ADSL2",
        "tipo-de-Produto": "INTERNET",
        "meio-de-acesso": "Cabo Metálico"
    },
    {
        "cidade": "Hidrolândia",
        "uf": "CE",
        "latitude": -4.409579,
        "longitude": -40.405595,
        "empresa": "OI",
        "pf-ou-pj": "Pessoa Física",
        "tecnologia": "ADSL2",
        "tipo-de-Produto": "INTERNET",
        "meio-de-acesso": "Cabo Metálico"
    },
    {
        "cidade": "Horizonte",
        "uf": "CE",
        "latitude": -4.120896,
        "longitude": -38.470674,
        "empresa": "OI",
        "pf-ou-pj": "Pessoa Física",
        "tecnologia": "ADSL1",
        "tipo-de-Produto": "INTERNET",
        "meio-de-acesso": "Cabo Metálico"
    },
    {
        "cidade": "Horizonte",
        "uf": "CE",
        "latitude": -4.120896,
        "longitude": -38.470674,
        "empresa": "OI",
        "pf-ou-pj": "Pessoa Física",
        "tecnologia": "ADSL2",
        "tipo-de-Produto": "INTERNET",
        "meio-de-acesso": "Cabo Metálico"
    },
    {
        "cidade": "Ibiapina",
        "uf": "CE",
        "latitude": -3.924025,
        "longitude": -40.891147,
        "empresa": "OI",
        "pf-ou-pj": "Pessoa Física",
        "tecnologia": "ADSL1",
        "tipo-de-Produto": "INTERNET",
        "meio-de-acesso": "Cabo Metálico"
    },
    {
        "cidade": "Ibiapina",
        "uf": "CE",
        "latitude": -3.924025,
        "longitude": -40.891147,
        "empresa": "OI",
        "pf-ou-pj": "Pessoa Física",
        "tecnologia": "ADSL2",
        "tipo-de-Produto": "INTERNET",
        "meio-de-acesso": "Cabo Metálico"
    },
    {
        "cidade": "Icapuí",
        "uf": "CE",
        "latitude": -4.712063,
        "longitude": -37.353062,
        "empresa": "OI",
        "pf-ou-pj": "Pessoa Física",
        "tecnologia": "ADSL2",
        "tipo-de-Produto": "INTERNET",
        "meio-de-acesso": "Cabo Metálico"
    },
    {
        "cidade": "Icó",
        "uf": "CE",
        "latitude": -6.396271,
        "longitude": -38.855352,
        "empresa": "OI",
        "pf-ou-pj": "Pessoa Física",
        "tecnologia": "ADSL1",
        "tipo-de-Produto": "INTERNET",
        "meio-de-acesso": "Cabo Metálico"
    },
    {
        "cidade": "Icó",
        "uf": "CE",
        "latitude": -6.396271,
        "longitude": -38.855352,
        "empresa": "OI",
        "pf-ou-pj": "Pessoa Física",
        "tecnologia": "ADSL2",
        "tipo-de-Produto": "INTERNET",
        "meio-de-acesso": "Cabo Metálico"
    },
    {
        "cidade": "Iguatu",
        "uf": "CE",
        "latitude": -6.362806,
        "longitude": -39.28915,
        "empresa": "OI",
        "pf-ou-pj": "Pessoa Física",
        "tecnologia": "ADSL1",
        "tipo-de-Produto": "INTERNET",
        "meio-de-acesso": "Cabo Metálico"
    },
    {
        "cidade": "Iguatu",
        "uf": "CE",
        "latitude": -6.362806,
        "longitude": -39.28915,
        "empresa": "OI",
        "pf-ou-pj": "Pessoa Física",
        "tecnologia": "ADSL2",
        "tipo-de-Produto": "INTERNET",
        "meio-de-acesso": "Cabo Metálico"
    },
    {
        "cidade": "Iguatu",
        "uf": "CE",
        "latitude": -6.362806,
        "longitude": -39.28915,
        "empresa": "OI",
        "pf-ou-pj": "Pessoa Física",
        "tecnologia": "FTTH",
        "tipo-de-Produto": "INTERNET",
        "meio-de-acesso": "Fibra"
    },
    {
        "cidade": "Independência",
        "uf": "CE",
        "latitude": -5.387889,
        "longitude": -40.308526,
        "empresa": "OI",
        "pf-ou-pj": "Pessoa Física",
        "tecnologia": "ADSL1",
        "tipo-de-Produto": "INTERNET",
        "meio-de-acesso": "Cabo Metálico"
    },
    {
        "cidade": "Independência",
        "uf": "CE",
        "latitude": -5.387889,
        "longitude": -40.308526,
        "empresa": "OI",
        "pf-ou-pj": "Pessoa Física",
        "tecnologia": "ADSL2",
        "tipo-de-Produto": "INTERNET",
        "meio-de-acesso": "Cabo Metálico"
    },
    {
        "cidade": "Ipu",
        "uf": "CE",
        "latitude": -4.317484,
        "longitude": -40.705877,
        "empresa": "OI",
        "pf-ou-pj": "Pessoa Física",
        "tecnologia": "ADSL2",
        "tipo-de-Produto": "INTERNET",
        "meio-de-acesso": "Cabo Metálico"
    },
    {
        "cidade": "Iracema",
        "uf": "CE",
        "latitude": -5.8124,
        "longitude": -38.291943,
        "empresa": "OI",
        "pf-ou-pj": "Pessoa Física",
        "tecnologia": "ADSL1",
        "tipo-de-Produto": "INTERNET",
        "meio-de-acesso": "Cabo Metálico"
    },
    {
        "cidade": "Irauçuba",
        "uf": "CE",
        "latitude": -3.747367,
        "longitude": -39.784332,
        "empresa": "OI",
        "pf-ou-pj": "Pessoa Física",
        "tecnologia": "ADSL1",
        "tipo-de-Produto": "INTERNET",
        "meio-de-acesso": "Cabo Metálico"
    },
    {
        "cidade": "Irauçuba",
        "uf": "CE",
        "latitude": -3.747367,
        "longitude": -39.784332,
        "empresa": "OI",
        "pf-ou-pj": "Pessoa Física",
        "tecnologia": "ADSL2",
        "tipo-de-Produto": "INTERNET",
        "meio-de-acesso": "Cabo Metálico"
    },
    {
        "cidade": "Itaitinga",
        "uf": "CE",
        "latitude": -3.965768,
        "longitude": -38.529763,
        "empresa": "OI",
        "pf-ou-pj": "Pessoa Física",
        "tecnologia": "ADSL1",
        "tipo-de-Produto": "INTERNET",
        "meio-de-acesso": "Cabo Metálico"
    },
    {
        "cidade": "Itaitinga",
        "uf": "CE",
        "latitude": -3.965768,
        "longitude": -38.529763,
        "empresa": "OI",
        "pf-ou-pj": "Pessoa Física",
        "tecnologia": "ADSL2",
        "tipo-de-Produto": "INTERNET",
        "meio-de-acesso": "Cabo Metálico"
    },
    {
        "cidade": "Itapajé",
        "uf": "CE",
        "latitude": -3.683137,
        "longitude": -39.585531,
        "empresa": "OI",
        "pf-ou-pj": "Pessoa Física",
        "tecnologia": "ADSL1",
        "tipo-de-Produto": "INTERNET",
        "meio-de-acesso": "Cabo Metálico"
    },
    {
        "cidade": "Itapajé",
        "uf": "CE",
        "latitude": -3.683137,
        "longitude": -39.585531,
        "empresa": "OI",
        "pf-ou-pj": "Pessoa Física",
        "tecnologia": "ADSL2",
        "tipo-de-Produto": "INTERNET",
        "meio-de-acesso": "Cabo Metálico"
    },
    {
        "cidade": "Itapipoca",
        "uf": "CE",
        "latitude": -3.499329,
        "longitude": -39.583571,
        "empresa": "OI",
        "pf-ou-pj": "Pessoa Física",
        "tecnologia": "ADSL1",
        "tipo-de-Produto": "INTERNET",
        "meio-de-acesso": "Cabo Metálico"
    },
    {
        "cidade": "Itapipoca",
        "uf": "CE",
        "latitude": -3.499329,
        "longitude": -39.583571,
        "empresa": "OI",
        "pf-ou-pj": "Pessoa Física",
        "tecnologia": "ADSL2",
        "tipo-de-Produto": "INTERNET",
        "meio-de-acesso": "Cabo Metálico"
    },
    {
        "cidade": "Itapiúna",
        "uf": "CE",
        "latitude": -4.555165,
        "longitude": -38.928113,
        "empresa": "OI",
        "pf-ou-pj": "Pessoa Física",
        "tecnologia": "ADSL2",
        "tipo-de-Produto": "INTERNET",
        "meio-de-acesso": "Cabo Metálico"
    },
    {
        "cidade": "Itarema",
        "uf": "CE",
        "latitude": -2.924797,
        "longitude": -39.916654,
        "empresa": "OI",
        "pf-ou-pj": "Pessoa Física",
        "tecnologia": "ADSL1",
        "tipo-de-Produto": "INTERNET",
        "meio-de-acesso": "Cabo Metálico"
    },
    {
        "cidade": "Itarema",
        "uf": "CE",
        "latitude": -2.924797,
        "longitude": -39.916654,
        "empresa": "OI",
        "pf-ou-pj": "Pessoa Física",
        "tecnologia": "ADSL2",
        "tipo-de-Produto": "INTERNET",
        "meio-de-acesso": "Cabo Metálico"
    },
    {
        "cidade": "Itatira",
        "uf": "CE",
        "latitude": -4.526076,
        "longitude": -39.620155,
        "empresa": "OI",
        "pf-ou-pj": "Pessoa Física",
        "tecnologia": "ADSL1",
        "tipo-de-Produto": "INTERNET",
        "meio-de-acesso": "Cabo Metálico"
    },
    {
        "cidade": "Jaguaretama",
        "uf": "CE",
        "latitude": -5.605096,
        "longitude": -38.763861,
        "empresa": "OI",
        "pf-ou-pj": "Pessoa Física",
        "tecnologia": "ADSL1",
        "tipo-de-Produto": "INTERNET",
        "meio-de-acesso": "Cabo Metálico"
    },
    {
        "cidade": "Jaguaribe",
        "uf": "CE",
        "latitude": -5.902134,
        "longitude": -38.622653,
        "empresa": "OI",
        "pf-ou-pj": "Pessoa Física",
        "tecnologia": "ADSL1",
        "tipo-de-Produto": "INTERNET",
        "meio-de-acesso": "Cabo Metálico"
    },
    {
        "cidade": "Jaguaribe",
        "uf": "CE",
        "latitude": -5.902134,
        "longitude": -38.622653,
        "empresa": "OI",
        "pf-ou-pj": "Pessoa Física",
        "tecnologia": "ADSL2",
        "tipo-de-Produto": "INTERNET",
        "meio-de-acesso": "Cabo Metálico"
    },
    {
        "cidade": "Jardim",
        "uf": "CE",
        "latitude": -7.575989,
        "longitude": -39.28262,
        "empresa": "OI",
        "pf-ou-pj": "Pessoa Física",
        "tecnologia": "ADSL1",
        "tipo-de-Produto": "INTERNET",
        "meio-de-acesso": "Cabo Metálico"
    },
    {
        "cidade": "Jati",
        "uf": "CE",
        "latitude": -7.6797,
        "longitude": -39.002871,
        "empresa": "OI",
        "pf-ou-pj": "Pessoa Física",
        "tecnologia": "ADSL2",
        "tipo-de-Produto": "INTERNET",
        "meio-de-acesso": "Cabo Metálico"
    },
    {
        "cidade": "Juazeiro do Norte",
        "uf": "CE",
        "latitude": -7.196207,
        "longitude": -39.307593,
        "empresa": "OI",
        "pf-ou-pj": "Pessoa Física",
        "tecnologia": "ADSL1",
        "tipo-de-Produto": "INTERNET",
        "meio-de-acesso": "Cabo Metálico"
    },
    {
        "cidade": "Juazeiro do Norte",
        "uf": "CE",
        "latitude": -7.196207,
        "longitude": -39.307593,
        "empresa": "OI",
        "pf-ou-pj": "Pessoa Física",
        "tecnologia": "ADSL2",
        "tipo-de-Produto": "INTERNET",
        "meio-de-acesso": "Cabo Metálico"
    },
    {
        "cidade": "Juazeiro do Norte",
        "uf": "CE",
        "latitude": -7.196207,
        "longitude": -39.307593,
        "empresa": "OI",
        "pf-ou-pj": "Pessoa Física",
        "tecnologia": "ADSL2",
        "tipo-de-Produto": "INTERNET",
        "meio-de-acesso": "Fibra"
    },
    {
        "cidade": "Juazeiro do Norte",
        "uf": "CE",
        "latitude": -7.196207,
        "longitude": -39.307593,
        "empresa": "OI",
        "pf-ou-pj": "Pessoa Física",
        "tecnologia": "FTTH",
        "tipo-de-Produto": "INTERNET",
        "meio-de-acesso": "Fibra"
    },
    {
        "cidade": "Juazeiro do Norte",
        "uf": "CE",
        "latitude": -7.196207,
        "longitude": -39.307593,
        "empresa": "OI",
        "pf-ou-pj": "Pessoa Física",
        "tecnologia": "FWA",
        "tipo-de-Produto": "LINHA_DEDICADA",
        "meio-de-acesso": "Cabo Metálico"
    },
    {
        "cidade": "Jucás",
        "uf": "CE",
        "latitude": -6.515229,
        "longitude": -39.518679,
        "empresa": "OI",
        "pf-ou-pj": "Pessoa Física",
        "tecnologia": "ADSL1",
        "tipo-de-Produto": "INTERNET",
        "meio-de-acesso": "Cabo Metálico"
    },
    {
        "cidade": "Jucás",
        "uf": "CE",
        "latitude": -6.515229,
        "longitude": -39.518679,
        "empresa": "OI",
        "pf-ou-pj": "Pessoa Física",
        "tecnologia": "ADSL2",
        "tipo-de-Produto": "INTERNET",
        "meio-de-acesso": "Cabo Metálico"
    },
    {
        "cidade": "Lavras da Mangabeira",
        "uf": "CE",
        "latitude": -6.744801,
        "longitude": -38.970619,
        "empresa": "OI",
        "pf-ou-pj": "Pessoa Física",
        "tecnologia": "ADSL2",
        "tipo-de-Produto": "INTERNET",
        "meio-de-acesso": "Cabo Metálico"
    },
    {
        "cidade": "Limoeiro do Norte",
        "uf": "CE",
        "latitude": -5.143921,
        "longitude": -38.084693,
        "empresa": "OI",
        "pf-ou-pj": "Pessoa Física",
        "tecnologia": "ADSL1",
        "tipo-de-Produto": "INTERNET",
        "meio-de-acesso": "Cabo Metálico"
    },
    {
        "cidade": "Limoeiro do Norte",
        "uf": "CE",
        "latitude": -5.143921,
        "longitude": -38.084693,
        "empresa": "OI",
        "pf-ou-pj": "Pessoa Física",
        "tecnologia": "ADSL2",
        "tipo-de-Produto": "INTERNET",
        "meio-de-acesso": "Cabo Metálico"
    },
    {
        "cidade": "Madalena",
        "uf": "CE",
        "latitude": -4.846012,
        "longitude": -39.572542,
        "empresa": "OI",
        "pf-ou-pj": "Pessoa Física",
        "tecnologia": "ADSL1",
        "tipo-de-Produto": "INTERNET",
        "meio-de-acesso": "Cabo Metálico"
    },
    {
        "cidade": "Maracanaú",
        "uf": "CE",
        "latitude": -3.86699,
        "longitude": -38.625901,
        "empresa": "OI",
        "pf-ou-pj": "Pessoa Física",
        "tecnologia": "ADSL1",
        "tipo-de-Produto": "INTERNET",
        "meio-de-acesso": "Cabo Metálico"
    },
    {
        "cidade": "Maracanaú",
        "uf": "CE",
        "latitude": -3.86699,
        "longitude": -38.625901,
        "empresa": "OI",
        "pf-ou-pj": "Pessoa Física",
        "tecnologia": "ADSL2",
        "tipo-de-Produto": "INTERNET",
        "meio-de-acesso": "Cabo Metálico"
    },
    {
        "cidade": "Maracanaú",
        "uf": "CE",
        "latitude": -3.86699,
        "longitude": -38.625901,
        "empresa": "OI",
        "pf-ou-pj": "Pessoa Física",
        "tecnologia": "FTTH",
        "tipo-de-Produto": "INTERNET",
        "meio-de-acesso": "Fibra"
    },
    {
        "cidade": "Maranguape",
        "uf": "CE",
        "latitude": -3.891432,
        "longitude": -38.682911,
        "empresa": "OI",
        "pf-ou-pj": "Pessoa Física",
        "tecnologia": "ADSL1",
        "tipo-de-Produto": "INTERNET",
        "meio-de-acesso": "Cabo Metálico"
    },
    {
        "cidade": "Maranguape",
        "uf": "CE",
        "latitude": -3.891432,
        "longitude": -38.682911,
        "empresa": "OI",
        "pf-ou-pj": "Pessoa Física",
        "tecnologia": "ADSL2",
        "tipo-de-Produto": "INTERNET",
        "meio-de-acesso": "Cabo Metálico"
    },
    {
        "cidade": "Maranguape",
        "uf": "CE",
        "latitude": -3.891432,
        "longitude": -38.682911,
        "empresa": "OI",
        "pf-ou-pj": "Pessoa Física",
        "tecnologia": "FTTH",
        "tipo-de-Produto": "INTERNET",
        "meio-de-acesso": "Fibra"
    },
    {
        "cidade": "Maranguape",
        "uf": "CE",
        "latitude": -3.891432,
        "longitude": -38.682911,
        "empresa": "OI",
        "pf-ou-pj": "Pessoa Física",
        "tecnologia": "FWA",
        "tipo-de-Produto": "LINHA_DEDICADA",
        "meio-de-acesso": "Cabo Metálico"
    },
    {
        "cidade": "Marco",
        "uf": "CE",
        "latitude": -3.128501,
        "longitude": -40.15824,
        "empresa": "OI",
        "pf-ou-pj": "Pessoa Física",
        "tecnologia": "ADSL2",
        "tipo-de-Produto": "INTERNET",
        "meio-de-acesso": "Cabo Metálico"
    },
    {
        "cidade": "Martinópole",
        "uf": "CE",
        "latitude": -3.225198,
        "longitude": -40.689581,
        "empresa": "OI",
        "pf-ou-pj": "Pessoa Física",
        "tecnologia": "ADSL2",
        "tipo-de-Produto": "INTERNET",
        "meio-de-acesso": "Cabo Metálico"
    },
    {
        "cidade": "Massapê",
        "uf": "CE",
        "latitude": -3.523645,
        "longitude": -40.342271,
        "empresa": "OI",
        "pf-ou-pj": "Pessoa Física",
        "tecnologia": "ADSL2",
        "tipo-de-Produto": "INTERNET",
        "meio-de-acesso": "Cabo Metálico"
    },
    {
        "cidade": "Mauriti",
        "uf": "CE",
        "latitude": -7.385974,
        "longitude": -38.770786,
        "empresa": "OI",
        "pf-ou-pj": "Pessoa Física",
        "tecnologia": "ADSL1",
        "tipo-de-Produto": "INTERNET",
        "meio-de-acesso": "Cabo Metálico"
    },
    {
        "cidade": "Mauriti",
        "uf": "CE",
        "latitude": -7.385974,
        "longitude": -38.770786,
        "empresa": "OI",
        "pf-ou-pj": "Pessoa Física",
        "tecnologia": "ADSL2",
        "tipo-de-Produto": "INTERNET",
        "meio-de-acesso": "Cabo Metálico"
    },
    {
        "cidade": "Meruoca",
        "uf": "CE",
        "latitude": -3.539741,
        "longitude": -40.453106,
        "empresa": "OI",
        "pf-ou-pj": "Pessoa Física",
        "tecnologia": "ADSL2",
        "tipo-de-Produto": "INTERNET",
        "meio-de-acesso": "Cabo Metálico"
    },
    {
        "cidade": "Missão Velha",
        "uf": "CE",
        "latitude": -7.235219,
        "longitude": -39.143046,
        "empresa": "OI",
        "pf-ou-pj": "Pessoa Física",
        "tecnologia": "ADSL1",
        "tipo-de-Produto": "INTERNET",
        "meio-de-acesso": "Cabo Metálico"
    },
    {
        "cidade": "Missão Velha",
        "uf": "CE",
        "latitude": -7.235219,
        "longitude": -39.143046,
        "empresa": "OI",
        "pf-ou-pj": "Pessoa Física",
        "tecnologia": "ADSL2",
        "tipo-de-Produto": "INTERNET",
        "meio-de-acesso": "Cabo Metálico"
    },
    {
        "cidade": "Missão Velha",
        "uf": "CE",
        "latitude": -7.235219,
        "longitude": -39.143046,
        "empresa": "OI",
        "pf-ou-pj": "Pessoa Física",
        "tecnologia": "FTTH",
        "tipo-de-Produto": "INTERNET",
        "meio-de-acesso": "Fibra"
    },
    {
        "cidade": "Mombaça",
        "uf": "CE",
        "latitude": -5.738442,
        "longitude": -39.630009,
        "empresa": "OI",
        "pf-ou-pj": "Pessoa Física",
        "tecnologia": "ADSL1",
        "tipo-de-Produto": "INTERNET",
        "meio-de-acesso": "Cabo Metálico"
    },
    {
        "cidade": "Mombaça",
        "uf": "CE",
        "latitude": -5.738442,
        "longitude": -39.630009,
        "empresa": "OI",
        "pf-ou-pj": "Pessoa Física",
        "tecnologia": "ADSL2",
        "tipo-de-Produto": "INTERNET",
        "meio-de-acesso": "Cabo Metálico"
    },
    {
        "cidade": "Monsenhor Tabosa",
        "uf": "CE",
        "latitude": -4.791022,
        "longitude": -40.064637,
        "empresa": "OI",
        "pf-ou-pj": "Pessoa Física",
        "tecnologia": "ADSL1",
        "tipo-de-Produto": "INTERNET",
        "meio-de-acesso": "Cabo Metálico"
    },
    {
        "cidade": "Monsenhor Tabosa",
        "uf": "CE",
        "latitude": -4.791022,
        "longitude": -40.064637,
        "empresa": "OI",
        "pf-ou-pj": "Pessoa Física",
        "tecnologia": "ADSL2",
        "tipo-de-Produto": "INTERNET",
        "meio-de-acesso": "Cabo Metálico"
    },
    {
        "cidade": "Morada Nova",
        "uf": "CE",
        "latitude": -5.09736,
        "longitude": -38.370158,
        "empresa": "OI",
        "pf-ou-pj": "Pessoa Física",
        "tecnologia": "ADSL1",
        "tipo-de-Produto": "INTERNET",
        "meio-de-acesso": "Cabo Metálico"
    },
    {
        "cidade": "Morada Nova",
        "uf": "CE",
        "latitude": -5.09736,
        "longitude": -38.370158,
        "empresa": "OI",
        "pf-ou-pj": "Pessoa Física",
        "tecnologia": "ADSL2",
        "tipo-de-Produto": "INTERNET",
        "meio-de-acesso": "Cabo Metálico"
    },
    {
        "cidade": "Mucambo",
        "uf": "CE",
        "latitude": -3.902714,
        "longitude": -40.745222,
        "empresa": "OI",
        "pf-ou-pj": "Pessoa Física",
        "tecnologia": "ADSL2",
        "tipo-de-Produto": "INTERNET",
        "meio-de-acesso": "Cabo Metálico"
    },
    {
        "cidade": "Mulungu",
        "uf": "CE",
        "latitude": -4.302938,
        "longitude": -38.995133,
        "empresa": "OI",
        "pf-ou-pj": "Pessoa Física",
        "tecnologia": "ADSL1",
        "tipo-de-Produto": "INTERNET",
        "meio-de-acesso": "Cabo Metálico"
    },
    {
        "cidade": "Mulungu",
        "uf": "CE",
        "latitude": -4.302938,
        "longitude": -38.995133,
        "empresa": "OI",
        "pf-ou-pj": "Pessoa Física",
        "tecnologia": "ADSL2",
        "tipo-de-Produto": "INTERNET",
        "meio-de-acesso": "Cabo Metálico"
    },
    {
        "cidade": "Nova Olinda",
        "uf": "CE",
        "latitude": -7.084145,
        "longitude": -39.67128,
        "empresa": "OI",
        "pf-ou-pj": "Pessoa Física",
        "tecnologia": "ADSL2",
        "tipo-de-Produto": "INTERNET",
        "meio-de-acesso": "Cabo Metálico"
    },
    {
        "cidade": "Nova Russas",
        "uf": "CE",
        "latitude": -4.705807,
        "longitude": -40.562118,
        "empresa": "OI",
        "pf-ou-pj": "Pessoa Física",
        "tecnologia": "ADSL1",
        "tipo-de-Produto": "INTERNET",
        "meio-de-acesso": "Cabo Metálico"
    },
    {
        "cidade": "Nova Russas",
        "uf": "CE",
        "latitude": -4.705807,
        "longitude": -40.562118,
        "empresa": "OI",
        "pf-ou-pj": "Pessoa Física",
        "tecnologia": "ADSL2",
        "tipo-de-Produto": "INTERNET",
        "meio-de-acesso": "Cabo Metálico"
    },
    {
        "cidade": "Novo Oriente",
        "uf": "CE",
        "latitude": -5.525519,
        "longitude": -40.771296,
        "empresa": "OI",
        "pf-ou-pj": "Pessoa Física",
        "tecnologia": "ADSL1",
        "tipo-de-Produto": "INTERNET",
        "meio-de-acesso": "Cabo Metálico"
    },
    {
        "cidade": "Novo Oriente",
        "uf": "CE",
        "latitude": -5.525519,
        "longitude": -40.771296,
        "empresa": "OI",
        "pf-ou-pj": "Pessoa Física",
        "tecnologia": "ADSL2",
        "tipo-de-Produto": "INTERNET",
        "meio-de-acesso": "Cabo Metálico"
    },
    {
        "cidade": "Orós",
        "uf": "CE",
        "latitude": -6.251816,
        "longitude": -38.905264,
        "empresa": "OI",
        "pf-ou-pj": "Pessoa Física",
        "tecnologia": "ADSL2",
        "tipo-de-Produto": "INTERNET",
        "meio-de-acesso": "Cabo Metálico"
    },
    {
        "cidade": "Pacajus",
        "uf": "CE",
        "latitude": -4.171073,
        "longitude": -38.464988,
        "empresa": "OI",
        "pf-ou-pj": "Pessoa Física",
        "tecnologia": "ADSL1",
        "tipo-de-Produto": "INTERNET",
        "meio-de-acesso": "Cabo Metálico"
    },
    {
        "cidade": "Pacajus",
        "uf": "CE",
        "latitude": -4.171073,
        "longitude": -38.464988,
        "empresa": "OI",
        "pf-ou-pj": "Pessoa Física",
        "tecnologia": "ADSL2",
        "tipo-de-Produto": "INTERNET",
        "meio-de-acesso": "Cabo Metálico"
    },
    {
        "cidade": "Pacajus",
        "uf": "CE",
        "latitude": -4.171073,
        "longitude": -38.464988,
        "empresa": "OI",
        "pf-ou-pj": "Pessoa Física",
        "tecnologia": "FTTH",
        "tipo-de-Produto": "INTERNET",
        "meio-de-acesso": "Fibra"
    },
    {
        "cidade": "Pacatuba",
        "uf": "CE",
        "latitude": -3.978396,
        "longitude": -38.618296,
        "empresa": "OI",
        "pf-ou-pj": "Pessoa Física",
        "tecnologia": "ADSL2",
        "tipo-de-Produto": "INTERNET",
        "meio-de-acesso": "Cabo Metálico"
    },
    {
        "cidade": "Pacoti",
        "uf": "CE",
        "latitude": -4.224918,
        "longitude": -38.922011,
        "empresa": "OI",
        "pf-ou-pj": "Pessoa Física",
        "tecnologia": "ADSL1",
        "tipo-de-Produto": "INTERNET",
        "meio-de-acesso": "Cabo Metálico"
    },
    {
        "cidade": "Pacoti",
        "uf": "CE",
        "latitude": -4.224918,
        "longitude": -38.922011,
        "empresa": "OI",
        "pf-ou-pj": "Pessoa Física",
        "tecnologia": "ADSL2",
        "tipo-de-Produto": "INTERNET",
        "meio-de-acesso": "Cabo Metálico"
    },
    {
        "cidade": "Palmácia",
        "uf": "CE",
        "latitude": -4.138308,
        "longitude": -38.844601,
        "empresa": "OI",
        "pf-ou-pj": "Pessoa Física",
        "tecnologia": "ADSL1",
        "tipo-de-Produto": "INTERNET",
        "meio-de-acesso": "Cabo Metálico"
    },
    {
        "cidade": "Paracuru",
        "uf": "CE",
        "latitude": -3.41436,
        "longitude": -39.030028,
        "empresa": "OI",
        "pf-ou-pj": "Pessoa Física",
        "tecnologia": "ADSL1",
        "tipo-de-Produto": "INTERNET",
        "meio-de-acesso": "Cabo Metálico"
    },
    {
        "cidade": "Paracuru",
        "uf": "CE",
        "latitude": -3.41436,
        "longitude": -39.030028,
        "empresa": "OI",
        "pf-ou-pj": "Pessoa Física",
        "tecnologia": "ADSL2",
        "tipo-de-Produto": "INTERNET",
        "meio-de-acesso": "Cabo Metálico"
    },
    {
        "cidade": "Paraipaba",
        "uf": "CE",
        "latitude": -3.437987,
        "longitude": -39.147868,
        "empresa": "OI",
        "pf-ou-pj": "Pessoa Física",
        "tecnologia": "ADSL2",
        "tipo-de-Produto": "INTERNET",
        "meio-de-acesso": "Cabo Metálico"
    },
    {
        "cidade": "Parambu",
        "uf": "CE",
        "latitude": -6.207681,
        "longitude": -40.690524,
        "empresa": "OI",
        "pf-ou-pj": "Pessoa Física",
        "tecnologia": "ADSL1",
        "tipo-de-Produto": "INTERNET",
        "meio-de-acesso": "Cabo Metálico"
    },
    {
        "cidade": "Parambu",
        "uf": "CE",
        "latitude": -6.207681,
        "longitude": -40.690524,
        "empresa": "OI",
        "pf-ou-pj": "Pessoa Física",
        "tecnologia": "ADSL2",
        "tipo-de-Produto": "INTERNET",
        "meio-de-acesso": "Cabo Metálico"
    },
    {
        "cidade": "Paramoti",
        "uf": "CE",
        "latitude": -4.088146,
        "longitude": -39.241691,
        "empresa": "OI",
        "pf-ou-pj": "Pessoa Física",
        "tecnologia": "ADSL2",
        "tipo-de-Produto": "INTERNET",
        "meio-de-acesso": "Cabo Metálico"
    },
    {
        "cidade": "Pedra Branca",
        "uf": "CE",
        "latitude": -5.453411,
        "longitude": -39.707771,
        "empresa": "OI",
        "pf-ou-pj": "Pessoa Física",
        "tecnologia": "ADSL1",
        "tipo-de-Produto": "INTERNET",
        "meio-de-acesso": "Cabo Metálico"
    },
    {
        "cidade": "Pedra Branca",
        "uf": "CE",
        "latitude": -5.453411,
        "longitude": -39.707771,
        "empresa": "OI",
        "pf-ou-pj": "Pessoa Física",
        "tecnologia": "ADSL2",
        "tipo-de-Produto": "INTERNET",
        "meio-de-acesso": "Cabo Metálico"
    },
    {
        "cidade": "Penaforte",
        "uf": "CE",
        "latitude": -7.82163,
        "longitude": -39.070724,
        "empresa": "OI",
        "pf-ou-pj": "Pessoa Física",
        "tecnologia": "ADSL1",
        "tipo-de-Produto": "INTERNET",
        "meio-de-acesso": "Cabo Metálico"
    },
    {
        "cidade": "Pentecoste",
        "uf": "CE",
        "latitude": -3.792736,
        "longitude": -39.269159,
        "empresa": "OI",
        "pf-ou-pj": "Pessoa Física",
        "tecnologia": "ADSL1",
        "tipo-de-Produto": "INTERNET",
        "meio-de-acesso": "Cabo Metálico"
    },
    {
        "cidade": "Pereiro",
        "uf": "CE",
        "latitude": -6.035761,
        "longitude": -38.462397,
        "empresa": "OI",
        "pf-ou-pj": "Pessoa Física",
        "tecnologia": "ADSL1",
        "tipo-de-Produto": "INTERNET",
        "meio-de-acesso": "Cabo Metálico"
    },
    {
        "cidade": "Pereiro",
        "uf": "CE",
        "latitude": -6.035761,
        "longitude": -38.462397,
        "empresa": "OI",
        "pf-ou-pj": "Pessoa Física",
        "tecnologia": "ADSL2",
        "tipo-de-Produto": "INTERNET",
        "meio-de-acesso": "Cabo Metálico"
    },
    {
        "cidade": "Pindoretama",
        "uf": "CE",
        "latitude": -4.015839,
        "longitude": -38.306118,
        "empresa": "OI",
        "pf-ou-pj": "Pessoa Física",
        "tecnologia": "ADSL1",
        "tipo-de-Produto": "INTERNET",
        "meio-de-acesso": "Cabo Metálico"
    },
    {
        "cidade": "Pindoretama",
        "uf": "CE",
        "latitude": -4.015839,
        "longitude": -38.306118,
        "empresa": "OI",
        "pf-ou-pj": "Pessoa Física",
        "tecnologia": "ADSL2",
        "tipo-de-Produto": "INTERNET",
        "meio-de-acesso": "Cabo Metálico"
    },
    {
        "cidade": "Porteiras",
        "uf": "CE",
        "latitude": -7.522647,
        "longitude": -39.114028,
        "empresa": "OI",
        "pf-ou-pj": "Pessoa Física",
        "tecnologia": "ADSL1",
        "tipo-de-Produto": "INTERNET",
        "meio-de-acesso": "Cabo Metálico"
    },
    {
        "cidade": "Potiretama",
        "uf": "CE",
        "latitude": -5.71287,
        "longitude": -38.157804,
        "empresa": "OI",
        "pf-ou-pj": "Pessoa Física",
        "tecnologia": "ADSL1",
        "tipo-de-Produto": "INTERNET",
        "meio-de-acesso": "Cabo Metálico"
    },
    {
        "cidade": "Quiterianópolis",
        "uf": "CE",
        "latitude": -5.842496,
        "longitude": -40.700217,
        "empresa": "OI",
        "pf-ou-pj": "Pessoa Física",
        "tecnologia": "ADSL2",
        "tipo-de-Produto": "INTERNET",
        "meio-de-acesso": "Cabo Metálico"
    },
    {
        "cidade": "Quixadá",
        "uf": "CE",
        "latitude": -4.966301,
        "longitude": -39.015474,
        "empresa": "OI",
        "pf-ou-pj": "Pessoa Física",
        "tecnologia": "ADSL1",
        "tipo-de-Produto": "INTERNET",
        "meio-de-acesso": "Cabo Metálico"
    },
    {
        "cidade": "Quixadá",
        "uf": "CE",
        "latitude": -4.966301,
        "longitude": -39.015474,
        "empresa": "OI",
        "pf-ou-pj": "Pessoa Física",
        "tecnologia": "ADSL2",
        "tipo-de-Produto": "INTERNET",
        "meio-de-acesso": "Cabo Metálico"
    },
    {
        "cidade": "Quixelô",
        "uf": "CE",
        "latitude": -6.246369,
        "longitude": -39.201067,
        "empresa": "OI",
        "pf-ou-pj": "Pessoa Física",
        "tecnologia": "ADSL2",
        "tipo-de-Produto": "INTERNET",
        "meio-de-acesso": "Cabo Metálico"
    },
    {
        "cidade": "Quixeramobim",
        "uf": "CE",
        "latitude": -5.190672,
        "longitude": -39.288947,
        "empresa": "OI",
        "pf-ou-pj": "Pessoa Física",
        "tecnologia": "ADSL1",
        "tipo-de-Produto": "INTERNET",
        "meio-de-acesso": "Cabo Metálico"
    },
    {
        "cidade": "Quixeramobim",
        "uf": "CE",
        "latitude": -5.190672,
        "longitude": -39.288947,
        "empresa": "OI",
        "pf-ou-pj": "Pessoa Física",
        "tecnologia": "ADSL2",
        "tipo-de-Produto": "INTERNET",
        "meio-de-acesso": "Cabo Metálico"
    },
    {
        "cidade": "Quixeré",
        "uf": "CE",
        "latitude": -5.071482,
        "longitude": -37.9802,
        "empresa": "OI",
        "pf-ou-pj": "Pessoa Física",
        "tecnologia": "ADSL1",
        "tipo-de-Produto": "INTERNET",
        "meio-de-acesso": "Cabo Metálico"
    },
    {
        "cidade": "Redenção",
        "uf": "CE",
        "latitude": -4.215873,
        "longitude": -38.727719,
        "empresa": "OI",
        "pf-ou-pj": "Pessoa Física",
        "tecnologia": "ADSL1",
        "tipo-de-Produto": "INTERNET",
        "meio-de-acesso": "Cabo Metálico"
    },
    {
        "cidade": "Redenção",
        "uf": "CE",
        "latitude": -4.215873,
        "longitude": -38.727719,
        "empresa": "OI",
        "pf-ou-pj": "Pessoa Física",
        "tecnologia": "ADSL2",
        "tipo-de-Produto": "INTERNET",
        "meio-de-acesso": "Cabo Metálico"
    },
    {
        "cidade": "Reriutaba",
        "uf": "CE",
        "latitude": -4.141911,
        "longitude": -40.575915,
        "empresa": "OI",
        "pf-ou-pj": "Pessoa Física",
        "tecnologia": "ADSL1",
        "tipo-de-Produto": "INTERNET",
        "meio-de-acesso": "Cabo Metálico"
    },
    {
        "cidade": "Russas",
        "uf": "CE",
        "latitude": -4.926727,
        "longitude": -37.972086,
        "empresa": "OI",
        "pf-ou-pj": "Pessoa Física",
        "tecnologia": "ADSL2",
        "tipo-de-Produto": "INTERNET",
        "meio-de-acesso": "Cabo Metálico"
    },
    {
        "cidade": "Santa Quitéria",
        "uf": "CE",
        "latitude": -4.326081,
        "longitude": -40.152305,
        "empresa": "OI",
        "pf-ou-pj": "Pessoa Física",
        "tecnologia": "ADSL1",
        "tipo-de-Produto": "INTERNET",
        "meio-de-acesso": "Cabo Metálico"
    },
    {
        "cidade": "Santa Quitéria",
        "uf": "CE",
        "latitude": -4.326081,
        "longitude": -40.152305,
        "empresa": "OI",
        "pf-ou-pj": "Pessoa Física",
        "tecnologia": "ADSL2",
        "tipo-de-Produto": "INTERNET",
        "meio-de-acesso": "Cabo Metálico"
    },
    {
        "cidade": "Santana do Acaraú",
        "uf": "CE",
        "latitude": -3.461435,
        "longitude": -40.211827,
        "empresa": "OI",
        "pf-ou-pj": "Pessoa Física",
        "tecnologia": "ADSL1",
        "tipo-de-Produto": "INTERNET",
        "meio-de-acesso": "Cabo Metálico"
    },
    {
        "cidade": "Senador Pompeu",
        "uf": "CE",
        "latitude": -5.582444,
        "longitude": -39.370369,
        "empresa": "OI",
        "pf-ou-pj": "Pessoa Física",
        "tecnologia": "ADSL2",
        "tipo-de-Produto": "INTERNET",
        "meio-de-acesso": "Cabo Metálico"
    },
    {
        "cidade": "Senador Sá",
        "uf": "CE",
        "latitude": -3.35305,
        "longitude": -40.4662,
        "empresa": "OI",
        "pf-ou-pj": "Pessoa Física",
        "tecnologia": "ADSL2",
        "tipo-de-Produto": "INTERNET",
        "meio-de-acesso": "Cabo Metálico"
    },
    {
        "cidade": "Sobral",
        "uf": "CE",
        "latitude": -3.689133,
        "longitude": -40.34821,
        "empresa": "OI",
        "pf-ou-pj": "Pessoa Física",
        "tecnologia": "ADSL1",
        "tipo-de-Produto": "INTERNET",
        "meio-de-acesso": "Cabo Metálico"
    },
    {
        "cidade": "Sobral",
        "uf": "CE",
        "latitude": -3.689133,
        "longitude": -40.34821,
        "empresa": "OI",
        "pf-ou-pj": "Pessoa Física",
        "tecnologia": "ADSL2",
        "tipo-de-Produto": "INTERNET",
        "meio-de-acesso": "Cabo Metálico"
    },
    {
        "cidade": "Sobral",
        "uf": "CE",
        "latitude": -3.689133,
        "longitude": -40.34821,
        "empresa": "OI",
        "pf-ou-pj": "Pessoa Física",
        "tecnologia": "FTTH",
        "tipo-de-Produto": "INTERNET",
        "meio-de-acesso": "Fibra"
    },
    {
        "cidade": "Solonópole",
        "uf": "CE",
        "latitude": -5.718936,
        "longitude": -39.01072,
        "empresa": "OI",
        "pf-ou-pj": "Pessoa Física",
        "tecnologia": "ADSL1",
        "tipo-de-Produto": "INTERNET",
        "meio-de-acesso": "Cabo Metálico"
    },
    {
        "cidade": "Solonópole",
        "uf": "CE",
        "latitude": -5.718936,
        "longitude": -39.01072,
        "empresa": "OI",
        "pf-ou-pj": "Pessoa Física",
        "tecnologia": "ADSL2",
        "tipo-de-Produto": "INTERNET",
        "meio-de-acesso": "Cabo Metálico"
    },
    {
        "cidade": "São Benedito",
        "uf": "CE",
        "latitude": -4.047131,
        "longitude": -40.859572,
        "empresa": "OI",
        "pf-ou-pj": "Pessoa Física",
        "tecnologia": "ADSL1",
        "tipo-de-Produto": "INTERNET",
        "meio-de-acesso": "Cabo Metálico"
    },
    {
        "cidade": "São Benedito",
        "uf": "CE",
        "latitude": -4.047131,
        "longitude": -40.859572,
        "empresa": "OI",
        "pf-ou-pj": "Pessoa Física",
        "tecnologia": "ADSL2",
        "tipo-de-Produto": "INTERNET",
        "meio-de-acesso": "Cabo Metálico"
    },
    {
        "cidade": "São Gonçalo do Amarante",
        "uf": "CE",
        "latitude": -3.605149,
        "longitude": -38.972646,
        "empresa": "OI",
        "pf-ou-pj": "Pessoa Física",
        "tecnologia": "ADSL1",
        "tipo-de-Produto": "INTERNET",
        "meio-de-acesso": "Cabo Metálico"
    },
    {
        "cidade": "São Gonçalo do Amarante",
        "uf": "CE",
        "latitude": -3.605149,
        "longitude": -38.972646,
        "empresa": "OI",
        "pf-ou-pj": "Pessoa Física",
        "tecnologia": "ADSL2",
        "tipo-de-Produto": "INTERNET",
        "meio-de-acesso": "Cabo Metálico"
    },
    {
        "cidade": "São Luís do Curu",
        "uf": "CE",
        "latitude": -3.66976,
        "longitude": -39.239123,
        "empresa": "OI",
        "pf-ou-pj": "Pessoa Física",
        "tecnologia": "ADSL2",
        "tipo-de-Produto": "INTERNET",
        "meio-de-acesso": "Cabo Metálico"
    },
    {
        "cidade": "Tabuleiro do Norte",
        "uf": "CE",
        "latitude": -5.243527,
        "longitude": -38.128175,
        "empresa": "OI",
        "pf-ou-pj": "Pessoa Física",
        "tecnologia": "ADSL1",
        "tipo-de-Produto": "INTERNET",
        "meio-de-acesso": "Cabo Metálico"
    },
    {
        "cidade": "Tamboril",
        "uf": "CE",
        "latitude": -4.831364,
        "longitude": -40.319593,
        "empresa": "OI",
        "pf-ou-pj": "Pessoa Física",
        "tecnologia": "ADSL1",
        "tipo-de-Produto": "INTERNET",
        "meio-de-acesso": "Cabo Metálico"
    },
    {
        "cidade": "Tamboril",
        "uf": "CE",
        "latitude": -4.831364,
        "longitude": -40.319593,
        "empresa": "OI",
        "pf-ou-pj": "Pessoa Física",
        "tecnologia": "ADSL2",
        "tipo-de-Produto": "INTERNET",
        "meio-de-acesso": "Cabo Metálico"
    },
    {
        "cidade": "Tauá",
        "uf": "CE",
        "latitude": -5.985853,
        "longitude": -40.296802,
        "empresa": "OI",
        "pf-ou-pj": "Pessoa Física",
        "tecnologia": "ADSL1",
        "tipo-de-Produto": "INTERNET",
        "meio-de-acesso": "Cabo Metálico"
    },
    {
        "cidade": "Tianguá",
        "uf": "CE",
        "latitude": -3.729645,
        "longitude": -40.992286,
        "empresa": "OI",
        "pf-ou-pj": "Pessoa Física",
        "tecnologia": "ADSL1",
        "tipo-de-Produto": "INTERNET",
        "meio-de-acesso": "Cabo Metálico"
    },
    {
        "cidade": "Tianguá",
        "uf": "CE",
        "latitude": -3.729645,
        "longitude": -40.992286,
        "empresa": "OI",
        "pf-ou-pj": "Pessoa Física",
        "tecnologia": "ADSL2",
        "tipo-de-Produto": "INTERNET",
        "meio-de-acesso": "Cabo Metálico"
    },
    {
        "cidade": "Trairi",
        "uf": "CE",
        "latitude": -3.269323,
        "longitude": -39.268126,
        "empresa": "OI",
        "pf-ou-pj": "Pessoa Física",
        "tecnologia": "ADSL2",
        "tipo-de-Produto": "INTERNET",
        "meio-de-acesso": "Cabo Metálico"
    },
    {
        "cidade": "Ubajara",
        "uf": "CE",
        "latitude": -3.854479,
        "longitude": -40.920437,
        "empresa": "OI",
        "pf-ou-pj": "Pessoa Física",
        "tecnologia": "ADSL2",
        "tipo-de-Produto": "INTERNET",
        "meio-de-acesso": "Cabo Metálico"
    },
    {
        "cidade": "Uruburetama",
        "uf": "CE",
        "latitude": -3.623165,
        "longitude": -39.510677,
        "empresa": "OI",
        "pf-ou-pj": "Pessoa Física",
        "tecnologia": "ADSL2",
        "tipo-de-Produto": "INTERNET",
        "meio-de-acesso": "Cabo Metálico"
    },
    {
        "cidade": "Uruoca",
        "uf": "CE",
        "latitude": -3.308194,
        "longitude": -40.56276,
        "empresa": "OI",
        "pf-ou-pj": "Pessoa Física",
        "tecnologia": "ADSL2",
        "tipo-de-Produto": "INTERNET",
        "meio-de-acesso": "Cabo Metálico"
    },
    {
        "cidade": "Viçosa do Ceará",
        "uf": "CE",
        "latitude": -3.566703,
        "longitude": -41.091554,
        "empresa": "OI",
        "pf-ou-pj": "Pessoa Física",
        "tecnologia": "ADSL2",
        "tipo-de-Produto": "INTERNET",
        "meio-de-acesso": "Cabo Metálico"
    },
    {
        "cidade": "Várzea Alegre",
        "uf": "CE",
        "latitude": -6.782642,
        "longitude": -39.294155,
        "empresa": "OI",
        "pf-ou-pj": "Pessoa Física",
        "tecnologia": "ADSL1",
        "tipo-de-Produto": "INTERNET",
        "meio-de-acesso": "Cabo Metálico"
    },
    {
        "cidade": "Várzea Alegre",
        "uf": "CE",
        "latitude": -6.782642,
        "longitude": -39.294155,
        "empresa": "OI",
        "pf-ou-pj": "Pessoa Física",
        "tecnologia": "ADSL2",
        "tipo-de-Produto": "INTERNET",
        "meio-de-acesso": "Cabo Metálico"
    }
]