[
    {
        "cidade": "Amparo de São Francisco",
        "uf": "SE",
        "latitude": -10.134842,
        "longitude": -36.934993,
        "empresa": "OI",
        "pf-ou-pj": "Pessoa Física",
        "tecnologia": "ADSL2",
        "tipo-de-Produto": "INTERNET",
        "meio-de-acesso": "Cabo Metálico"
    },
    {
        "cidade": "Aquidabã",
        "uf": "SE",
        "latitude": -10.278043,
        "longitude": -37.014768,
        "empresa": "OI",
        "pf-ou-pj": "Pessoa Física",
        "tecnologia": "ADSL2",
        "tipo-de-Produto": "INTERNET",
        "meio-de-acesso": "Cabo Metálico"
    },
    {
        "cidade": "Aracaju",
        "uf": "SE",
        "latitude": -10.909133,
        "longitude": -37.06766,
        "empresa": "OI",
        "pf-ou-pj": "Pessoa Física",
        "tecnologia": "ADSL1",
        "tipo-de-Produto": "INTERNET",
        "meio-de-acesso": "Cabo Metálico"
    },
    {
        "cidade": "Aracaju",
        "uf": "SE",
        "latitude": -10.909133,
        "longitude": -37.06766,
        "empresa": "OI",
        "pf-ou-pj": "Pessoa Física",
        "tecnologia": "ADSL2",
        "tipo-de-Produto": "INTERNET",
        "meio-de-acesso": "Cabo Metálico"
    },
    {
        "cidade": "Aracaju",
        "uf": "SE",
        "latitude": -10.909133,
        "longitude": -37.06766,
        "empresa": "OI",
        "pf-ou-pj": "Pessoa Física",
        "tecnologia": "ADSL2",
        "tipo-de-Produto": "INTERNET",
        "meio-de-acesso": "Fibra"
    },
    {
        "cidade": "Aracaju",
        "uf": "SE",
        "latitude": -10.909133,
        "longitude": -37.06766,
        "empresa": "OI",
        "pf-ou-pj": "Pessoa Física",
        "tecnologia": "FTTH",
        "tipo-de-Produto": "INTERNET",
        "meio-de-acesso": "Fibra"
    },
    {
        "cidade": "Aracaju",
        "uf": "SE",
        "latitude": -10.909133,
        "longitude": -37.06766,
        "empresa": "OI",
        "pf-ou-pj": "Pessoa Física",
        "tecnologia": "HDSL",
        "tipo-de-Produto": "LINHA_DEDICADA",
        "meio-de-acesso": "Cabo Metálico"
    },
    {
        "cidade": "Barra dos Coqueiros",
        "uf": "SE",
        "latitude": -10.899623,
        "longitude": -37.032317,
        "empresa": "OI",
        "pf-ou-pj": "Pessoa Física",
        "tecnologia": "ADSL1",
        "tipo-de-Produto": "INTERNET",
        "meio-de-acesso": "Cabo Metálico"
    },
    {
        "cidade": "Barra dos Coqueiros",
        "uf": "SE",
        "latitude": -10.899623,
        "longitude": -37.032317,
        "empresa": "OI",
        "pf-ou-pj": "Pessoa Física",
        "tecnologia": "ADSL2",
        "tipo-de-Produto": "INTERNET",
        "meio-de-acesso": "Cabo Metálico"
    },
    {
        "cidade": "Boquim",
        "uf": "SE",
        "latitude": -11.13972,
        "longitude": -37.619466,
        "empresa": "OI",
        "pf-ou-pj": "Pessoa Física",
        "tecnologia": "ADSL2",
        "tipo-de-Produto": "INTERNET",
        "meio-de-acesso": "Cabo Metálico"
    },
    {
        "cidade": "Campo do Brito",
        "uf": "SE",
        "latitude": -10.739248,
        "longitude": -37.495369,
        "empresa": "OI",
        "pf-ou-pj": "Pessoa Física",
        "tecnologia": "ADSL1",
        "tipo-de-Produto": "INTERNET",
        "meio-de-acesso": "Cabo Metálico"
    },
    {
        "cidade": "Campo do Brito",
        "uf": "SE",
        "latitude": -10.739248,
        "longitude": -37.495369,
        "empresa": "OI",
        "pf-ou-pj": "Pessoa Física",
        "tecnologia": "ADSL2",
        "tipo-de-Produto": "INTERNET",
        "meio-de-acesso": "Cabo Metálico"
    },
    {
        "cidade": "Canhoba",
        "uf": "SE",
        "latitude": -10.136465,
        "longitude": -36.980639,
        "empresa": "OI",
        "pf-ou-pj": "Pessoa Física",
        "tecnologia": "ADSL1",
        "tipo-de-Produto": "INTERNET",
        "meio-de-acesso": "Cabo Metálico"
    },
    {
        "cidade": "Canindé de São Francisco",
        "uf": "SE",
        "latitude": -9.648823,
        "longitude": -37.792294,
        "empresa": "OI",
        "pf-ou-pj": "Pessoa Física",
        "tecnologia": "ADSL1",
        "tipo-de-Produto": "INTERNET",
        "meio-de-acesso": "Cabo Metálico"
    },
    {
        "cidade": "Canindé de São Francisco",
        "uf": "SE",
        "latitude": -9.648823,
        "longitude": -37.792294,
        "empresa": "OI",
        "pf-ou-pj": "Pessoa Física",
        "tecnologia": "ADSL2",
        "tipo-de-Produto": "INTERNET",
        "meio-de-acesso": "Cabo Metálico"
    },
    {
        "cidade": "Capela",
        "uf": "SE",
        "latitude": -10.506928,
        "longitude": -37.062847,
        "empresa": "OI",
        "pf-ou-pj": "Pessoa Física",
        "tecnologia": "ADSL1",
        "tipo-de-Produto": "INTERNET",
        "meio-de-acesso": "Cabo Metálico"
    },
    {
        "cidade": "Capela",
        "uf": "SE",
        "latitude": -10.506928,
        "longitude": -37.062847,
        "empresa": "OI",
        "pf-ou-pj": "Pessoa Física",
        "tecnologia": "ADSL2",
        "tipo-de-Produto": "INTERNET",
        "meio-de-acesso": "Cabo Metálico"
    },
    {
        "cidade": "Carira",
        "uf": "SE",
        "latitude": -10.352361,
        "longitude": -37.700241,
        "empresa": "OI",
        "pf-ou-pj": "Pessoa Física",
        "tecnologia": "ADSL1",
        "tipo-de-Produto": "INTERNET",
        "meio-de-acesso": "Cabo Metálico"
    },
    {
        "cidade": "Carira",
        "uf": "SE",
        "latitude": -10.352361,
        "longitude": -37.700241,
        "empresa": "OI",
        "pf-ou-pj": "Pessoa Física",
        "tecnologia": "ADSL2",
        "tipo-de-Produto": "INTERNET",
        "meio-de-acesso": "Cabo Metálico"
    },
    {
        "cidade": "Carmópolis",
        "uf": "SE",
        "latitude": -10.644869,
        "longitude": -36.988742,
        "empresa": "OI",
        "pf-ou-pj": "Pessoa Física",
        "tecnologia": "ADSL2",
        "tipo-de-Produto": "INTERNET",
        "meio-de-acesso": "Cabo Metálico"
    },
    {
        "cidade": "Cedro de São João",
        "uf": "SE",
        "latitude": -10.253441,
        "longitude": -36.885641,
        "empresa": "OI",
        "pf-ou-pj": "Pessoa Física",
        "tecnologia": "ADSL1",
        "tipo-de-Produto": "INTERNET",
        "meio-de-acesso": "Cabo Metálico"
    },
    {
        "cidade": "Cedro de São João",
        "uf": "SE",
        "latitude": -10.253441,
        "longitude": -36.885641,
        "empresa": "OI",
        "pf-ou-pj": "Pessoa Física",
        "tecnologia": "ADSL2",
        "tipo-de-Produto": "INTERNET",
        "meio-de-acesso": "Cabo Metálico"
    },
    {
        "cidade": "Cristinápolis",
        "uf": "SE",
        "latitude": -11.466778,
        "longitude": -37.758494,
        "empresa": "OI",
        "pf-ou-pj": "Pessoa Física",
        "tecnologia": "ADSL1",
        "tipo-de-Produto": "INTERNET",
        "meio-de-acesso": "Cabo Metálico"
    },
    {
        "cidade": "Estância",
        "uf": "SE",
        "latitude": -11.265922,
        "longitude": -37.448381,
        "empresa": "OI",
        "pf-ou-pj": "Pessoa Física",
        "tecnologia": "ADSL1",
        "tipo-de-Produto": "INTERNET",
        "meio-de-acesso": "Cabo Metálico"
    },
    {
        "cidade": "Estância",
        "uf": "SE",
        "latitude": -11.265922,
        "longitude": -37.448381,
        "empresa": "OI",
        "pf-ou-pj": "Pessoa Física",
        "tecnologia": "ADSL2",
        "tipo-de-Produto": "INTERNET",
        "meio-de-acesso": "Cabo Metálico"
    },
    {
        "cidade": "Frei Paulo",
        "uf": "SE",
        "latitude": -10.551292,
        "longitude": -37.527934,
        "empresa": "OI",
        "pf-ou-pj": "Pessoa Física",
        "tecnologia": "ADSL1",
        "tipo-de-Produto": "INTERNET",
        "meio-de-acesso": "Cabo Metálico"
    },
    {
        "cidade": "Frei Paulo",
        "uf": "SE",
        "latitude": -10.551292,
        "longitude": -37.527934,
        "empresa": "OI",
        "pf-ou-pj": "Pessoa Física",
        "tecnologia": "ADSL2",
        "tipo-de-Produto": "INTERNET",
        "meio-de-acesso": "Cabo Metálico"
    },
    {
        "cidade": "Gararu",
        "uf": "SE",
        "latitude": -9.972202,
        "longitude": -37.086921,
        "empresa": "OI",
        "pf-ou-pj": "Pessoa Física",
        "tecnologia": "ADSL1",
        "tipo-de-Produto": "INTERNET",
        "meio-de-acesso": "Cabo Metálico"
    },
    {
        "cidade": "General Maynard",
        "uf": "SE",
        "latitude": -10.683471,
        "longitude": -36.983758,
        "empresa": "OI",
        "pf-ou-pj": "Pessoa Física",
        "tecnologia": "ADSL1",
        "tipo-de-Produto": "INTERNET",
        "meio-de-acesso": "Cabo Metálico"
    },
    {
        "cidade": "Graccho Cardoso",
        "uf": "SE",
        "latitude": -10.225233,
        "longitude": -37.200559,
        "empresa": "OI",
        "pf-ou-pj": "Pessoa Física",
        "tecnologia": "ADSL1",
        "tipo-de-Produto": "INTERNET",
        "meio-de-acesso": "Cabo Metálico"
    },
    {
        "cidade": "Ilha das Flores",
        "uf": "SE",
        "latitude": -10.442506,
        "longitude": -36.547935,
        "empresa": "OI",
        "pf-ou-pj": "Pessoa Física",
        "tecnologia": "ADSL2",
        "tipo-de-Produto": "INTERNET",
        "meio-de-acesso": "Cabo Metálico"
    },
    {
        "cidade": "Indiaroba",
        "uf": "SE",
        "latitude": -11.515746,
        "longitude": -37.514979,
        "empresa": "OI",
        "pf-ou-pj": "Pessoa Física",
        "tecnologia": "ADSL2",
        "tipo-de-Produto": "INTERNET",
        "meio-de-acesso": "Cabo Metálico"
    },
    {
        "cidade": "Itabaiana",
        "uf": "SE",
        "latitude": -10.682555,
        "longitude": -37.427287,
        "empresa": "OI",
        "pf-ou-pj": "Pessoa Física",
        "tecnologia": "ADSL1",
        "tipo-de-Produto": "INTERNET",
        "meio-de-acesso": "Cabo Metálico"
    },
    {
        "cidade": "Itabaiana",
        "uf": "SE",
        "latitude": -10.682555,
        "longitude": -37.427287,
        "empresa": "OI",
        "pf-ou-pj": "Pessoa Física",
        "tecnologia": "ADSL2",
        "tipo-de-Produto": "INTERNET",
        "meio-de-acesso": "Cabo Metálico"
    },
    {
        "cidade": "Itabaiana",
        "uf": "SE",
        "latitude": -10.682555,
        "longitude": -37.427287,
        "empresa": "OI",
        "pf-ou-pj": "Pessoa Física",
        "tecnologia": "FTTH",
        "tipo-de-Produto": "INTERNET",
        "meio-de-acesso": "Fibra"
    },
    {
        "cidade": "Itabaianinha",
        "uf": "SE",
        "latitude": -11.269268,
        "longitude": -37.787505,
        "empresa": "OI",
        "pf-ou-pj": "Pessoa Física",
        "tecnologia": "ADSL1",
        "tipo-de-Produto": "INTERNET",
        "meio-de-acesso": "Cabo Metálico"
    },
    {
        "cidade": "Itabi",
        "uf": "SE",
        "latitude": -10.124808,
        "longitude": -37.105558,
        "empresa": "OI",
        "pf-ou-pj": "Pessoa Física",
        "tecnologia": "ADSL1",
        "tipo-de-Produto": "INTERNET",
        "meio-de-acesso": "Cabo Metálico"
    },
    {
        "cidade": "Itaporanga d'Ajuda",
        "uf": "SE",
        "latitude": null,
        "longitude": null,
        "empresa": "OI",
        "pf-ou-pj": "Pessoa Física",
        "tecnologia": "ADSL2",
        "tipo-de-Produto": "INTERNET",
        "meio-de-acesso": "Cabo Metálico"
    },
    {
        "cidade": "Japaratuba",
        "uf": "SE",
        "latitude": -10.584913,
        "longitude": -36.941765,
        "empresa": "OI",
        "pf-ou-pj": "Pessoa Física",
        "tecnologia": "ADSL1",
        "tipo-de-Produto": "INTERNET",
        "meio-de-acesso": "Cabo Metálico"
    },
    {
        "cidade": "Japaratuba",
        "uf": "SE",
        "latitude": -10.584913,
        "longitude": -36.941765,
        "empresa": "OI",
        "pf-ou-pj": "Pessoa Física",
        "tecnologia": "ADSL2",
        "tipo-de-Produto": "INTERNET",
        "meio-de-acesso": "Cabo Metálico"
    },
    {
        "cidade": "Japoatã",
        "uf": "SE",
        "latitude": -10.347719,
        "longitude": -36.804504,
        "empresa": "OI",
        "pf-ou-pj": "Pessoa Física",
        "tecnologia": "ADSL1",
        "tipo-de-Produto": "INTERNET",
        "meio-de-acesso": "Cabo Metálico"
    },
    {
        "cidade": "Japoatã",
        "uf": "SE",
        "latitude": -10.347719,
        "longitude": -36.804504,
        "empresa": "OI",
        "pf-ou-pj": "Pessoa Física",
        "tecnologia": "ADSL2",
        "tipo-de-Produto": "INTERNET",
        "meio-de-acesso": "Cabo Metálico"
    },
    {
        "cidade": "Lagarto",
        "uf": "SE",
        "latitude": -10.913628,
        "longitude": -37.668948,
        "empresa": "OI",
        "pf-ou-pj": "Pessoa Física",
        "tecnologia": "ADSL1",
        "tipo-de-Produto": "INTERNET",
        "meio-de-acesso": "Cabo Metálico"
    },
    {
        "cidade": "Lagarto",
        "uf": "SE",
        "latitude": -10.913628,
        "longitude": -37.668948,
        "empresa": "OI",
        "pf-ou-pj": "Pessoa Física",
        "tecnologia": "ADSL2",
        "tipo-de-Produto": "INTERNET",
        "meio-de-acesso": "Cabo Metálico"
    },
    {
        "cidade": "Laranjeiras",
        "uf": "SE",
        "latitude": -10.798121,
        "longitude": -37.173123,
        "empresa": "OI",
        "pf-ou-pj": "Pessoa Física",
        "tecnologia": "ADSL2",
        "tipo-de-Produto": "INTERNET",
        "meio-de-acesso": "Cabo Metálico"
    },
    {
        "cidade": "Macambira",
        "uf": "SE",
        "latitude": -10.661871,
        "longitude": -37.541303,
        "empresa": "OI",
        "pf-ou-pj": "Pessoa Física",
        "tecnologia": "ADSL1",
        "tipo-de-Produto": "INTERNET",
        "meio-de-acesso": "Cabo Metálico"
    },
    {
        "cidade": "Malhada dos Bois",
        "uf": "SE",
        "latitude": -10.341837,
        "longitude": -36.925188,
        "empresa": "OI",
        "pf-ou-pj": "Pessoa Física",
        "tecnologia": "ADSL1",
        "tipo-de-Produto": "INTERNET",
        "meio-de-acesso": "Cabo Metálico"
    },
    {
        "cidade": "Malhador",
        "uf": "SE",
        "latitude": -10.664926,
        "longitude": -37.300437,
        "empresa": "OI",
        "pf-ou-pj": "Pessoa Física",
        "tecnologia": "ADSL1",
        "tipo-de-Produto": "INTERNET",
        "meio-de-acesso": "Cabo Metálico"
    },
    {
        "cidade": "Malhador",
        "uf": "SE",
        "latitude": -10.664926,
        "longitude": -37.300437,
        "empresa": "OI",
        "pf-ou-pj": "Pessoa Física",
        "tecnologia": "ADSL2",
        "tipo-de-Produto": "INTERNET",
        "meio-de-acesso": "Cabo Metálico"
    },
    {
        "cidade": "Maruim",
        "uf": "SE",
        "latitude": -10.730762,
        "longitude": -37.085598,
        "empresa": "OI",
        "pf-ou-pj": "Pessoa Física",
        "tecnologia": "ADSL1",
        "tipo-de-Produto": "INTERNET",
        "meio-de-acesso": "Cabo Metálico"
    },
    {
        "cidade": "Maruim",
        "uf": "SE",
        "latitude": -10.730762,
        "longitude": -37.085598,
        "empresa": "OI",
        "pf-ou-pj": "Pessoa Física",
        "tecnologia": "ADSL2",
        "tipo-de-Produto": "INTERNET",
        "meio-de-acesso": "Cabo Metálico"
    },
    {
        "cidade": "Moita Bonita",
        "uf": "SE",
        "latitude": -10.576908,
        "longitude": -37.35121,
        "empresa": "OI",
        "pf-ou-pj": "Pessoa Física",
        "tecnologia": "ADSL1",
        "tipo-de-Produto": "INTERNET",
        "meio-de-acesso": "Cabo Metálico"
    },
    {
        "cidade": "Moita Bonita",
        "uf": "SE",
        "latitude": -10.576908,
        "longitude": -37.35121,
        "empresa": "OI",
        "pf-ou-pj": "Pessoa Física",
        "tecnologia": "ADSL2",
        "tipo-de-Produto": "INTERNET",
        "meio-de-acesso": "Cabo Metálico"
    },
    {
        "cidade": "Monte Alegre de Sergipe",
        "uf": "SE",
        "latitude": -10.025574,
        "longitude": -37.561605,
        "empresa": "OI",
        "pf-ou-pj": "Pessoa Física",
        "tecnologia": "ADSL1",
        "tipo-de-Produto": "INTERNET",
        "meio-de-acesso": "Cabo Metálico"
    },
    {
        "cidade": "Muribeca",
        "uf": "SE",
        "latitude": -10.427146,
        "longitude": -36.95882,
        "empresa": "OI",
        "pf-ou-pj": "Pessoa Física",
        "tecnologia": "ADSL2",
        "tipo-de-Produto": "INTERNET",
        "meio-de-acesso": "Cabo Metálico"
    },
    {
        "cidade": "Neópolis",
        "uf": "SE",
        "latitude": -10.321503,
        "longitude": -36.584952,
        "empresa": "OI",
        "pf-ou-pj": "Pessoa Física",
        "tecnologia": "ADSL1",
        "tipo-de-Produto": "INTERNET",
        "meio-de-acesso": "Cabo Metálico"
    },
    {
        "cidade": "Neópolis",
        "uf": "SE",
        "latitude": -10.321503,
        "longitude": -36.584952,
        "empresa": "OI",
        "pf-ou-pj": "Pessoa Física",
        "tecnologia": "ADSL2",
        "tipo-de-Produto": "INTERNET",
        "meio-de-acesso": "Cabo Metálico"
    },
    {
        "cidade": "Nossa Senhora da Glória",
        "uf": "SE",
        "latitude": -10.215809,
        "longitude": -37.421125,
        "empresa": "OI",
        "pf-ou-pj": "Pessoa Física",
        "tecnologia": "ADSL1",
        "tipo-de-Produto": "INTERNET",
        "meio-de-acesso": "Cabo Metálico"
    },
    {
        "cidade": "Nossa Senhora da Glória",
        "uf": "SE",
        "latitude": -10.215809,
        "longitude": -37.421125,
        "empresa": "OI",
        "pf-ou-pj": "Pessoa Física",
        "tecnologia": "ADSL2",
        "tipo-de-Produto": "INTERNET",
        "meio-de-acesso": "Cabo Metálico"
    },
    {
        "cidade": "Nossa Senhora das Dores",
        "uf": "SE",
        "latitude": -10.48536,
        "longitude": -37.196285,
        "empresa": "OI",
        "pf-ou-pj": "Pessoa Física",
        "tecnologia": "ADSL1",
        "tipo-de-Produto": "INTERNET",
        "meio-de-acesso": "Cabo Metálico"
    },
    {
        "cidade": "Nossa Senhora de Lourdes",
        "uf": "SE",
        "latitude": -10.077168,
        "longitude": -37.061528,
        "empresa": "OI",
        "pf-ou-pj": "Pessoa Física",
        "tecnologia": "ADSL1",
        "tipo-de-Produto": "INTERNET",
        "meio-de-acesso": "Cabo Metálico"
    },
    {
        "cidade": "Nossa Senhora do Socorro",
        "uf": "SE",
        "latitude": -10.846822,
        "longitude": -37.123113,
        "empresa": "OI",
        "pf-ou-pj": "Pessoa Física",
        "tecnologia": "ADSL1",
        "tipo-de-Produto": "INTERNET",
        "meio-de-acesso": "Cabo Metálico"
    },
    {
        "cidade": "Nossa Senhora do Socorro",
        "uf": "SE",
        "latitude": -10.846822,
        "longitude": -37.123113,
        "empresa": "OI",
        "pf-ou-pj": "Pessoa Física",
        "tecnologia": "ADSL2",
        "tipo-de-Produto": "INTERNET",
        "meio-de-acesso": "Cabo Metálico"
    },
    {
        "cidade": "Pacatuba",
        "uf": "SE",
        "latitude": -10.453811,
        "longitude": -36.653078,
        "empresa": "OI",
        "pf-ou-pj": "Pessoa Física",
        "tecnologia": "ADSL1",
        "tipo-de-Produto": "INTERNET",
        "meio-de-acesso": "Cabo Metálico"
    },
    {
        "cidade": "Pedrinhas",
        "uf": "SE",
        "latitude": -11.190174,
        "longitude": -37.67749,
        "empresa": "OI",
        "pf-ou-pj": "Pessoa Física",
        "tecnologia": "ADSL1",
        "tipo-de-Produto": "INTERNET",
        "meio-de-acesso": "Cabo Metálico"
    },
    {
        "cidade": "Pirambu",
        "uf": "SE",
        "latitude": -10.721516,
        "longitude": -36.854427,
        "empresa": "OI",
        "pf-ou-pj": "Pessoa Física",
        "tecnologia": "ADSL1",
        "tipo-de-Produto": "INTERNET",
        "meio-de-acesso": "Cabo Metálico"
    },
    {
        "cidade": "Porto da Folha",
        "uf": "SE",
        "latitude": -9.916264,
        "longitude": -37.284233,
        "empresa": "OI",
        "pf-ou-pj": "Pessoa Física",
        "tecnologia": "ADSL1",
        "tipo-de-Produto": "INTERNET",
        "meio-de-acesso": "Cabo Metálico"
    },
    {
        "cidade": "Porto da Folha",
        "uf": "SE",
        "latitude": -9.916264,
        "longitude": -37.284233,
        "empresa": "OI",
        "pf-ou-pj": "Pessoa Física",
        "tecnologia": "ADSL2",
        "tipo-de-Produto": "INTERNET",
        "meio-de-acesso": "Cabo Metálico"
    },
    {
        "cidade": "Poço Verde",
        "uf": "SE",
        "latitude": -10.715129,
        "longitude": -38.181294,
        "empresa": "OI",
        "pf-ou-pj": "Pessoa Física",
        "tecnologia": "ADSL1",
        "tipo-de-Produto": "INTERNET",
        "meio-de-acesso": "Cabo Metálico"
    },
    {
        "cidade": "Propriá",
        "uf": "SE",
        "latitude": -10.213773,
        "longitude": -36.844153,
        "empresa": "OI",
        "pf-ou-pj": "Pessoa Física",
        "tecnologia": "ADSL1",
        "tipo-de-Produto": "INTERNET",
        "meio-de-acesso": "Cabo Metálico"
    },
    {
        "cidade": "Propriá",
        "uf": "SE",
        "latitude": -10.213773,
        "longitude": -36.844153,
        "empresa": "OI",
        "pf-ou-pj": "Pessoa Física",
        "tecnologia": "ADSL2",
        "tipo-de-Produto": "INTERNET",
        "meio-de-acesso": "Cabo Metálico"
    },
    {
        "cidade": "Riachuelo",
        "uf": "SE",
        "latitude": -10.735008,
        "longitude": -37.196551,
        "empresa": "OI",
        "pf-ou-pj": "Pessoa Física",
        "tecnologia": "ADSL1",
        "tipo-de-Produto": "INTERNET",
        "meio-de-acesso": "Cabo Metálico"
    },
    {
        "cidade": "Riachuelo",
        "uf": "SE",
        "latitude": -10.735008,
        "longitude": -37.196551,
        "empresa": "OI",
        "pf-ou-pj": "Pessoa Física",
        "tecnologia": "ADSL2",
        "tipo-de-Produto": "INTERNET",
        "meio-de-acesso": "Cabo Metálico"
    },
    {
        "cidade": "Riachão do Dantas",
        "uf": "SE",
        "latitude": -11.072904,
        "longitude": -37.730985,
        "empresa": "OI",
        "pf-ou-pj": "Pessoa Física",
        "tecnologia": "ADSL1",
        "tipo-de-Produto": "INTERNET",
        "meio-de-acesso": "Cabo Metálico"
    },
    {
        "cidade": "Ribeirópolis",
        "uf": "SE",
        "latitude": -10.535669,
        "longitude": -37.438035,
        "empresa": "OI",
        "pf-ou-pj": "Pessoa Física",
        "tecnologia": "ADSL1",
        "tipo-de-Produto": "INTERNET",
        "meio-de-acesso": "Cabo Metálico"
    },
    {
        "cidade": "Ribeirópolis",
        "uf": "SE",
        "latitude": -10.535669,
        "longitude": -37.438035,
        "empresa": "OI",
        "pf-ou-pj": "Pessoa Física",
        "tecnologia": "ADSL2",
        "tipo-de-Produto": "INTERNET",
        "meio-de-acesso": "Cabo Metálico"
    },
    {
        "cidade": "Rosário do Catete",
        "uf": "SE",
        "latitude": -10.690432,
        "longitude": -37.03569,
        "empresa": "OI",
        "pf-ou-pj": "Pessoa Física",
        "tecnologia": "ADSL1",
        "tipo-de-Produto": "INTERNET",
        "meio-de-acesso": "Cabo Metálico"
    },
    {
        "cidade": "Rosário do Catete",
        "uf": "SE",
        "latitude": -10.690432,
        "longitude": -37.03569,
        "empresa": "OI",
        "pf-ou-pj": "Pessoa Física",
        "tecnologia": "ADSL2",
        "tipo-de-Produto": "INTERNET",
        "meio-de-acesso": "Cabo Metálico"
    },
    {
        "cidade": "Salgado",
        "uf": "SE",
        "latitude": -11.028833,
        "longitude": -37.480385,
        "empresa": "OI",
        "pf-ou-pj": "Pessoa Física",
        "tecnologia": "ADSL1",
        "tipo-de-Produto": "INTERNET",
        "meio-de-acesso": "Cabo Metálico"
    },
    {
        "cidade": "Salgado",
        "uf": "SE",
        "latitude": -11.028833,
        "longitude": -37.480385,
        "empresa": "OI",
        "pf-ou-pj": "Pessoa Física",
        "tecnologia": "ADSL2",
        "tipo-de-Produto": "INTERNET",
        "meio-de-acesso": "Cabo Metálico"
    },
    {
        "cidade": "Santa Luzia do Itanhy",
        "uf": "SE",
        "latitude": -11.353596,
        "longitude": -37.458642,
        "empresa": "OI",
        "pf-ou-pj": "Pessoa Física",
        "tecnologia": "ADSL2",
        "tipo-de-Produto": "INTERNET",
        "meio-de-acesso": "Cabo Metálico"
    },
    {
        "cidade": "Santana do São Francisco",
        "uf": "SE",
        "latitude": -10.292233,
        "longitude": -36.610539,
        "empresa": "OI",
        "pf-ou-pj": "Pessoa Física",
        "tecnologia": "ADSL1",
        "tipo-de-Produto": "INTERNET",
        "meio-de-acesso": "Cabo Metálico"
    },
    {
        "cidade": "Santo Amaro das Brotas",
        "uf": "SE",
        "latitude": -10.789225,
        "longitude": -37.05643,
        "empresa": "OI",
        "pf-ou-pj": "Pessoa Física",
        "tecnologia": "ADSL1",
        "tipo-de-Produto": "INTERNET",
        "meio-de-acesso": "Cabo Metálico"
    },
    {
        "cidade": "Simão Dias",
        "uf": "SE",
        "latitude": -10.738652,
        "longitude": -37.809746,
        "empresa": "OI",
        "pf-ou-pj": "Pessoa Física",
        "tecnologia": "ADSL1",
        "tipo-de-Produto": "INTERNET",
        "meio-de-acesso": "Cabo Metálico"
    },
    {
        "cidade": "Simão Dias",
        "uf": "SE",
        "latitude": -10.738652,
        "longitude": -37.809746,
        "empresa": "OI",
        "pf-ou-pj": "Pessoa Física",
        "tecnologia": "ADSL2",
        "tipo-de-Produto": "INTERNET",
        "meio-de-acesso": "Cabo Metálico"
    },
    {
        "cidade": "São Cristóvão",
        "uf": "SE",
        "latitude": -11.008443,
        "longitude": -37.20436,
        "empresa": "OI",
        "pf-ou-pj": "Pessoa Física",
        "tecnologia": "ADSL1",
        "tipo-de-Produto": "INTERNET",
        "meio-de-acesso": "Cabo Metálico"
    },
    {
        "cidade": "São Cristóvão",
        "uf": "SE",
        "latitude": -11.008443,
        "longitude": -37.20436,
        "empresa": "OI",
        "pf-ou-pj": "Pessoa Física",
        "tecnologia": "ADSL2",
        "tipo-de-Produto": "INTERNET",
        "meio-de-acesso": "Cabo Metálico"
    },
    {
        "cidade": "São Cristóvão",
        "uf": "SE",
        "latitude": -11.008443,
        "longitude": -37.20436,
        "empresa": "OI",
        "pf-ou-pj": "Pessoa Física",
        "tecnologia": "FTTH",
        "tipo-de-Produto": "INTERNET",
        "meio-de-acesso": "Fibra"
    },
    {
        "cidade": "São Domingos",
        "uf": "SE",
        "latitude": -10.791613,
        "longitude": -37.568515,
        "empresa": "OI",
        "pf-ou-pj": "Pessoa Física",
        "tecnologia": "ADSL2",
        "tipo-de-Produto": "INTERNET",
        "meio-de-acesso": "Cabo Metálico"
    },
    {
        "cidade": "São Miguel do Aleixo",
        "uf": "SE",
        "latitude": -10.384662,
        "longitude": -37.38356,
        "empresa": "OI",
        "pf-ou-pj": "Pessoa Física",
        "tecnologia": "ADSL1",
        "tipo-de-Produto": "INTERNET",
        "meio-de-acesso": "Cabo Metálico"
    },
    {
        "cidade": "Tobias Barreto",
        "uf": "SE",
        "latitude": -11.179799,
        "longitude": -37.999451,
        "empresa": "OI",
        "pf-ou-pj": "Pessoa Física",
        "tecnologia": "ADSL1",
        "tipo-de-Produto": "INTERNET",
        "meio-de-acesso": "Cabo Metálico"
    },
    {
        "cidade": "Tobias Barreto",
        "uf": "SE",
        "latitude": -11.179799,
        "longitude": -37.999451,
        "empresa": "OI",
        "pf-ou-pj": "Pessoa Física",
        "tecnologia": "ADSL2",
        "tipo-de-Produto": "INTERNET",
        "meio-de-acesso": "Cabo Metálico"
    },
    {
        "cidade": "Umbaúba",
        "uf": "SE",
        "latitude": -11.380921,
        "longitude": -37.662347,
        "empresa": "OI",
        "pf-ou-pj": "Pessoa Física",
        "tecnologia": "ADSL1",
        "tipo-de-Produto": "INTERNET",
        "meio-de-acesso": "Cabo Metálico"
    }
]