[
    {
        "cidade": "Alagoinhas",
        "uf": "BA",
        "latitude": -12.133526,
        "longitude": -38.420772,
        "empresa": "VIVO",
        "pf-ou-pj": "Pessoa Física",
        "tecnologia": "ADSL2",
        "tipo-de-Produto": "INTERNET",
        "meio-de-acesso": "Cabo Metálico"
    },
    {
        "cidade": "Barreiras",
        "uf": "BA",
        "latitude": -12.143864,
        "longitude": -44.996838,
        "empresa": "VIVO",
        "pf-ou-pj": "Pessoa Física",
        "tecnologia": "FTTH",
        "tipo-de-Produto": "INTERNET",
        "meio-de-acesso": "Fibra"
    },
    {
        "cidade": "Camaçari",
        "uf": "BA",
        "latitude": -12.699638,
        "longitude": -38.326265,
        "empresa": "VIVO",
        "pf-ou-pj": "Pessoa Física",
        "tecnologia": "ADSL2",
        "tipo-de-Produto": "INTERNET",
        "meio-de-acesso": "Cabo Metálico"
    },
    {
        "cidade": "Eunápolis",
        "uf": "BA",
        "latitude": -16.371498,
        "longitude": -39.582122,
        "empresa": "VIVO",
        "pf-ou-pj": "Pessoa Física",
        "tecnologia": "FTTH",
        "tipo-de-Produto": "INTERNET",
        "meio-de-acesso": "Fibra"
    },
    {
        "cidade": "Feira de Santana",
        "uf": "BA",
        "latitude": -12.266429,
        "longitude": -38.966293,
        "empresa": "VIVO",
        "pf-ou-pj": "Pessoa Física",
        "tecnologia": "ADSL2",
        "tipo-de-Produto": "INTERNET",
        "meio-de-acesso": "Cabo Metálico"
    },
    {
        "cidade": "Feira de Santana",
        "uf": "BA",
        "latitude": -12.266429,
        "longitude": -38.966293,
        "empresa": "VIVO",
        "pf-ou-pj": "Pessoa Física",
        "tecnologia": "FTTH",
        "tipo-de-Produto": "INTERNET",
        "meio-de-acesso": "Fibra"
    },
    {
        "cidade": "Guanambi",
        "uf": "BA",
        "latitude": -14.223066,
        "longitude": -42.779943,
        "empresa": "VIVO",
        "pf-ou-pj": "Pessoa Física",
        "tecnologia": "FTTH",
        "tipo-de-Produto": "INTERNET",
        "meio-de-acesso": "Fibra"
    },
    {
        "cidade": "Ilhéus",
        "uf": "BA",
        "latitude": -14.793045,
        "longitude": -39.04602,
        "empresa": "VIVO",
        "pf-ou-pj": "Pessoa Física",
        "tecnologia": "FTTH",
        "tipo-de-Produto": "INTERNET",
        "meio-de-acesso": "Fibra"
    },
    {
        "cidade": "Itabuna",
        "uf": "BA",
        "latitude": -14.787573,
        "longitude": -39.278056,
        "empresa": "VIVO",
        "pf-ou-pj": "Pessoa Física",
        "tecnologia": "FTTH",
        "tipo-de-Produto": "INTERNET",
        "meio-de-acesso": "Fibra"
    },
    {
        "cidade": "Jequié",
        "uf": "BA",
        "latitude": -13.850888,
        "longitude": -40.087704,
        "empresa": "VIVO",
        "pf-ou-pj": "Pessoa Física",
        "tecnologia": "FTTH",
        "tipo-de-Produto": "INTERNET",
        "meio-de-acesso": "Fibra"
    },
    {
        "cidade": "Lauro de Freitas",
        "uf": "BA",
        "latitude": -12.8978,
        "longitude": -38.321008,
        "empresa": "VIVO",
        "pf-ou-pj": "Pessoa Física",
        "tecnologia": "ADSL2",
        "tipo-de-Produto": "INTERNET",
        "meio-de-acesso": "Cabo Metálico"
    },
    {
        "cidade": "Lauro de Freitas",
        "uf": "BA",
        "latitude": -12.8978,
        "longitude": -38.321008,
        "empresa": "VIVO",
        "pf-ou-pj": "Pessoa Física",
        "tecnologia": "FTTH",
        "tipo-de-Produto": "INTERNET",
        "meio-de-acesso": "Fibra"
    },
    {
        "cidade": "Luís Eduardo Magalhães",
        "uf": "BA",
        "latitude": null,
        "longitude": null,
        "empresa": "VIVO",
        "pf-ou-pj": "Pessoa Física",
        "tecnologia": "FTTH",
        "tipo-de-Produto": "INTERNET",
        "meio-de-acesso": "Fibra"
    },
    {
        "cidade": "Porto Seguro",
        "uf": "BA",
        "latitude": -16.443473,
        "longitude": -39.064251,
        "empresa": "VIVO",
        "pf-ou-pj": "Pessoa Física",
        "tecnologia": "FTTH",
        "tipo-de-Produto": "INTERNET",
        "meio-de-acesso": "Fibra"
    },
    {
        "cidade": "Salvador",
        "uf": "BA",
        "latitude": -12.97178,
        "longitude": -38.501068,
        "empresa": "VIVO",
        "pf-ou-pj": "Pessoa Física",
        "tecnologia": "ADSL2",
        "tipo-de-Produto": "INTERNET",
        "meio-de-acesso": "Cabo Metálico"
    },
    {
        "cidade": "Salvador",
        "uf": "BA",
        "latitude": -12.97178,
        "longitude": -38.501068,
        "empresa": "VIVO",
        "pf-ou-pj": "Pessoa Física",
        "tecnologia": "FTTH",
        "tipo-de-Produto": "INTERNET",
        "meio-de-acesso": "Fibra"
    },
    {
        "cidade": "Santo Antônio de Jesus",
        "uf": "BA",
        "latitude": -12.961387,
        "longitude": -39.258403,
        "empresa": "VIVO",
        "pf-ou-pj": "Pessoa Física",
        "tecnologia": "FTTH",
        "tipo-de-Produto": "INTERNET",
        "meio-de-acesso": "Fibra"
    },
    {
        "cidade": "Simões Filho",
        "uf": "BA",
        "latitude": -12.786587,
        "longitude": -38.402944,
        "empresa": "VIVO",
        "pf-ou-pj": "Pessoa Física",
        "tecnologia": "ADSL2",
        "tipo-de-Produto": "INTERNET",
        "meio-de-acesso": "Cabo Metálico"
    },
    {
        "cidade": "Teixeira de Freitas",
        "uf": "BA",
        "latitude": -17.539915,
        "longitude": -39.739962,
        "empresa": "VIVO",
        "pf-ou-pj": "Pessoa Física",
        "tecnologia": "FTTH",
        "tipo-de-Produto": "INTERNET",
        "meio-de-acesso": "Fibra"
    },
    {
        "cidade": "Vitória da Conquista",
        "uf": "BA",
        "latitude": -14.861466,
        "longitude": -40.844159,
        "empresa": "VIVO",
        "pf-ou-pj": "Pessoa Física",
        "tecnologia": "FTTH",
        "tipo-de-Produto": "INTERNET",
        "meio-de-acesso": "Fibra"
    }
]