[
    {
        "cidade": "Angra dos Reis",
        "uf": "RJ",
        "latitude": -23.001074,
        "longitude": -44.31956,
        "empresa": "VIVO",
        "pf-ou-pj": "Pessoa Jurídica",
        "tecnologia": "ETHERNET",
        "tipo-de-Produto": "OUTROS",
        "meio-de-acesso": "Cabo Metálico"
    },
    {
        "cidade": "Angra dos Reis",
        "uf": "RJ",
        "latitude": -23.001074,
        "longitude": -44.31956,
        "empresa": "VIVO",
        "pf-ou-pj": "Pessoa Jurídica",
        "tecnologia": "FTTH",
        "tipo-de-Produto": "INTERNET",
        "meio-de-acesso": "Fibra"
    },
    {
        "cidade": "Angra dos Reis",
        "uf": "RJ",
        "latitude": -23.001074,
        "longitude": -44.31956,
        "empresa": "VIVO",
        "pf-ou-pj": "Pessoa Jurídica",
        "tecnologia": "HDSL",
        "tipo-de-Produto": "INTERNET",
        "meio-de-acesso": "Cabo Metálico"
    },
    {
        "cidade": "Araruama",
        "uf": "RJ",
        "latitude": -22.869651,
        "longitude": -42.332625,
        "empresa": "VIVO",
        "pf-ou-pj": "Pessoa Jurídica",
        "tecnologia": "ETHERNET",
        "tipo-de-Produto": "OUTROS",
        "meio-de-acesso": "Cabo Metálico"
    },
    {
        "cidade": "Araruama",
        "uf": "RJ",
        "latitude": -22.869651,
        "longitude": -42.332625,
        "empresa": "VIVO",
        "pf-ou-pj": "Pessoa Jurídica",
        "tecnologia": "FTTH",
        "tipo-de-Produto": "INTERNET",
        "meio-de-acesso": "Fibra"
    },
    {
        "cidade": "Araruama",
        "uf": "RJ",
        "latitude": -22.869651,
        "longitude": -42.332625,
        "empresa": "VIVO",
        "pf-ou-pj": "Pessoa Jurídica",
        "tecnologia": "HDSL",
        "tipo-de-Produto": "INTERNET",
        "meio-de-acesso": "Cabo Metálico"
    },
    {
        "cidade": "Armação dos Búzios",
        "uf": "RJ",
        "latitude": -22.752846,
        "longitude": -41.884559,
        "empresa": "VIVO",
        "pf-ou-pj": "Pessoa Jurídica",
        "tecnologia": "ETHERNET",
        "tipo-de-Produto": "OUTROS",
        "meio-de-acesso": "Cabo Metálico"
    },
    {
        "cidade": "Armação dos Búzios",
        "uf": "RJ",
        "latitude": -22.752846,
        "longitude": -41.884559,
        "empresa": "VIVO",
        "pf-ou-pj": "Pessoa Jurídica",
        "tecnologia": "HDSL",
        "tipo-de-Produto": "INTERNET",
        "meio-de-acesso": "Cabo Metálico"
    },
    {
        "cidade": "Barra Mansa",
        "uf": "RJ",
        "latitude": -22.548084,
        "longitude": -44.175241,
        "empresa": "VIVO",
        "pf-ou-pj": "Pessoa Jurídica",
        "tecnologia": "ETHERNET",
        "tipo-de-Produto": "INTERNET",
        "meio-de-acesso": "Cabo Metálico"
    },
    {
        "cidade": "Barra Mansa",
        "uf": "RJ",
        "latitude": -22.548084,
        "longitude": -44.175241,
        "empresa": "VIVO",
        "pf-ou-pj": "Pessoa Jurídica",
        "tecnologia": "ETHERNET",
        "tipo-de-Produto": "OUTROS",
        "meio-de-acesso": "Cabo Metálico"
    },
    {
        "cidade": "Barra Mansa",
        "uf": "RJ",
        "latitude": -22.548084,
        "longitude": -44.175241,
        "empresa": "VIVO",
        "pf-ou-pj": "Pessoa Jurídica",
        "tecnologia": "FTTH",
        "tipo-de-Produto": "INTERNET",
        "meio-de-acesso": "Fibra"
    },
    {
        "cidade": "Barra Mansa",
        "uf": "RJ",
        "latitude": -22.548084,
        "longitude": -44.175241,
        "empresa": "VIVO",
        "pf-ou-pj": "Pessoa Jurídica",
        "tecnologia": "HDSL",
        "tipo-de-Produto": "INTERNET",
        "meio-de-acesso": "Cabo Metálico"
    },
    {
        "cidade": "Barra do Piraí",
        "uf": "RJ",
        "latitude": -22.471531,
        "longitude": -43.826918,
        "empresa": "VIVO",
        "pf-ou-pj": "Pessoa Jurídica",
        "tecnologia": "ETHERNET",
        "tipo-de-Produto": "OUTROS",
        "meio-de-acesso": "Cabo Metálico"
    },
    {
        "cidade": "Barra do Piraí",
        "uf": "RJ",
        "latitude": -22.471531,
        "longitude": -43.826918,
        "empresa": "VIVO",
        "pf-ou-pj": "Pessoa Jurídica",
        "tecnologia": "FTTH",
        "tipo-de-Produto": "INTERNET",
        "meio-de-acesso": "Fibra"
    },
    {
        "cidade": "Belford Roxo",
        "uf": "RJ",
        "latitude": -22.764042,
        "longitude": -43.39921,
        "empresa": "VIVO",
        "pf-ou-pj": "Pessoa Jurídica",
        "tecnologia": "ETHERNET",
        "tipo-de-Produto": "OUTROS",
        "meio-de-acesso": "Cabo Metálico"
    },
    {
        "cidade": "Belford Roxo",
        "uf": "RJ",
        "latitude": -22.764042,
        "longitude": -43.39921,
        "empresa": "VIVO",
        "pf-ou-pj": "Pessoa Jurídica",
        "tecnologia": "HDSL",
        "tipo-de-Produto": "INTERNET",
        "meio-de-acesso": "Cabo Metálico"
    },
    {
        "cidade": "Cabo Frio",
        "uf": "RJ",
        "latitude": -22.88943,
        "longitude": -42.028595,
        "empresa": "VIVO",
        "pf-ou-pj": "Pessoa Jurídica",
        "tecnologia": "ETHERNET",
        "tipo-de-Produto": "OUTROS",
        "meio-de-acesso": "Cabo Metálico"
    },
    {
        "cidade": "Cabo Frio",
        "uf": "RJ",
        "latitude": -22.88943,
        "longitude": -42.028595,
        "empresa": "VIVO",
        "pf-ou-pj": "Pessoa Jurídica",
        "tecnologia": "FTTH",
        "tipo-de-Produto": "INTERNET",
        "meio-de-acesso": "Fibra"
    },
    {
        "cidade": "Cabo Frio",
        "uf": "RJ",
        "latitude": -22.88943,
        "longitude": -42.028595,
        "empresa": "VIVO",
        "pf-ou-pj": "Pessoa Jurídica",
        "tecnologia": "HDSL",
        "tipo-de-Produto": "INTERNET",
        "meio-de-acesso": "Cabo Metálico"
    },
    {
        "cidade": "Campos dos Goytacazes",
        "uf": "RJ",
        "latitude": -21.762171,
        "longitude": -41.318055,
        "empresa": "VIVO",
        "pf-ou-pj": "Pessoa Jurídica",
        "tecnologia": "ADSL2",
        "tipo-de-Produto": "INTERNET",
        "meio-de-acesso": "Cabo Metálico"
    },
    {
        "cidade": "Campos dos Goytacazes",
        "uf": "RJ",
        "latitude": -21.762171,
        "longitude": -41.318055,
        "empresa": "VIVO",
        "pf-ou-pj": "Pessoa Jurídica",
        "tecnologia": "ETHERNET",
        "tipo-de-Produto": "INTERNET",
        "meio-de-acesso": "Cabo Metálico"
    },
    {
        "cidade": "Campos dos Goytacazes",
        "uf": "RJ",
        "latitude": -21.762171,
        "longitude": -41.318055,
        "empresa": "VIVO",
        "pf-ou-pj": "Pessoa Jurídica",
        "tecnologia": "ETHERNET",
        "tipo-de-Produto": "LINHA_DEDICADA",
        "meio-de-acesso": "Cabo Metálico"
    },
    {
        "cidade": "Campos dos Goytacazes",
        "uf": "RJ",
        "latitude": -21.762171,
        "longitude": -41.318055,
        "empresa": "VIVO",
        "pf-ou-pj": "Pessoa Jurídica",
        "tecnologia": "ETHERNET",
        "tipo-de-Produto": "OUTROS",
        "meio-de-acesso": "Cabo Metálico"
    },
    {
        "cidade": "Campos dos Goytacazes",
        "uf": "RJ",
        "latitude": -21.762171,
        "longitude": -41.318055,
        "empresa": "VIVO",
        "pf-ou-pj": "Pessoa Jurídica",
        "tecnologia": "FTTH",
        "tipo-de-Produto": "INTERNET",
        "meio-de-acesso": "Fibra"
    },
    {
        "cidade": "Campos dos Goytacazes",
        "uf": "RJ",
        "latitude": -21.762171,
        "longitude": -41.318055,
        "empresa": "VIVO",
        "pf-ou-pj": "Pessoa Jurídica",
        "tecnologia": "HDSL",
        "tipo-de-Produto": "INTERNET",
        "meio-de-acesso": "Cabo Metálico"
    },
    {
        "cidade": "Casimiro de Abreu",
        "uf": "RJ",
        "latitude": -22.481235,
        "longitude": -42.206589,
        "empresa": "VIVO",
        "pf-ou-pj": "Pessoa Jurídica",
        "tecnologia": "ETHERNET",
        "tipo-de-Produto": "OUTROS",
        "meio-de-acesso": "Cabo Metálico"
    },
    {
        "cidade": "Casimiro de Abreu",
        "uf": "RJ",
        "latitude": -22.481235,
        "longitude": -42.206589,
        "empresa": "VIVO",
        "pf-ou-pj": "Pessoa Jurídica",
        "tecnologia": "HDSL",
        "tipo-de-Produto": "INTERNET",
        "meio-de-acesso": "Cabo Metálico"
    },
    {
        "cidade": "Duque de Caxias",
        "uf": "RJ",
        "latitude": -22.785801,
        "longitude": -43.304895,
        "empresa": "VIVO",
        "pf-ou-pj": "Pessoa Jurídica",
        "tecnologia": "ADSL2",
        "tipo-de-Produto": "INTERNET",
        "meio-de-acesso": "Cabo Metálico"
    },
    {
        "cidade": "Duque de Caxias",
        "uf": "RJ",
        "latitude": -22.785801,
        "longitude": -43.304895,
        "empresa": "VIVO",
        "pf-ou-pj": "Pessoa Jurídica",
        "tecnologia": "ETHERNET",
        "tipo-de-Produto": "INTERNET",
        "meio-de-acesso": "Cabo Metálico"
    },
    {
        "cidade": "Duque de Caxias",
        "uf": "RJ",
        "latitude": -22.785801,
        "longitude": -43.304895,
        "empresa": "VIVO",
        "pf-ou-pj": "Pessoa Jurídica",
        "tecnologia": "ETHERNET",
        "tipo-de-Produto": "LINHA_DEDICADA",
        "meio-de-acesso": "Cabo Metálico"
    },
    {
        "cidade": "Duque de Caxias",
        "uf": "RJ",
        "latitude": -22.785801,
        "longitude": -43.304895,
        "empresa": "VIVO",
        "pf-ou-pj": "Pessoa Jurídica",
        "tecnologia": "ETHERNET",
        "tipo-de-Produto": "OUTROS",
        "meio-de-acesso": "Cabo Metálico"
    },
    {
        "cidade": "Duque de Caxias",
        "uf": "RJ",
        "latitude": -22.785801,
        "longitude": -43.304895,
        "empresa": "VIVO",
        "pf-ou-pj": "Pessoa Jurídica",
        "tecnologia": "HDSL",
        "tipo-de-Produto": "INTERNET",
        "meio-de-acesso": "Cabo Metálico"
    },
    {
        "cidade": "Duque de Caxias",
        "uf": "RJ",
        "latitude": -22.785801,
        "longitude": -43.304895,
        "empresa": "VIVO",
        "pf-ou-pj": "Pessoa Jurídica",
        "tecnologia": "HDSL",
        "tipo-de-Produto": "LINHA_DEDICADA",
        "meio-de-acesso": "Cabo Metálico"
    },
    {
        "cidade": "Guapimirim",
        "uf": "RJ",
        "latitude": -22.534702,
        "longitude": -42.989537,
        "empresa": "VIVO",
        "pf-ou-pj": "Pessoa Jurídica",
        "tecnologia": "ETHERNET",
        "tipo-de-Produto": "OUTROS",
        "meio-de-acesso": "Cabo Metálico"
    },
    {
        "cidade": "Guapimirim",
        "uf": "RJ",
        "latitude": -22.534702,
        "longitude": -42.989537,
        "empresa": "VIVO",
        "pf-ou-pj": "Pessoa Jurídica",
        "tecnologia": "HDSL",
        "tipo-de-Produto": "INTERNET",
        "meio-de-acesso": "Cabo Metálico"
    },
    {
        "cidade": "Iguaba Grande",
        "uf": "RJ",
        "latitude": -22.849462,
        "longitude": -42.229916,
        "empresa": "VIVO",
        "pf-ou-pj": "Pessoa Jurídica",
        "tecnologia": "FTTH",
        "tipo-de-Produto": "INTERNET",
        "meio-de-acesso": "Fibra"
    },
    {
        "cidade": "Itaboraí",
        "uf": "RJ",
        "latitude": -22.756504,
        "longitude": -42.863905,
        "empresa": "VIVO",
        "pf-ou-pj": "Pessoa Jurídica",
        "tecnologia": "ETHERNET",
        "tipo-de-Produto": "LINHA_DEDICADA",
        "meio-de-acesso": "Cabo Metálico"
    },
    {
        "cidade": "Itaboraí",
        "uf": "RJ",
        "latitude": -22.756504,
        "longitude": -42.863905,
        "empresa": "VIVO",
        "pf-ou-pj": "Pessoa Jurídica",
        "tecnologia": "ETHERNET",
        "tipo-de-Produto": "OUTROS",
        "meio-de-acesso": "Cabo Metálico"
    },
    {
        "cidade": "Itaboraí",
        "uf": "RJ",
        "latitude": -22.756504,
        "longitude": -42.863905,
        "empresa": "VIVO",
        "pf-ou-pj": "Pessoa Jurídica",
        "tecnologia": "HDSL",
        "tipo-de-Produto": "INTERNET",
        "meio-de-acesso": "Cabo Metálico"
    },
    {
        "cidade": "Itaguaí",
        "uf": "RJ",
        "latitude": -22.863566,
        "longitude": -43.779821,
        "empresa": "VIVO",
        "pf-ou-pj": "Pessoa Jurídica",
        "tecnologia": "ETHERNET",
        "tipo-de-Produto": "OUTROS",
        "meio-de-acesso": "Cabo Metálico"
    },
    {
        "cidade": "Itaguaí",
        "uf": "RJ",
        "latitude": -22.863566,
        "longitude": -43.779821,
        "empresa": "VIVO",
        "pf-ou-pj": "Pessoa Jurídica",
        "tecnologia": "HDSL",
        "tipo-de-Produto": "INTERNET",
        "meio-de-acesso": "Cabo Metálico"
    },
    {
        "cidade": "Itaperuna",
        "uf": "RJ",
        "latitude": -21.199665,
        "longitude": -41.879907,
        "empresa": "VIVO",
        "pf-ou-pj": "Pessoa Jurídica",
        "tecnologia": "FTTH",
        "tipo-de-Produto": "INTERNET",
        "meio-de-acesso": "Fibra"
    },
    {
        "cidade": "Itaperuna",
        "uf": "RJ",
        "latitude": -21.199665,
        "longitude": -41.879907,
        "empresa": "VIVO",
        "pf-ou-pj": "Pessoa Jurídica",
        "tecnologia": "HDSL",
        "tipo-de-Produto": "INTERNET",
        "meio-de-acesso": "Cabo Metálico"
    },
    {
        "cidade": "Itatiaia",
        "uf": "RJ",
        "latitude": -22.48971,
        "longitude": -44.567485,
        "empresa": "VIVO",
        "pf-ou-pj": "Pessoa Jurídica",
        "tecnologia": "ETHERNET",
        "tipo-de-Produto": "OUTROS",
        "meio-de-acesso": "Cabo Metálico"
    },
    {
        "cidade": "Macaé",
        "uf": "RJ",
        "latitude": -22.376807,
        "longitude": -41.784828,
        "empresa": "VIVO",
        "pf-ou-pj": "Pessoa Jurídica",
        "tecnologia": "ETHERNET",
        "tipo-de-Produto": "OUTROS",
        "meio-de-acesso": "Cabo Metálico"
    },
    {
        "cidade": "Macaé",
        "uf": "RJ",
        "latitude": -22.376807,
        "longitude": -41.784828,
        "empresa": "VIVO",
        "pf-ou-pj": "Pessoa Jurídica",
        "tecnologia": "HDSL",
        "tipo-de-Produto": "INTERNET",
        "meio-de-acesso": "Cabo Metálico"
    },
    {
        "cidade": "Magé",
        "uf": "RJ",
        "latitude": -22.663151,
        "longitude": -43.031483,
        "empresa": "VIVO",
        "pf-ou-pj": "Pessoa Jurídica",
        "tecnologia": "ETHERNET",
        "tipo-de-Produto": "OUTROS",
        "meio-de-acesso": "Cabo Metálico"
    },
    {
        "cidade": "Magé",
        "uf": "RJ",
        "latitude": -22.663151,
        "longitude": -43.031483,
        "empresa": "VIVO",
        "pf-ou-pj": "Pessoa Jurídica",
        "tecnologia": "HDSL",
        "tipo-de-Produto": "INTERNET",
        "meio-de-acesso": "Cabo Metálico"
    },
    {
        "cidade": "Mangaratiba",
        "uf": "RJ",
        "latitude": -22.959402,
        "longitude": -44.040892,
        "empresa": "VIVO",
        "pf-ou-pj": "Pessoa Jurídica",
        "tecnologia": "ETHERNET",
        "tipo-de-Produto": "OUTROS",
        "meio-de-acesso": "Cabo Metálico"
    },
    {
        "cidade": "Mangaratiba",
        "uf": "RJ",
        "latitude": -22.959402,
        "longitude": -44.040892,
        "empresa": "VIVO",
        "pf-ou-pj": "Pessoa Jurídica",
        "tecnologia": "FTTH",
        "tipo-de-Produto": "INTERNET",
        "meio-de-acesso": "Fibra"
    },
    {
        "cidade": "Maricá",
        "uf": "RJ",
        "latitude": -22.935434,
        "longitude": -42.824587,
        "empresa": "VIVO",
        "pf-ou-pj": "Pessoa Jurídica",
        "tecnologia": "ETHERNET",
        "tipo-de-Produto": "OUTROS",
        "meio-de-acesso": "Cabo Metálico"
    },
    {
        "cidade": "Maricá",
        "uf": "RJ",
        "latitude": -22.935434,
        "longitude": -42.824587,
        "empresa": "VIVO",
        "pf-ou-pj": "Pessoa Jurídica",
        "tecnologia": "HDSL",
        "tipo-de-Produto": "INTERNET",
        "meio-de-acesso": "Cabo Metálico"
    },
    {
        "cidade": "Miguel Pereira",
        "uf": "RJ",
        "latitude": -22.457242,
        "longitude": -43.480275,
        "empresa": "VIVO",
        "pf-ou-pj": "Pessoa Jurídica",
        "tecnologia": "ETHERNET",
        "tipo-de-Produto": "OUTROS",
        "meio-de-acesso": "Cabo Metálico"
    },
    {
        "cidade": "Nilópolis",
        "uf": "RJ",
        "latitude": -22.805658,
        "longitude": -43.423344,
        "empresa": "VIVO",
        "pf-ou-pj": "Pessoa Jurídica",
        "tecnologia": "ADSL2",
        "tipo-de-Produto": "INTERNET",
        "meio-de-acesso": "Cabo Metálico"
    },
    {
        "cidade": "Nilópolis",
        "uf": "RJ",
        "latitude": -22.805658,
        "longitude": -43.423344,
        "empresa": "VIVO",
        "pf-ou-pj": "Pessoa Jurídica",
        "tecnologia": "ETHERNET",
        "tipo-de-Produto": "INTERNET",
        "meio-de-acesso": "Cabo Metálico"
    },
    {
        "cidade": "Nilópolis",
        "uf": "RJ",
        "latitude": -22.805658,
        "longitude": -43.423344,
        "empresa": "VIVO",
        "pf-ou-pj": "Pessoa Jurídica",
        "tecnologia": "ETHERNET",
        "tipo-de-Produto": "OUTROS",
        "meio-de-acesso": "Cabo Metálico"
    },
    {
        "cidade": "Nilópolis",
        "uf": "RJ",
        "latitude": -22.805658,
        "longitude": -43.423344,
        "empresa": "VIVO",
        "pf-ou-pj": "Pessoa Jurídica",
        "tecnologia": "HDSL",
        "tipo-de-Produto": "INTERNET",
        "meio-de-acesso": "Cabo Metálico"
    },
    {
        "cidade": "Niterói",
        "uf": "RJ",
        "latitude": -22.88321,
        "longitude": -43.103367,
        "empresa": "VIVO",
        "pf-ou-pj": "Pessoa Jurídica",
        "tecnologia": "ADSL2",
        "tipo-de-Produto": "INTERNET",
        "meio-de-acesso": "Cabo Metálico"
    },
    {
        "cidade": "Niterói",
        "uf": "RJ",
        "latitude": -22.88321,
        "longitude": -43.103367,
        "empresa": "VIVO",
        "pf-ou-pj": "Pessoa Jurídica",
        "tecnologia": "ETHERNET",
        "tipo-de-Produto": "INTERNET",
        "meio-de-acesso": "Cabo Metálico"
    },
    {
        "cidade": "Niterói",
        "uf": "RJ",
        "latitude": -22.88321,
        "longitude": -43.103367,
        "empresa": "VIVO",
        "pf-ou-pj": "Pessoa Jurídica",
        "tecnologia": "ETHERNET",
        "tipo-de-Produto": "LINHA_DEDICADA",
        "meio-de-acesso": "Cabo Metálico"
    },
    {
        "cidade": "Niterói",
        "uf": "RJ",
        "latitude": -22.88321,
        "longitude": -43.103367,
        "empresa": "VIVO",
        "pf-ou-pj": "Pessoa Jurídica",
        "tecnologia": "ETHERNET",
        "tipo-de-Produto": "OUTROS",
        "meio-de-acesso": "Cabo Metálico"
    },
    {
        "cidade": "Niterói",
        "uf": "RJ",
        "latitude": -22.88321,
        "longitude": -43.103367,
        "empresa": "VIVO",
        "pf-ou-pj": "Pessoa Jurídica",
        "tecnologia": "FTTH",
        "tipo-de-Produto": "INTERNET",
        "meio-de-acesso": "Fibra"
    },
    {
        "cidade": "Niterói",
        "uf": "RJ",
        "latitude": -22.88321,
        "longitude": -43.103367,
        "empresa": "VIVO",
        "pf-ou-pj": "Pessoa Jurídica",
        "tecnologia": "HDSL",
        "tipo-de-Produto": "INTERNET",
        "meio-de-acesso": "Cabo Metálico"
    },
    {
        "cidade": "Niterói",
        "uf": "RJ",
        "latitude": -22.88321,
        "longitude": -43.103367,
        "empresa": "VIVO",
        "pf-ou-pj": "Pessoa Jurídica",
        "tecnologia": "HDSL",
        "tipo-de-Produto": "LINHA_DEDICADA",
        "meio-de-acesso": "Cabo Metálico"
    },
    {
        "cidade": "Nova Friburgo",
        "uf": "RJ",
        "latitude": -22.293224,
        "longitude": -42.537692,
        "empresa": "VIVO",
        "pf-ou-pj": "Pessoa Jurídica",
        "tecnologia": "ETHERNET",
        "tipo-de-Produto": "OUTROS",
        "meio-de-acesso": "Cabo Metálico"
    },
    {
        "cidade": "Nova Friburgo",
        "uf": "RJ",
        "latitude": -22.293224,
        "longitude": -42.537692,
        "empresa": "VIVO",
        "pf-ou-pj": "Pessoa Jurídica",
        "tecnologia": "HDSL",
        "tipo-de-Produto": "INTERNET",
        "meio-de-acesso": "Cabo Metálico"
    },
    {
        "cidade": "Nova Iguaçu",
        "uf": "RJ",
        "latitude": -22.755635,
        "longitude": -43.460325,
        "empresa": "VIVO",
        "pf-ou-pj": "Pessoa Jurídica",
        "tecnologia": "ADSL2",
        "tipo-de-Produto": "INTERNET",
        "meio-de-acesso": "Cabo Metálico"
    },
    {
        "cidade": "Nova Iguaçu",
        "uf": "RJ",
        "latitude": -22.755635,
        "longitude": -43.460325,
        "empresa": "VIVO",
        "pf-ou-pj": "Pessoa Jurídica",
        "tecnologia": "ETHERNET",
        "tipo-de-Produto": "INTERNET",
        "meio-de-acesso": "Cabo Metálico"
    },
    {
        "cidade": "Nova Iguaçu",
        "uf": "RJ",
        "latitude": -22.755635,
        "longitude": -43.460325,
        "empresa": "VIVO",
        "pf-ou-pj": "Pessoa Jurídica",
        "tecnologia": "ETHERNET",
        "tipo-de-Produto": "OUTROS",
        "meio-de-acesso": "Cabo Metálico"
    },
    {
        "cidade": "Nova Iguaçu",
        "uf": "RJ",
        "latitude": -22.755635,
        "longitude": -43.460325,
        "empresa": "VIVO",
        "pf-ou-pj": "Pessoa Jurídica",
        "tecnologia": "FTTH",
        "tipo-de-Produto": "INTERNET",
        "meio-de-acesso": "Fibra"
    },
    {
        "cidade": "Nova Iguaçu",
        "uf": "RJ",
        "latitude": -22.755635,
        "longitude": -43.460325,
        "empresa": "VIVO",
        "pf-ou-pj": "Pessoa Jurídica",
        "tecnologia": "HDSL",
        "tipo-de-Produto": "INTERNET",
        "meio-de-acesso": "Cabo Metálico"
    },
    {
        "cidade": "Nova Iguaçu",
        "uf": "RJ",
        "latitude": -22.755635,
        "longitude": -43.460325,
        "empresa": "VIVO",
        "pf-ou-pj": "Pessoa Jurídica",
        "tecnologia": "HDSL",
        "tipo-de-Produto": "LINHA_DEDICADA",
        "meio-de-acesso": "Cabo Metálico"
    },
    {
        "cidade": "Paraty",
        "uf": "RJ",
        "latitude": null,
        "longitude": null,
        "empresa": "VIVO",
        "pf-ou-pj": "Pessoa Jurídica",
        "tecnologia": "ETHERNET",
        "tipo-de-Produto": "OUTROS",
        "meio-de-acesso": "Cabo Metálico"
    },
    {
        "cidade": "Paraty",
        "uf": "RJ",
        "latitude": null,
        "longitude": null,
        "empresa": "VIVO",
        "pf-ou-pj": "Pessoa Jurídica",
        "tecnologia": "FTTH",
        "tipo-de-Produto": "INTERNET",
        "meio-de-acesso": "Fibra"
    },
    {
        "cidade": "Paraty",
        "uf": "RJ",
        "latitude": null,
        "longitude": null,
        "empresa": "VIVO",
        "pf-ou-pj": "Pessoa Jurídica",
        "tecnologia": "HDSL",
        "tipo-de-Produto": "INTERNET",
        "meio-de-acesso": "Cabo Metálico"
    },
    {
        "cidade": "Petrópolis",
        "uf": "RJ",
        "latitude": -22.519963,
        "longitude": -43.192613,
        "empresa": "VIVO",
        "pf-ou-pj": "Pessoa Jurídica",
        "tecnologia": "ETHERNET",
        "tipo-de-Produto": "OUTROS",
        "meio-de-acesso": "Cabo Metálico"
    },
    {
        "cidade": "Petrópolis",
        "uf": "RJ",
        "latitude": -22.519963,
        "longitude": -43.192613,
        "empresa": "VIVO",
        "pf-ou-pj": "Pessoa Jurídica",
        "tecnologia": "FTTH",
        "tipo-de-Produto": "INTERNET",
        "meio-de-acesso": "Fibra"
    },
    {
        "cidade": "Petrópolis",
        "uf": "RJ",
        "latitude": -22.519963,
        "longitude": -43.192613,
        "empresa": "VIVO",
        "pf-ou-pj": "Pessoa Jurídica",
        "tecnologia": "HDSL",
        "tipo-de-Produto": "INTERNET",
        "meio-de-acesso": "Cabo Metálico"
    },
    {
        "cidade": "Porto Real",
        "uf": "RJ",
        "latitude": -22.417472,
        "longitude": -44.295167,
        "empresa": "VIVO",
        "pf-ou-pj": "Pessoa Jurídica",
        "tecnologia": "ETHERNET",
        "tipo-de-Produto": "OUTROS",
        "meio-de-acesso": "Cabo Metálico"
    },
    {
        "cidade": "Porto Real",
        "uf": "RJ",
        "latitude": -22.417472,
        "longitude": -44.295167,
        "empresa": "VIVO",
        "pf-ou-pj": "Pessoa Jurídica",
        "tecnologia": "HDSL",
        "tipo-de-Produto": "INTERNET",
        "meio-de-acesso": "Cabo Metálico"
    },
    {
        "cidade": "Queimados",
        "uf": "RJ",
        "latitude": -22.710172,
        "longitude": -43.551808,
        "empresa": "VIVO",
        "pf-ou-pj": "Pessoa Jurídica",
        "tecnologia": "ETHERNET",
        "tipo-de-Produto": "OUTROS",
        "meio-de-acesso": "Cabo Metálico"
    },
    {
        "cidade": "Queimados",
        "uf": "RJ",
        "latitude": -22.710172,
        "longitude": -43.551808,
        "empresa": "VIVO",
        "pf-ou-pj": "Pessoa Jurídica",
        "tecnologia": "HDSL",
        "tipo-de-Produto": "INTERNET",
        "meio-de-acesso": "Cabo Metálico"
    },
    {
        "cidade": "Resende",
        "uf": "RJ",
        "latitude": -22.470473,
        "longitude": -44.45091,
        "empresa": "VIVO",
        "pf-ou-pj": "Pessoa Jurídica",
        "tecnologia": "ETHERNET",
        "tipo-de-Produto": "OUTROS",
        "meio-de-acesso": "Cabo Metálico"
    },
    {
        "cidade": "Resende",
        "uf": "RJ",
        "latitude": -22.470473,
        "longitude": -44.45091,
        "empresa": "VIVO",
        "pf-ou-pj": "Pessoa Jurídica",
        "tecnologia": "FTTH",
        "tipo-de-Produto": "INTERNET",
        "meio-de-acesso": "Fibra"
    },
    {
        "cidade": "Resende",
        "uf": "RJ",
        "latitude": -22.470473,
        "longitude": -44.45091,
        "empresa": "VIVO",
        "pf-ou-pj": "Pessoa Jurídica",
        "tecnologia": "HDSL",
        "tipo-de-Produto": "INTERNET",
        "meio-de-acesso": "Cabo Metálico"
    },
    {
        "cidade": "Rio Bonito",
        "uf": "RJ",
        "latitude": -22.71811,
        "longitude": -42.627574,
        "empresa": "VIVO",
        "pf-ou-pj": "Pessoa Jurídica",
        "tecnologia": "ETHERNET",
        "tipo-de-Produto": "OUTROS",
        "meio-de-acesso": "Cabo Metálico"
    },
    {
        "cidade": "Rio das Ostras",
        "uf": "RJ",
        "latitude": -22.517378,
        "longitude": -41.947509,
        "empresa": "VIVO",
        "pf-ou-pj": "Pessoa Jurídica",
        "tecnologia": "ETHERNET",
        "tipo-de-Produto": "OUTROS",
        "meio-de-acesso": "Cabo Metálico"
    },
    {
        "cidade": "Rio das Ostras",
        "uf": "RJ",
        "latitude": -22.517378,
        "longitude": -41.947509,
        "empresa": "VIVO",
        "pf-ou-pj": "Pessoa Jurídica",
        "tecnologia": "FTTH",
        "tipo-de-Produto": "INTERNET",
        "meio-de-acesso": "Fibra"
    },
    {
        "cidade": "Rio das Ostras",
        "uf": "RJ",
        "latitude": -22.517378,
        "longitude": -41.947509,
        "empresa": "VIVO",
        "pf-ou-pj": "Pessoa Jurídica",
        "tecnologia": "HDSL",
        "tipo-de-Produto": "INTERNET",
        "meio-de-acesso": "Cabo Metálico"
    },
    {
        "cidade": "Rio de Janeiro",
        "uf": "RJ",
        "latitude": -22.912897,
        "longitude": -43.200295,
        "empresa": "VIVO",
        "pf-ou-pj": "Pessoa Jurídica",
        "tecnologia": "ADSL2",
        "tipo-de-Produto": "INTERNET",
        "meio-de-acesso": "Cabo Metálico"
    },
    {
        "cidade": "Rio de Janeiro",
        "uf": "RJ",
        "latitude": -22.912897,
        "longitude": -43.200295,
        "empresa": "VIVO",
        "pf-ou-pj": "Pessoa Jurídica",
        "tecnologia": "ETHERNET",
        "tipo-de-Produto": "INTERNET",
        "meio-de-acesso": "Cabo Metálico"
    },
    {
        "cidade": "Rio de Janeiro",
        "uf": "RJ",
        "latitude": -22.912897,
        "longitude": -43.200295,
        "empresa": "VIVO",
        "pf-ou-pj": "Pessoa Jurídica",
        "tecnologia": "ETHERNET",
        "tipo-de-Produto": "LINHA_DEDICADA",
        "meio-de-acesso": "Cabo Metálico"
    },
    {
        "cidade": "Rio de Janeiro",
        "uf": "RJ",
        "latitude": -22.912897,
        "longitude": -43.200295,
        "empresa": "VIVO",
        "pf-ou-pj": "Pessoa Jurídica",
        "tecnologia": "ETHERNET",
        "tipo-de-Produto": "LINHA_DEDICADA",
        "meio-de-acesso": "Fibra"
    },
    {
        "cidade": "Rio de Janeiro",
        "uf": "RJ",
        "latitude": -22.912897,
        "longitude": -43.200295,
        "empresa": "VIVO",
        "pf-ou-pj": "Pessoa Jurídica",
        "tecnologia": "ETHERNET",
        "tipo-de-Produto": "OUTROS",
        "meio-de-acesso": "Cabo Metálico"
    },
    {
        "cidade": "Rio de Janeiro",
        "uf": "RJ",
        "latitude": -22.912897,
        "longitude": -43.200295,
        "empresa": "VIVO",
        "pf-ou-pj": "Pessoa Jurídica",
        "tecnologia": "FTTH",
        "tipo-de-Produto": "INTERNET",
        "meio-de-acesso": "Fibra"
    },
    {
        "cidade": "Rio de Janeiro",
        "uf": "RJ",
        "latitude": -22.912897,
        "longitude": -43.200295,
        "empresa": "VIVO",
        "pf-ou-pj": "Pessoa Jurídica",
        "tecnologia": "HDSL",
        "tipo-de-Produto": "INTERNET",
        "meio-de-acesso": "Cabo Metálico"
    },
    {
        "cidade": "Rio de Janeiro",
        "uf": "RJ",
        "latitude": -22.912897,
        "longitude": -43.200295,
        "empresa": "VIVO",
        "pf-ou-pj": "Pessoa Jurídica",
        "tecnologia": "HDSL",
        "tipo-de-Produto": "LINHA_DEDICADA",
        "meio-de-acesso": "Cabo Metálico"
    },
    {
        "cidade": "Rio de Janeiro",
        "uf": "RJ",
        "latitude": -22.912897,
        "longitude": -43.200295,
        "empresa": "VIVO",
        "pf-ou-pj": "Pessoa Jurídica",
        "tecnologia": "PDH",
        "tipo-de-Produto": "LINHA_DEDICADA",
        "meio-de-acesso": "Cabo Coaxial"
    },
    {
        "cidade": "Rio de Janeiro",
        "uf": "RJ",
        "latitude": -22.912897,
        "longitude": -43.200295,
        "empresa": "VIVO",
        "pf-ou-pj": "Pessoa Jurídica",
        "tecnologia": "SDH",
        "tipo-de-Produto": "LINHA_DEDICADA",
        "meio-de-acesso": "Fibra"
    },
    {
        "cidade": "Saquarema",
        "uf": "RJ",
        "latitude": -22.929181,
        "longitude": -42.509936,
        "empresa": "VIVO",
        "pf-ou-pj": "Pessoa Jurídica",
        "tecnologia": "ETHERNET",
        "tipo-de-Produto": "OUTROS",
        "meio-de-acesso": "Cabo Metálico"
    },
    {
        "cidade": "Saquarema",
        "uf": "RJ",
        "latitude": -22.929181,
        "longitude": -42.509936,
        "empresa": "VIVO",
        "pf-ou-pj": "Pessoa Jurídica",
        "tecnologia": "HDSL",
        "tipo-de-Produto": "INTERNET",
        "meio-de-acesso": "Cabo Metálico"
    },
    {
        "cidade": "Seropédica",
        "uf": "RJ",
        "latitude": -22.752584,
        "longitude": -43.715482,
        "empresa": "VIVO",
        "pf-ou-pj": "Pessoa Jurídica",
        "tecnologia": "ETHERNET",
        "tipo-de-Produto": "OUTROS",
        "meio-de-acesso": "Cabo Metálico"
    },
    {
        "cidade": "Seropédica",
        "uf": "RJ",
        "latitude": -22.752584,
        "longitude": -43.715482,
        "empresa": "VIVO",
        "pf-ou-pj": "Pessoa Jurídica",
        "tecnologia": "HDSL",
        "tipo-de-Produto": "INTERNET",
        "meio-de-acesso": "Cabo Metálico"
    },
    {
        "cidade": "São Gonçalo",
        "uf": "RJ",
        "latitude": -22.82679,
        "longitude": -43.063351,
        "empresa": "VIVO",
        "pf-ou-pj": "Pessoa Jurídica",
        "tecnologia": "ADSL2",
        "tipo-de-Produto": "INTERNET",
        "meio-de-acesso": "Cabo Metálico"
    },
    {
        "cidade": "São Gonçalo",
        "uf": "RJ",
        "latitude": -22.82679,
        "longitude": -43.063351,
        "empresa": "VIVO",
        "pf-ou-pj": "Pessoa Jurídica",
        "tecnologia": "ETHERNET",
        "tipo-de-Produto": "INTERNET",
        "meio-de-acesso": "Cabo Metálico"
    },
    {
        "cidade": "São Gonçalo",
        "uf": "RJ",
        "latitude": -22.82679,
        "longitude": -43.063351,
        "empresa": "VIVO",
        "pf-ou-pj": "Pessoa Jurídica",
        "tecnologia": "ETHERNET",
        "tipo-de-Produto": "LINHA_DEDICADA",
        "meio-de-acesso": "Cabo Metálico"
    },
    {
        "cidade": "São Gonçalo",
        "uf": "RJ",
        "latitude": -22.82679,
        "longitude": -43.063351,
        "empresa": "VIVO",
        "pf-ou-pj": "Pessoa Jurídica",
        "tecnologia": "ETHERNET",
        "tipo-de-Produto": "OUTROS",
        "meio-de-acesso": "Cabo Metálico"
    },
    {
        "cidade": "São Gonçalo",
        "uf": "RJ",
        "latitude": -22.82679,
        "longitude": -43.063351,
        "empresa": "VIVO",
        "pf-ou-pj": "Pessoa Jurídica",
        "tecnologia": "HDSL",
        "tipo-de-Produto": "INTERNET",
        "meio-de-acesso": "Cabo Metálico"
    },
    {
        "cidade": "São João da Barra",
        "uf": "RJ",
        "latitude": -21.638009,
        "longitude": -41.044582,
        "empresa": "VIVO",
        "pf-ou-pj": "Pessoa Jurídica",
        "tecnologia": "HDSL",
        "tipo-de-Produto": "INTERNET",
        "meio-de-acesso": "Cabo Metálico"
    },
    {
        "cidade": "São João de Meriti",
        "uf": "RJ",
        "latitude": -22.805776,
        "longitude": -43.37292,
        "empresa": "VIVO",
        "pf-ou-pj": "Pessoa Jurídica",
        "tecnologia": "ETHERNET",
        "tipo-de-Produto": "OUTROS",
        "meio-de-acesso": "Cabo Metálico"
    },
    {
        "cidade": "São João de Meriti",
        "uf": "RJ",
        "latitude": -22.805776,
        "longitude": -43.37292,
        "empresa": "VIVO",
        "pf-ou-pj": "Pessoa Jurídica",
        "tecnologia": "HDSL",
        "tipo-de-Produto": "INTERNET",
        "meio-de-acesso": "Cabo Metálico"
    },
    {
        "cidade": "São Pedro da Aldeia",
        "uf": "RJ",
        "latitude": -22.842859,
        "longitude": -42.102596,
        "empresa": "VIVO",
        "pf-ou-pj": "Pessoa Jurídica",
        "tecnologia": "ETHERNET",
        "tipo-de-Produto": "OUTROS",
        "meio-de-acesso": "Cabo Metálico"
    },
    {
        "cidade": "São Pedro da Aldeia",
        "uf": "RJ",
        "latitude": -22.842859,
        "longitude": -42.102596,
        "empresa": "VIVO",
        "pf-ou-pj": "Pessoa Jurídica",
        "tecnologia": "FTTH",
        "tipo-de-Produto": "INTERNET",
        "meio-de-acesso": "Fibra"
    },
    {
        "cidade": "São Pedro da Aldeia",
        "uf": "RJ",
        "latitude": -22.842859,
        "longitude": -42.102596,
        "empresa": "VIVO",
        "pf-ou-pj": "Pessoa Jurídica",
        "tecnologia": "HDSL",
        "tipo-de-Produto": "INTERNET",
        "meio-de-acesso": "Cabo Metálico"
    },
    {
        "cidade": "Teresópolis",
        "uf": "RJ",
        "latitude": -22.416464,
        "longitude": -42.97519,
        "empresa": "VIVO",
        "pf-ou-pj": "Pessoa Jurídica",
        "tecnologia": "ETHERNET",
        "tipo-de-Produto": "LINHA_DEDICADA",
        "meio-de-acesso": "Cabo Metálico"
    },
    {
        "cidade": "Teresópolis",
        "uf": "RJ",
        "latitude": -22.416464,
        "longitude": -42.97519,
        "empresa": "VIVO",
        "pf-ou-pj": "Pessoa Jurídica",
        "tecnologia": "ETHERNET",
        "tipo-de-Produto": "OUTROS",
        "meio-de-acesso": "Cabo Metálico"
    },
    {
        "cidade": "Teresópolis",
        "uf": "RJ",
        "latitude": -22.416464,
        "longitude": -42.97519,
        "empresa": "VIVO",
        "pf-ou-pj": "Pessoa Jurídica",
        "tecnologia": "FTTH",
        "tipo-de-Produto": "INTERNET",
        "meio-de-acesso": "Fibra"
    },
    {
        "cidade": "Teresópolis",
        "uf": "RJ",
        "latitude": -22.416464,
        "longitude": -42.97519,
        "empresa": "VIVO",
        "pf-ou-pj": "Pessoa Jurídica",
        "tecnologia": "HDSL",
        "tipo-de-Produto": "INTERNET",
        "meio-de-acesso": "Cabo Metálico"
    },
    {
        "cidade": "Três Rios",
        "uf": "RJ",
        "latitude": -22.11651,
        "longitude": -43.218533,
        "empresa": "VIVO",
        "pf-ou-pj": "Pessoa Jurídica",
        "tecnologia": "ETHERNET",
        "tipo-de-Produto": "OUTROS",
        "meio-de-acesso": "Cabo Metálico"
    },
    {
        "cidade": "Três Rios",
        "uf": "RJ",
        "latitude": -22.11651,
        "longitude": -43.218533,
        "empresa": "VIVO",
        "pf-ou-pj": "Pessoa Jurídica",
        "tecnologia": "FTTH",
        "tipo-de-Produto": "INTERNET",
        "meio-de-acesso": "Fibra"
    },
    {
        "cidade": "Três Rios",
        "uf": "RJ",
        "latitude": -22.11651,
        "longitude": -43.218533,
        "empresa": "VIVO",
        "pf-ou-pj": "Pessoa Jurídica",
        "tecnologia": "HDSL",
        "tipo-de-Produto": "INTERNET",
        "meio-de-acesso": "Cabo Metálico"
    },
    {
        "cidade": "Valença",
        "uf": "RJ",
        "latitude": -22.244496,
        "longitude": -43.71288,
        "empresa": "VIVO",
        "pf-ou-pj": "Pessoa Jurídica",
        "tecnologia": "ETHERNET",
        "tipo-de-Produto": "OUTROS",
        "meio-de-acesso": "Cabo Metálico"
    },
    {
        "cidade": "Valença",
        "uf": "RJ",
        "latitude": -22.244496,
        "longitude": -43.71288,
        "empresa": "VIVO",
        "pf-ou-pj": "Pessoa Jurídica",
        "tecnologia": "FTTH",
        "tipo-de-Produto": "INTERNET",
        "meio-de-acesso": "Fibra"
    },
    {
        "cidade": "Volta Redonda",
        "uf": "RJ",
        "latitude": -22.520212,
        "longitude": -44.099555,
        "empresa": "VIVO",
        "pf-ou-pj": "Pessoa Jurídica",
        "tecnologia": "ETHERNET",
        "tipo-de-Produto": "INTERNET",
        "meio-de-acesso": "Cabo Metálico"
    },
    {
        "cidade": "Volta Redonda",
        "uf": "RJ",
        "latitude": -22.520212,
        "longitude": -44.099555,
        "empresa": "VIVO",
        "pf-ou-pj": "Pessoa Jurídica",
        "tecnologia": "ETHERNET",
        "tipo-de-Produto": "OUTROS",
        "meio-de-acesso": "Cabo Metálico"
    },
    {
        "cidade": "Volta Redonda",
        "uf": "RJ",
        "latitude": -22.520212,
        "longitude": -44.099555,
        "empresa": "VIVO",
        "pf-ou-pj": "Pessoa Jurídica",
        "tecnologia": "FTTH",
        "tipo-de-Produto": "INTERNET",
        "meio-de-acesso": "Fibra"
    },
    {
        "cidade": "Volta Redonda",
        "uf": "RJ",
        "latitude": -22.520212,
        "longitude": -44.099555,
        "empresa": "VIVO",
        "pf-ou-pj": "Pessoa Jurídica",
        "tecnologia": "HDSL",
        "tipo-de-Produto": "INTERNET",
        "meio-de-acesso": "Cabo Metálico"
    },
    {
        "cidade": "Volta Redonda",
        "uf": "RJ",
        "latitude": -22.520212,
        "longitude": -44.099555,
        "empresa": "VIVO",
        "pf-ou-pj": "Pessoa Jurídica",
        "tecnologia": "HDSL",
        "tipo-de-Produto": "LINHA_DEDICADA",
        "meio-de-acesso": "Cabo Metálico"
    }
]