[
    {
        "cidade": "Altamira",
        "uf": "PA",
        "latitude": -3.204065,
        "longitude": -52.209961,
        "empresa": "VIVO",
        "pf-ou-pj": "Pessoa Física",
        "tecnologia": "FTTH",
        "tipo-de-Produto": "INTERNET",
        "meio-de-acesso": "Fibra"
    },
    {
        "cidade": "Belém",
        "uf": "PA",
        "latitude": -1.455396,
        "longitude": -48.489756,
        "empresa": "VIVO",
        "pf-ou-pj": "Pessoa Física",
        "tecnologia": "ADSL2",
        "tipo-de-Produto": "INTERNET",
        "meio-de-acesso": "Cabo Metálico"
    },
    {
        "cidade": "Belém",
        "uf": "PA",
        "latitude": -1.455396,
        "longitude": -48.489756,
        "empresa": "VIVO",
        "pf-ou-pj": "Pessoa Física",
        "tecnologia": "FTTH",
        "tipo-de-Produto": "INTERNET",
        "meio-de-acesso": "Fibra"
    },
    {
        "cidade": "Canaã dos Carajás",
        "uf": "PA",
        "latitude": -6.496594,
        "longitude": -49.877612,
        "empresa": "VIVO",
        "pf-ou-pj": "Pessoa Física",
        "tecnologia": "FTTH",
        "tipo-de-Produto": "INTERNET",
        "meio-de-acesso": "Fibra"
    },
    {
        "cidade": "Castanhal",
        "uf": "PA",
        "latitude": -1.297971,
        "longitude": -47.916742,
        "empresa": "VIVO",
        "pf-ou-pj": "Pessoa Física",
        "tecnologia": "FTTH",
        "tipo-de-Produto": "INTERNET",
        "meio-de-acesso": "Fibra"
    },
    {
        "cidade": "Paragominas",
        "uf": "PA",
        "latitude": -3.002116,
        "longitude": -47.352692,
        "empresa": "VIVO",
        "pf-ou-pj": "Pessoa Física",
        "tecnologia": "FTTH",
        "tipo-de-Produto": "INTERNET",
        "meio-de-acesso": "Fibra"
    },
    {
        "cidade": "Parauapebas",
        "uf": "PA",
        "latitude": -6.067812,
        "longitude": -49.903733,
        "empresa": "VIVO",
        "pf-ou-pj": "Pessoa Física",
        "tecnologia": "FTTH",
        "tipo-de-Produto": "INTERNET",
        "meio-de-acesso": "Fibra"
    },
    {
        "cidade": "Redenção",
        "uf": "PA",
        "latitude": -8.025294,
        "longitude": -50.031687,
        "empresa": "VIVO",
        "pf-ou-pj": "Pessoa Física",
        "tecnologia": "FTTH",
        "tipo-de-Produto": "INTERNET",
        "meio-de-acesso": "Fibra"
    },
    {
        "cidade": "Tucuruí",
        "uf": "PA",
        "latitude": -3.765702,
        "longitude": -49.677336,
        "empresa": "VIVO",
        "pf-ou-pj": "Pessoa Física",
        "tecnologia": "FTTH",
        "tipo-de-Produto": "INTERNET",
        "meio-de-acesso": "Fibra"
    }
]