[
    {
        "cidade": "Açailândia",
        "uf": "MA",
        "latitude": -4.947137,
        "longitude": -47.500383,
        "empresa": "VIVO",
        "pf-ou-pj": "Pessoa Jurídica",
        "tecnologia": "FTTH",
        "tipo-de-Produto": "INTERNET",
        "meio-de-acesso": "Fibra"
    },
    {
        "cidade": "Açailândia",
        "uf": "MA",
        "latitude": -4.947137,
        "longitude": -47.500383,
        "empresa": "VIVO",
        "pf-ou-pj": "Pessoa Jurídica",
        "tecnologia": "HDSL",
        "tipo-de-Produto": "INTERNET",
        "meio-de-acesso": "Cabo Metálico"
    },
    {
        "cidade": "Balsas",
        "uf": "MA",
        "latitude": -7.53214,
        "longitude": -46.037163,
        "empresa": "VIVO",
        "pf-ou-pj": "Pessoa Jurídica",
        "tecnologia": "FTTH",
        "tipo-de-Produto": "INTERNET",
        "meio-de-acesso": "Fibra"
    },
    {
        "cidade": "Barra do Corda",
        "uf": "MA",
        "latitude": -5.496823,
        "longitude": -45.248496,
        "empresa": "VIVO",
        "pf-ou-pj": "Pessoa Jurídica",
        "tecnologia": "HDSL",
        "tipo-de-Produto": "INTERNET",
        "meio-de-acesso": "Cabo Metálico"
    },
    {
        "cidade": "Barreirinhas",
        "uf": "MA",
        "latitude": -2.75863,
        "longitude": -42.823241,
        "empresa": "VIVO",
        "pf-ou-pj": "Pessoa Jurídica",
        "tecnologia": "HDSL",
        "tipo-de-Produto": "INTERNET",
        "meio-de-acesso": "Cabo Metálico"
    },
    {
        "cidade": "Carolina",
        "uf": "MA",
        "latitude": -7.335839,
        "longitude": -47.463422,
        "empresa": "VIVO",
        "pf-ou-pj": "Pessoa Jurídica",
        "tecnologia": "HDSL",
        "tipo-de-Produto": "INTERNET",
        "meio-de-acesso": "Cabo Metálico"
    },
    {
        "cidade": "Caxias",
        "uf": "MA",
        "latitude": -4.865053,
        "longitude": -43.361749,
        "empresa": "VIVO",
        "pf-ou-pj": "Pessoa Jurídica",
        "tecnologia": "ETHERNET",
        "tipo-de-Produto": "OUTROS",
        "meio-de-acesso": "Cabo Metálico"
    },
    {
        "cidade": "Caxias",
        "uf": "MA",
        "latitude": -4.865053,
        "longitude": -43.361749,
        "empresa": "VIVO",
        "pf-ou-pj": "Pessoa Jurídica",
        "tecnologia": "HDSL",
        "tipo-de-Produto": "INTERNET",
        "meio-de-acesso": "Cabo Metálico"
    },
    {
        "cidade": "Caxias",
        "uf": "MA",
        "latitude": -4.865053,
        "longitude": -43.361749,
        "empresa": "VIVO",
        "pf-ou-pj": "Pessoa Jurídica",
        "tecnologia": "HDSL",
        "tipo-de-Produto": "LINHA_DEDICADA",
        "meio-de-acesso": "Cabo Metálico"
    },
    {
        "cidade": "Codó",
        "uf": "MA",
        "latitude": -4.455623,
        "longitude": -43.892354,
        "empresa": "VIVO",
        "pf-ou-pj": "Pessoa Jurídica",
        "tecnologia": "HDSL",
        "tipo-de-Produto": "INTERNET",
        "meio-de-acesso": "Cabo Metálico"
    },
    {
        "cidade": "Coelho Neto",
        "uf": "MA",
        "latitude": -4.252454,
        "longitude": -43.01078,
        "empresa": "VIVO",
        "pf-ou-pj": "Pessoa Jurídica",
        "tecnologia": "HDSL",
        "tipo-de-Produto": "LINHA_DEDICADA",
        "meio-de-acesso": "Cabo Metálico"
    },
    {
        "cidade": "Imperatriz",
        "uf": "MA",
        "latitude": -5.518471,
        "longitude": -47.477726,
        "empresa": "VIVO",
        "pf-ou-pj": "Pessoa Jurídica",
        "tecnologia": "ETHERNET",
        "tipo-de-Produto": "OUTROS",
        "meio-de-acesso": "Cabo Metálico"
    },
    {
        "cidade": "Imperatriz",
        "uf": "MA",
        "latitude": -5.518471,
        "longitude": -47.477726,
        "empresa": "VIVO",
        "pf-ou-pj": "Pessoa Jurídica",
        "tecnologia": "FTTH",
        "tipo-de-Produto": "INTERNET",
        "meio-de-acesso": "Fibra"
    },
    {
        "cidade": "Imperatriz",
        "uf": "MA",
        "latitude": -5.518471,
        "longitude": -47.477726,
        "empresa": "VIVO",
        "pf-ou-pj": "Pessoa Jurídica",
        "tecnologia": "HDSL",
        "tipo-de-Produto": "INTERNET",
        "meio-de-acesso": "Cabo Metálico"
    },
    {
        "cidade": "Paço do Lumiar",
        "uf": "MA",
        "latitude": -2.516573,
        "longitude": -44.101886,
        "empresa": "VIVO",
        "pf-ou-pj": "Pessoa Jurídica",
        "tecnologia": "ETHERNET",
        "tipo-de-Produto": "OUTROS",
        "meio-de-acesso": "Cabo Metálico"
    },
    {
        "cidade": "Paço do Lumiar",
        "uf": "MA",
        "latitude": -2.516573,
        "longitude": -44.101886,
        "empresa": "VIVO",
        "pf-ou-pj": "Pessoa Jurídica",
        "tecnologia": "FTTH",
        "tipo-de-Produto": "INTERNET",
        "meio-de-acesso": "Fibra"
    },
    {
        "cidade": "Paço do Lumiar",
        "uf": "MA",
        "latitude": -2.516573,
        "longitude": -44.101886,
        "empresa": "VIVO",
        "pf-ou-pj": "Pessoa Jurídica",
        "tecnologia": "HDSL",
        "tipo-de-Produto": "INTERNET",
        "meio-de-acesso": "Cabo Metálico"
    },
    {
        "cidade": "Paço do Lumiar",
        "uf": "MA",
        "latitude": -2.516573,
        "longitude": -44.101886,
        "empresa": "VIVO",
        "pf-ou-pj": "Pessoa Jurídica",
        "tecnologia": "HDSL",
        "tipo-de-Produto": "LINHA_DEDICADA",
        "meio-de-acesso": "Cabo Metálico"
    },
    {
        "cidade": "Pedreiras",
        "uf": "MA",
        "latitude": -4.564817,
        "longitude": -44.600637,
        "empresa": "VIVO",
        "pf-ou-pj": "Pessoa Jurídica",
        "tecnologia": "HDSL",
        "tipo-de-Produto": "INTERNET",
        "meio-de-acesso": "Cabo Metálico"
    },
    {
        "cidade": "Porto Franco",
        "uf": "MA",
        "latitude": -6.34149,
        "longitude": -47.396188,
        "empresa": "VIVO",
        "pf-ou-pj": "Pessoa Jurídica",
        "tecnologia": "ETHERNET",
        "tipo-de-Produto": "OUTROS",
        "meio-de-acesso": "Cabo Metálico"
    },
    {
        "cidade": "Santa Inês",
        "uf": "MA",
        "latitude": -3.651118,
        "longitude": -45.37745,
        "empresa": "VIVO",
        "pf-ou-pj": "Pessoa Jurídica",
        "tecnologia": "HDSL",
        "tipo-de-Produto": "INTERNET",
        "meio-de-acesso": "Cabo Metálico"
    },
    {
        "cidade": "Santo Antônio dos Lopes",
        "uf": "MA",
        "latitude": -4.866134,
        "longitude": -44.365278,
        "empresa": "VIVO",
        "pf-ou-pj": "Pessoa Jurídica",
        "tecnologia": "HDSL",
        "tipo-de-Produto": "LINHA_DEDICADA",
        "meio-de-acesso": "Cabo Metálico"
    },
    {
        "cidade": "São Domingos do Maranhão",
        "uf": "MA",
        "latitude": -5.580953,
        "longitude": -44.382195,
        "empresa": "VIVO",
        "pf-ou-pj": "Pessoa Jurídica",
        "tecnologia": "HDSL",
        "tipo-de-Produto": "INTERNET",
        "meio-de-acesso": "Cabo Metálico"
    },
    {
        "cidade": "São José de Ribamar",
        "uf": "MA",
        "latitude": -2.54704,
        "longitude": -44.059745,
        "empresa": "VIVO",
        "pf-ou-pj": "Pessoa Jurídica",
        "tecnologia": "ETHERNET",
        "tipo-de-Produto": "OUTROS",
        "meio-de-acesso": "Cabo Metálico"
    },
    {
        "cidade": "São José de Ribamar",
        "uf": "MA",
        "latitude": -2.54704,
        "longitude": -44.059745,
        "empresa": "VIVO",
        "pf-ou-pj": "Pessoa Jurídica",
        "tecnologia": "FTTH",
        "tipo-de-Produto": "INTERNET",
        "meio-de-acesso": "Fibra"
    },
    {
        "cidade": "São José de Ribamar",
        "uf": "MA",
        "latitude": -2.54704,
        "longitude": -44.059745,
        "empresa": "VIVO",
        "pf-ou-pj": "Pessoa Jurídica",
        "tecnologia": "HDSL",
        "tipo-de-Produto": "INTERNET",
        "meio-de-acesso": "Cabo Metálico"
    },
    {
        "cidade": "São Luís",
        "uf": "MA",
        "latitude": -2.538742,
        "longitude": -44.282513,
        "empresa": "VIVO",
        "pf-ou-pj": "Pessoa Jurídica",
        "tecnologia": "ETHERNET",
        "tipo-de-Produto": "OUTROS",
        "meio-de-acesso": "Cabo Metálico"
    },
    {
        "cidade": "São Luís",
        "uf": "MA",
        "latitude": -2.538742,
        "longitude": -44.282513,
        "empresa": "VIVO",
        "pf-ou-pj": "Pessoa Jurídica",
        "tecnologia": "FTTH",
        "tipo-de-Produto": "INTERNET",
        "meio-de-acesso": "Fibra"
    },
    {
        "cidade": "São Luís",
        "uf": "MA",
        "latitude": -2.538742,
        "longitude": -44.282513,
        "empresa": "VIVO",
        "pf-ou-pj": "Pessoa Jurídica",
        "tecnologia": "HDSL",
        "tipo-de-Produto": "INTERNET",
        "meio-de-acesso": "Cabo Metálico"
    },
    {
        "cidade": "São Luís",
        "uf": "MA",
        "latitude": -2.538742,
        "longitude": -44.282513,
        "empresa": "VIVO",
        "pf-ou-pj": "Pessoa Jurídica",
        "tecnologia": "HDSL",
        "tipo-de-Produto": "LINHA_DEDICADA",
        "meio-de-acesso": "Cabo Metálico"
    },
    {
        "cidade": "São Mateus do Maranhão",
        "uf": "MA",
        "latitude": -4.037361,
        "longitude": -44.470691,
        "empresa": "VIVO",
        "pf-ou-pj": "Pessoa Jurídica",
        "tecnologia": "HDSL",
        "tipo-de-Produto": "INTERNET",
        "meio-de-acesso": "Cabo Metálico"
    },
    {
        "cidade": "Timon",
        "uf": "MA",
        "latitude": -5.097692,
        "longitude": -42.83292,
        "empresa": "VIVO",
        "pf-ou-pj": "Pessoa Jurídica",
        "tecnologia": "HDSL",
        "tipo-de-Produto": "INTERNET",
        "meio-de-acesso": "Cabo Metálico"
    }
]