[
    {
        "cidade": "Almeirim",
        "uf": "PA",
        "latitude": -1.520968,
        "longitude": -52.581573,
        "empresa": "ALGAR (CTBC TELECOM)",
        "cnpj": 71208516000174,
        "pf-ou-pj": "Pessoa Jurídica",
        "info-tecnologia": [
            {
                "tecnologia": "ETHERNET",
                "tipo-de-Produto": "LINHA_DEDICADA",
                "meio-de-acesso": "Fibra",
                "quantidade-acesso": 1
            }
        ]
    },
    {
        "cidade": "Ananindeua",
        "uf": "PA",
        "latitude": -1.363914,
        "longitude": -48.374298,
        "empresa": "ALGAR (CTBC TELECOM)",
        "cnpj": 71208516000174,
        "pf-ou-pj": "Pessoa Jurídica",
        "info-tecnologia": [
            {
                "tecnologia": "ETHERNET",
                "tipo-de-Produto": "LINHA_DEDICADA",
                "meio-de-acesso": "Fibra",
                "quantidade-acesso": 4
            }
        ]
    },
    {
        "cidade": "Barcarena",
        "uf": "PA",
        "latitude": -1.511872,
        "longitude": -48.619529,
        "empresa": "ALGAR (CTBC TELECOM)",
        "cnpj": 71208516000174,
        "pf-ou-pj": "Pessoa Jurídica",
        "info-tecnologia": [
            {
                "tecnologia": "ETHERNET",
                "tipo-de-Produto": "LINHA_DEDICADA",
                "meio-de-acesso": "Fibra",
                "quantidade-acesso": 1
            }
        ]
    },
    {
        "cidade": "Belém",
        "uf": "PA",
        "latitude": -1.455396,
        "longitude": -48.489756,
        "empresa": "ALGAR (CTBC TELECOM)",
        "cnpj": 71208516000174,
        "pf-ou-pj": "Pessoa Jurídica",
        "info-tecnologia": [
            {
                "tecnologia": "ETHERNET",
                "tipo-de-Produto": "LINHA_DEDICADA",
                "meio-de-acesso": "Fibra",
                "quantidade-acesso": 12
            }
        ]
    },
    {
        "cidade": "Benevides",
        "uf": "PA",
        "latitude": -1.361829,
        "longitude": -48.243408,
        "empresa": "ALGAR (CTBC TELECOM)",
        "cnpj": 71208516000174,
        "pf-ou-pj": "Pessoa Jurídica",
        "info-tecnologia": [
            {
                "tecnologia": "ETHERNET",
                "tipo-de-Produto": "LINHA_DEDICADA",
                "meio-de-acesso": "Fibra",
                "quantidade-acesso": 1
            }
        ]
    },
    {
        "cidade": "Marabá",
        "uf": "PA",
        "latitude": -5.38075,
        "longitude": -49.132672,
        "empresa": "ALGAR (CTBC TELECOM)",
        "cnpj": 71208516000174,
        "pf-ou-pj": "Pessoa Jurídica",
        "info-tecnologia": [
            {
                "tecnologia": "ETHERNET",
                "tipo-de-Produto": "LINHA_DEDICADA",
                "meio-de-acesso": "Fibra",
                "quantidade-acesso": 2
            }
        ]
    },
    {
        "cidade": "Marituba",
        "uf": "PA",
        "latitude": -1.36002,
        "longitude": -48.342064,
        "empresa": "ALGAR (CTBC TELECOM)",
        "cnpj": 71208516000174,
        "pf-ou-pj": "Pessoa Jurídica",
        "info-tecnologia": [
            {
                "tecnologia": "ETHERNET",
                "tipo-de-Produto": "LINHA_DEDICADA",
                "meio-de-acesso": "Fibra",
                "quantidade-acesso": 1
            }
        ]
    },
    {
        "cidade": "Parauapebas",
        "uf": "PA",
        "latitude": -6.067812,
        "longitude": -49.903733,
        "empresa": "ALGAR (CTBC TELECOM)",
        "cnpj": 71208516000174,
        "pf-ou-pj": "Pessoa Jurídica",
        "info-tecnologia": [
            {
                "tecnologia": "ETHERNET",
                "tipo-de-Produto": "LINHA_DEDICADA",
                "meio-de-acesso": "Fibra",
                "quantidade-acesso": 4
            }
        ]
    }
]