[
    {
        "cidade": "Sinop",
        "uf": "MT",
        "latitude": -11.86043,
        "longitude": -55.509062,
        "empresa": "ALGAR (CTBC TELECOM)",
        "cnpj": 5872814000130,
        "pf-ou-pj": "Pessoa Jurídica",
        "info-tecnologia": [
            {
                "tecnologia": "ETHERNET",
                "tipo-de-Produto": "LINHA_DEDICADA",
                "meio-de-acesso": "Fibra",
                "quantidade-acesso": 1
            }
        ]
    },
    {
        "cidade": "Alta Floresta",
        "uf": "MT",
        "latitude": -9.866745,
        "longitude": -56.086704,
        "empresa": "ALGAR (CTBC TELECOM)",
        "cnpj": 71208516000174,
        "pf-ou-pj": "Pessoa Jurídica",
        "info-tecnologia": [
            {
                "tecnologia": "ETHERNET",
                "tipo-de-Produto": "LINHA_DEDICADA",
                "meio-de-acesso": "Fibra",
                "quantidade-acesso": 1
            }
        ]
    },
    {
        "cidade": "Barra do Garças",
        "uf": "MT",
        "latitude": -15.880412,
        "longitude": -52.263953,
        "empresa": "ALGAR (CTBC TELECOM)",
        "cnpj": 71208516000174,
        "pf-ou-pj": "Pessoa Jurídica",
        "info-tecnologia": [
            {
                "tecnologia": "ETHERNET",
                "tipo-de-Produto": "LINHA_DEDICADA",
                "meio-de-acesso": "Fibra",
                "quantidade-acesso": 1
            }
        ]
    },
    {
        "cidade": "Confresa",
        "uf": "MT",
        "latitude": -10.643695,
        "longitude": -51.569873,
        "empresa": "ALGAR (CTBC TELECOM)",
        "cnpj": 71208516000174,
        "pf-ou-pj": "Pessoa Jurídica",
        "info-tecnologia": [
            {
                "tecnologia": "ETHERNET",
                "tipo-de-Produto": "LINHA_DEDICADA",
                "meio-de-acesso": "Fibra",
                "quantidade-acesso": 1
            }
        ]
    },
    {
        "cidade": "Cuiabá",
        "uf": "MT",
        "latitude": -15.600979,
        "longitude": -56.097397,
        "empresa": "ALGAR (CTBC TELECOM)",
        "cnpj": 71208516000174,
        "pf-ou-pj": "Pessoa Jurídica",
        "info-tecnologia": [
            {
                "tecnologia": "ETHERNET",
                "tipo-de-Produto": "LINHA_DEDICADA",
                "meio-de-acesso": "Fibra",
                "quantidade-acesso": 34
            }
        ]
    },
    {
        "cidade": "Nova Mutum",
        "uf": "MT",
        "latitude": -13.837389,
        "longitude": -56.074316,
        "empresa": "ALGAR (CTBC TELECOM)",
        "cnpj": 71208516000174,
        "pf-ou-pj": "Pessoa Jurídica",
        "info-tecnologia": [
            {
                "tecnologia": "ETHERNET",
                "tipo-de-Produto": "LINHA_DEDICADA",
                "meio-de-acesso": "Fibra",
                "quantidade-acesso": 1
            }
        ]
    },
    {
        "cidade": "Rondonópolis",
        "uf": "MT",
        "latitude": -16.467251,
        "longitude": -54.637173,
        "empresa": "ALGAR (CTBC TELECOM)",
        "cnpj": 71208516000174,
        "pf-ou-pj": "Pessoa Jurídica",
        "info-tecnologia": [
            {
                "tecnologia": "ETHERNET",
                "tipo-de-Produto": "LINHA_DEDICADA",
                "meio-de-acesso": "Fibra",
                "quantidade-acesso": 4
            }
        ]
    },
    {
        "cidade": "Sinop",
        "uf": "MT",
        "latitude": -11.86043,
        "longitude": -55.509062,
        "empresa": "ALGAR (CTBC TELECOM)",
        "cnpj": 71208516000174,
        "pf-ou-pj": "Pessoa Jurídica",
        "info-tecnologia": [
            {
                "tecnologia": "ETHERNET",
                "tipo-de-Produto": "LINHA_DEDICADA",
                "meio-de-acesso": "Fibra",
                "quantidade-acesso": 3
            }
        ]
    },
    {
        "cidade": "Sorriso",
        "uf": "MT",
        "latitude": -12.542527,
        "longitude": -55.721051,
        "empresa": "ALGAR (CTBC TELECOM)",
        "cnpj": 71208516000174,
        "pf-ou-pj": "Pessoa Jurídica",
        "info-tecnologia": [
            {
                "tecnologia": "ETHERNET",
                "tipo-de-Produto": "LINHA_DEDICADA",
                "meio-de-acesso": "Fibra",
                "quantidade-acesso": 3
            }
        ]
    },
    {
        "cidade": "São Félix do Araguaia",
        "uf": "MT",
        "latitude": -11.614968,
        "longitude": -50.670624,
        "empresa": "ALGAR (CTBC TELECOM)",
        "cnpj": 71208516000174,
        "pf-ou-pj": "Pessoa Jurídica",
        "info-tecnologia": [
            {
                "tecnologia": "ETHERNET",
                "tipo-de-Produto": "LINHA_DEDICADA",
                "meio-de-acesso": "Fibra",
                "quantidade-acesso": 1
            }
        ]
    },
    {
        "cidade": "Várzea Grande",
        "uf": "MT",
        "latitude": -15.645816,
        "longitude": -56.132218,
        "empresa": "ALGAR (CTBC TELECOM)",
        "cnpj": 71208516000174,
        "pf-ou-pj": "Pessoa Jurídica",
        "info-tecnologia": [
            {
                "tecnologia": "ETHERNET",
                "tipo-de-Produto": "LINHA_DEDICADA",
                "meio-de-acesso": "Fibra",
                "quantidade-acesso": 9
            }
        ]
    }
]