[
    {
        "cidade": "Balsas",
        "uf": "MA",
        "latitude": -7.53214,
        "longitude": -46.037163,
        "empresa": "ALGAR (CTBC TELECOM)",
        "cnpj": 5872814000130,
        "pf-ou-pj": "Pessoa Jurídica",
        "info-tecnologia": [
            {
                "tecnologia": "ETHERNET",
                "tipo-de-Produto": "LINHA_DEDICADA",
                "meio-de-acesso": "Fibra",
                "quantidade-acesso": 1
            }
        ]
    },
    {
        "cidade": "Colinas",
        "uf": "MA",
        "latitude": -6.031986,
        "longitude": -44.254345,
        "empresa": "ALGAR (CTBC TELECOM)",
        "cnpj": 71208516000174,
        "pf-ou-pj": "Pessoa Jurídica",
        "info-tecnologia": [
            {
                "tecnologia": "ETHERNET",
                "tipo-de-Produto": "LINHA_DEDICADA",
                "meio-de-acesso": "Fibra",
                "quantidade-acesso": 1
            }
        ]
    },
    {
        "cidade": "Imperatriz",
        "uf": "MA",
        "latitude": -5.518471,
        "longitude": -47.477726,
        "empresa": "ALGAR (CTBC TELECOM)",
        "cnpj": 71208516000174,
        "pf-ou-pj": "Pessoa Jurídica",
        "info-tecnologia": [
            {
                "tecnologia": "ETHERNET",
                "tipo-de-Produto": "LINHA_DEDICADA",
                "meio-de-acesso": "Fibra",
                "quantidade-acesso": 1
            }
        ]
    },
    {
        "cidade": "São Bernardo",
        "uf": "MA",
        "latitude": -3.372229,
        "longitude": -42.41912,
        "empresa": "ALGAR (CTBC TELECOM)",
        "cnpj": 71208516000174,
        "pf-ou-pj": "Pessoa Jurídica",
        "info-tecnologia": [
            {
                "tecnologia": "ETHERNET",
                "tipo-de-Produto": "LINHA_DEDICADA",
                "meio-de-acesso": "Fibra",
                "quantidade-acesso": 1
            }
        ]
    },
    {
        "cidade": "São Luís",
        "uf": "MA",
        "latitude": -2.538742,
        "longitude": -44.282513,
        "empresa": "ALGAR (CTBC TELECOM)",
        "cnpj": 71208516000174,
        "pf-ou-pj": "Pessoa Jurídica",
        "info-tecnologia": [
            {
                "tecnologia": "ETHERNET",
                "tipo-de-Produto": "LINHA_DEDICADA",
                "meio-de-acesso": "Fibra",
                "quantidade-acesso": 19
            }
        ]
    }
]